{"cycle":[{"latitude":35.0638824875761,"longitude":135.785454287786,"shisetsu":"京都市国際会館駅自転車等駐車場","kouei":"公営","koukyou":"地下鉄烏丸線","moyori":"国際会館","tel":"075-724-2378,","address":"京都市岩倉大鷺町５５０番地","chari":2152,"bike":null,"gentuki":269,"nirin":null,"charibike":null,"charirate":150,"bikerate":250,"nirinrate":null,"jidourate":null,"setumei":"月極　自転車：月2700円（障害者等・学生月2500円），原付：月4500円","freetime":"","tukigime":"有","kaisi":"5:00","end":"1:00","bikou":""},{"latitude":35.051706635188,"longitude":135.775912206067,"shisetsu":"京都市松ヶ崎駅自転車駐車場","kouei":"公営","koukyou":"地下鉄烏丸線","moyori":"松ヶ崎駅","tel":"075-722-5133","address":"左京区松ヶ崎井出ケ海道町4番地の21","chari":1200,"bike":null,"gentuki":null,"nirin":null,"charibike":null,"charirate":150,"bikerate":null,"nirinrate":null,"jidourate":null,"setumei":"月極　自転車：月2700円（障害者等・学生月2500円），原付：月4500円","freetime":"","tukigime":"有","kaisi":"5:00","end":"1:00","bikou":""},{"latitude":35.0511305515687,"longitude":135.76520745389,"shisetsu":"京都市高速鉄道北山駅自転車駐車場","kouei":"公営","koukyou":"地下鉄烏丸線","moyori":"北山駅","tel":"075-711-9690","address":"左京区下鴨半木町1番地の23","chari":600,"bike":null,"gentuki":null,"nirin":null,"charibike":null,"charirate":150,"bikerate":null,"nirinrate":null,"jidourate":null,"setumei":"月極　自転車：月2500円（障害者等・学生月2000円）","freetime":"","tukigime":"有","kaisi":"5:00","end":"0:30","bikou":""},{"latitude":35.0512408557058,"longitude":135.767504713329,"shisetsu":"GATO.D.M北山第一駐輪場","kouei":"民営","koukyou":"地下鉄烏丸線","moyori":"北山駅","tel":"075-803-1119","address":"左京区下鴨前萩町","chari":100,"bike":null,"gentuki":null,"nirin":null,"charibike":null,"charirate":null,"bikerate":null,"nirinrate":null,"jidourate":null,"setumei":"18時間100円（最初の1時間無料）","freetime":"入庫後1時間","tukigime":"無","kaisi":"0:00","end":"0:00","bikou":""},{"latitude":35.0443844661653,"longitude":135.758803652796,"shisetsu":"キタオオジタウン駐輪場","kouei":"民営","koukyou":"地下鉄烏丸線","moyori":"北大路駅","tel":"075-495-8561","address":"北区小山上総町","chari":784,"bike":null,"gentuki":123,"nirin":null,"charibike":null,"charirate":null,"bikerate":null,"nirinrate":null,"jidourate":null,"setumei":"【自転車】6時間毎，もしくは12時間毎200円（駐輪区画により異なる）【原付】2時間毎300円","freetime":"入庫後2時間","tukigime":"無","kaisi":"5:30","end":"0:30","bikou":""},{"latitude":35.0465087998751,"longitude":135.758078820582,"shisetsu":"今宮駐輪場","kouei":"民営","koukyou":"地下鉄烏丸線","moyori":"北大路駅","tel":"075-495-8561","address":"北区小山花ノ木町","chari":160,"bike":null,"gentuki":null,"nirin":null,"charibike":null,"charirate":200,"bikerate":null,"nirinrate":null,"jidourate":null,"setumei":"","freetime":"","tukigime":"無","kaisi":"7:00","end":"4.16666666666667E-02","bikou":""},{"latitude":35.0450414481262,"longitude":135.758874157676,"shisetsu":"北大路駅東駐車場","kouei":"民営","koukyou":"地下鉄烏丸線","moyori":"北大路駅","tel":"075-724-9198","address":"北区小山上総町","chari":null,"bike":60,"gentuki":null,"nirin":null,"charibike":null,"charirate":null,"bikerate":300,"nirinrate":400,"jidourate":null,"setumei":"","freetime":"","tukigime":"無","kaisi":"5:00","end":"0:00","bikou":""},{"latitude":35.0443044274173,"longitude":135.758884341249,"shisetsu":"北大路東月極駐輪場","kouei":"民営","koukyou":"地下鉄烏丸線","moyori":"北大路駅","tel":"075-706-3280","address":"北区小山上総町5番2","chari":58,"bike":null,"gentuki":10,"nirin":null,"charibike":null,"charirate":null,"bikerate":null,"nirinrate":null,"jidourate":null,"setumei":"月極のみ　自転車　月3500円，原付　月6000円","freetime":"","tukigime":"有","kaisi":"0:00","end":"0:00","bikou":""},{"latitude":35.0371638251002,"longitude":135.759783559916,"shisetsu":"鞍馬口ポート","kouei":"民営","koukyou":"地下鉄烏丸線","moyori":"鞍馬口","tel":"075-441-3995","address":"上京区烏丸通鞍馬口下ル東入ル上御霊中町","chari":80,"bike":null,"gentuki":20,"nirin":null,"charibike":null,"charirate":null,"bikerate":null,"nirinrate":null,"jidourate":null,"setumei":"月極のみ","freetime":"","tukigime":"有","kaisi":"0:00","end":"0:00","bikou":""},{"latitude":35.0378051302079,"longitude":135.758606443729,"shisetsu":"鞍馬口駐輪場","kouei":"民営","koukyou":"地下鉄烏丸線","moyori":"鞍馬口","tel":"075-451-6217","address":"北区鞍馬口通室町東入る小山町","chari":81,"bike":21,"gentuki":null,"nirin":null,"charibike":null,"charirate":null,"bikerate":null,"nirinrate":null,"jidourate":null,"setumei":"月極のみ","freetime":"","tukigime":"有","kaisi":"0:00","end":"0:00","bikou":""},{"latitude":35.0381570189809,"longitude":135.759171998122,"shisetsu":"烏丸鞍馬口月極駐輪場","kouei":"民営","koukyou":"地下鉄烏丸線","moyori":"鞍馬口","tel":"075-585-7000","address":"北区小山下総町","chari":77,"bike":null,"gentuki":null,"nirin":null,"charibike":null,"charirate":null,"bikerate":null,"nirinrate":null,"jidourate":null,"setumei":"月極のみ","freetime":"","tukigime":"有","kaisi":"0:00","end":"0:00","bikou":""},{"latitude":35.0373451358277,"longitude":135.76075560173,"shisetsu":"東烏丸駐輪場","kouei":"民営","koukyou":"地下鉄烏丸線","moyori":"鞍馬口","tel":"075-431-3730","address":"上京区御霊鳥居前通鞍馬口下ル上御霊堅町","chari":41,"bike":null,"gentuki":19,"nirin":null,"charibike":null,"charirate":null,"bikerate":null,"nirinrate":null,"jidourate":null,"setumei":"月極のみ　自転車2,500円/月，原付4,000円/月","freetime":"","tukigime":"有","kaisi":"0:00","end":"0:00","bikou":""},{"latitude":35.0283900608232,"longitude":135.759240252701,"shisetsu":"烏丸今出川駐輪場","kouei":"民営","koukyou":"地下鉄烏丸線","moyori":"今出川","tel":"075-761-1221","address":"上京区武者小路通室町東入梅屋町","chari":85,"bike":32,"gentuki":null,"nirin":null,"charibike":null,"charirate":null,"bikerate":null,"nirinrate":null,"jidourate":null,"setumei":"月極のみ","freetime":"","tukigime":"有","kaisi":"0:00","end":"0:00","bikou":""},{"latitude":35.0292345891704,"longitude":135.759129428668,"shisetsu":"烏丸今出川路上駐輪場","kouei":"民営","koukyou":"地下鉄烏丸線","moyori":"今出川","tel":"075-361-7431","address":"上京区今出川町","chari":56,"bike":null,"gentuki":null,"nirin":null,"charibike":null,"charirate":null,"bikerate":null,"nirinrate":null,"jidourate":null,"setumei":"2時間まで100円　以降2時間毎50円（24時間最大500円）","freetime":"入庫後30分","tukigime":"無","kaisi":"0:00","end":"0:00","bikou":""},{"latitude":35.0298624236686,"longitude":135.758812788572,"shisetsu":"パーくん今出川駐輪場","kouei":"民営","koukyou":"地下鉄烏丸線","moyori":"今出川","tel":"075-441-0680","address":"上京区岡松町258-1","chari":20,"bike":null,"gentuki":null,"nirin":null,"charibike":null,"charirate":null,"bikerate":null,"nirinrate":null,"jidourate":null,"setumei":"6H毎100円","freetime":"","tukigime":"無","kaisi":"0:00","end":"0:00","bikou":""},{"latitude":35.0164471996812,"longitude":135.759133952097,"shisetsu":"烏丸丸太町駐輪場","kouei":"民営","koukyou":"地下鉄烏丸線","moyori":"丸太町","tel":"","address":"中京区烏丸竹屋町上る大倉町215","chari":82,"bike":null,"gentuki":null,"nirin":null,"charibike":null,"charirate":150,"bikerate":null,"nirinrate":null,"jidourate":null,"setumei":"","freetime":"","tukigime":"無","kaisi":"0:00","end":"0:00","bikou":""},{"latitude":35.0172937036995,"longitude":135.761352129052,"shisetsu":"フルーツ自転車パーク丸太町駅","kouei":"民営","koukyou":"地下鉄烏丸線","moyori":"丸太町","tel":"0120-162-088","address":"中京区丸太町通東洞院東入関東屋町673","chari":59,"bike":null,"gentuki":null,"nirin":null,"charibike":null,"charirate":100,"bikerate":null,"nirinrate":null,"jidourate":null,"setumei":"","freetime":"","tukigime":"無","kaisi":"0:00","end":"0:00","bikou":""},{"latitude":35.0098693611409,"longitude":135.763267236201,"shisetsu":"ECO通ステーション","kouei":"民営","koukyou":"地下鉄烏丸線","moyori":"烏丸御池","tel":"075-241-1518","address":"中京区堺町通御池下ﾙ丸木材町","chari":57,"bike":null,"gentuki":null,"nirin":null,"charibike":null,"charirate":null,"bikerate":null,"nirinrate":null,"jidourate":null,"setumei":"1日250円（屋外）400円（屋内）","freetime":"","tukigime":"無","kaisi":"【月～金】7:00～22:00【土】8:00～21:00【日・祝】9:00～17:00","end":"","bikou":""},{"latitude":35.0109789801222,"longitude":135.758336697571,"shisetsu":"御池通まちかど駐輪場（烏丸エリア）","kouei":"民営","koukyou":"地下鉄烏丸線","moyori":"烏丸御池","tel":"0120-923-521","address":"烏丸通御池交差点周辺","chari":210,"bike":null,"gentuki":null,"nirin":null,"charibike":null,"charirate":null,"bikerate":null,"nirinrate":null,"jidourate":null,"setumei":"3時間まで100円，以降2時間毎に50円加算","freetime":"入庫後30分","tukigime":"無","kaisi":"0:00","end":"0:00","bikou":""},{"latitude":35.001364302964,"longitude":135.760327046728,"shisetsu":"タカノハスクエア駐輪場","kouei":"民営","koukyou":"地下鉄／阪急","moyori":"四条／烏丸","tel":"075-253-6868","address":"下京区仏光寺通烏丸東入上柳町","chari":32,"bike":null,"gentuki":8,"nirin":null,"charibike":null,"charirate":null,"bikerate":null,"nirinrate":null,"jidourate":null,"setumei":"月極のみ","freetime":"","tukigime":"有","kaisi":"0:00","end":"0:00","bikou":""},{"latitude":35.0065891433575,"longitude":135.761164107175,"shisetsu":"京都市御射山自転車等駐車場","kouei":"公営","koukyou":"地下鉄／阪急","moyori":"四条／烏丸","tel":"075-255-1511","address":"中京区東洞院通六角下る御射山町280番地","chari":887,"bike":null,"gentuki":121,"nirin":null,"charibike":null,"charirate":null,"bikerate":null,"nirinrate":null,"jidourate":null,"setumei":"【自転車】～1H無料，1H～5H100円，5H～10Hまで150円，10H～24H200円，24Hごと200円・月極　自転車：月2700円（障害者等・学生月2500円）【原付】～1H100円，1H～5H200円，5H～10Hまで250円，10H～24H300円，24Hごと300円・月極め　原付：月4500円","freetime":"自転車のみ入庫後1時間","tukigime":"有","kaisi":"0:00","end":"0:00","bikou":""},{"latitude":35.0025221551991,"longitude":135.754410360387,"shisetsu":"芦刈バイク駐輪","kouei":"民営","koukyou":"地下鉄／阪急","moyori":"四条／烏丸","tel":"075-351-2163","address":"下京区綾小路通西洞院西入る芦刈山町126","chari":15,"bike":null,"gentuki":19,"nirin":21,"charibike":null,"charirate":200,"bikerate":500,"nirinrate":600,"jidourate":500,"setumei":"125cc以下1日500円，125cc超1日600円","freetime":"","tukigime":"有","kaisi":"月極24時間，一時利用AM7:30～PM9:30","end":"","bikou":""},{"latitude":34.9862396113187,"longitude":135.756093076323,"shisetsu":"京都駅ビル西駐輪場","kouei":"民営","koukyou":"近鉄・地下鉄・JR","moyori":"京都","tel":"075-361-4551","address":"下京区東塩小路町","chari":857,"bike":343,"gentuki":null,"nirin":null,"charibike":null,"charirate":200,"bikerate":300,"nirinrate":450,"jidourate":null,"setumei":"","freetime":"","tukigime":"無","kaisi":"6:00","end":"0:00","bikou":""},{"latitude":34.9844088269052,"longitude":135.755930232845,"shisetsu":"京都駅八条口西自転車駐車場","kouei":"公営","koukyou":"近鉄・地下鉄・JR","moyori":"京都","tel":"0120-923-521","address":"南区九条北ノ内町","chari":408,"bike":null,"gentuki":null,"nirin":null,"charibike":null,"charirate":null,"bikerate":null,"nirinrate":null,"jidourate":null,"setumei":"月極のみ　月2,700円（障害者等・学生月2500円）","freetime":"","tukigime":"有","kaisi":"0:00","end":"0:00","bikou":""},{"latitude":34.9843569417301,"longitude":135.760209397565,"shisetsu":"京都駅八条口東自転車駐車場","kouei":"公営","koukyou":"近鉄・地下鉄・JR","moyori":"京都","tel":"0120-923-521","address":"南区東九条西山王町","chari":204,"bike":null,"gentuki":null,"nirin":null,"charibike":null,"charirate":null,"bikerate":null,"nirinrate":null,"jidourate":null,"setumei":"月極のみ　月2,700円（障害者等・学生月2500円）","freetime":"","tukigime":"有","kaisi":"0:00","end":"0:00","bikou":""},{"latitude":34.9875441128854,"longitude":135.755342186953,"shisetsu":"ｴｺｽﾃｰｼｮﾝ21下京区総合庁舎駐輪場","kouei":"民営","koukyou":"近鉄・地下鉄・JR","moyori":"京都","tel":"0120-923-521","address":"下京区西洞院通塩小路上る東塩小路町","chari":112,"bike":null,"gentuki":16,"nirin":null,"charibike":null,"charirate":null,"bikerate":null,"nirinrate":null,"jidourate":null,"setumei":"【自転車】6時間100円【原付】4時間200円","freetime":"入庫後2時間","tukigime":"無","kaisi":"0:00","end":"0:00","bikou":""},{"latitude":34.9868510990163,"longitude":135.762016507824,"shisetsu":"T-park東塩小路町","kouei":"民営","koukyou":"近鉄・地下鉄・JR","moyori":"京都","tel":"075-693-5761","address":"下京区東洞院七条下る東塩小路町556番4","chari":null,"bike":null,"gentuki":null,"nirin":null,"charibike":37,"charirate":300,"bikerate":300,"nirinrate":300,"jidourate":null,"setumei":"","freetime":"","tukigime":"無","kaisi":"0:00","end":"0:00","bikou":""},{"latitude":34.9789866483002,"longitude":135.759544453364,"shisetsu":"T-park南烏丸町駐輪場","kouei":"民営","koukyou":"地下鉄烏丸線","moyori":"九条","tel":"075-693-5761","address":"南区東九条南烏丸町34-25","chari":null,"bike":null,"gentuki":null,"nirin":null,"charibike":32,"charirate":300,"bikerate":300,"nirinrate":300,"jidourate":null,"setumei":"","freetime":"","tukigime":"無","kaisi":"0:00","end":"0:00","bikou":""},{"latitude":34.9793035387466,"longitude":135.756244611226,"shisetsu":"T-park九条車庫","kouei":"民営","koukyou":"地下鉄烏丸線","moyori":"九条","tel":"075-693-5761","address":"南区東九条下殿田町70","chari":49,"bike":null,"gentuki":null,"nirin":null,"charibike":null,"charirate":200,"bikerate":null,"nirinrate":null,"jidourate":null,"setumei":"","freetime":"","tukigime":"無","kaisi":"0:00","end":"0:00","bikou":""},{"latitude":34.9632054358624,"longitude":135.758424904455,"shisetsu":"ｴｺｽﾃｰｼｮﾝ21くいな橋","kouei":"民営","koukyou":"地下鉄烏丸線","moyori":"くいな橋","tel":"0120-923-521","address":"伏見区竹田中島町","chari":284,"bike":17,"gentuki":null,"nirin":null,"charibike":null,"charirate":100,"bikerate":200,"nirinrate":200,"jidourate":null,"setumei":"","freetime":"入庫後1時間","tukigime":"無","kaisi":"0:00","end":"0:00","bikou":""},{"latitude":34.9566010738944,"longitude":135.755337663523,"shisetsu":"竹田駅西口（一時利用区画C,D）","kouei":"民営","koukyou":"地下鉄烏丸線","moyori":"竹田","tel":"0120-03-6548","address":"伏見区竹田樋ノ井町","chari":306,"bike":null,"gentuki":38,"nirin":null,"charibike":null,"charirate":150,"bikerate":250,"nirinrate":null,"jidourate":null,"setumei":"","freetime":"","tukigime":"無","kaisi":"0:00","end":"0:00","bikou":""},{"latitude":34.9566084885761,"longitude":135.756875629702,"shisetsu":"竹田駅東口（一時利用区画A西，A東，B）","kouei":"民営","koukyou":"地下鉄烏丸線","moyori":"竹田","tel":"0120-03-6548","address":"伏見区竹田樋ノ井町","chari":584,"bike":null,"gentuki":40,"nirin":null,"charibike":null,"charirate":150,"bikerate":250,"nirinrate":null,"jidourate":null,"setumei":"","freetime":"","tukigime":"無","kaisi":"0:00","end":"0:00","bikou":""},{"latitude":34.9543877613996,"longitude":135.756350911829,"shisetsu":"竹田駅5番出口（定期利用区画1）","kouei":"民営","koukyou":"地下鉄烏丸線","moyori":"竹田","tel":"075-606-1825","address":"伏見区竹田向畑町","chari":135,"bike":30,"gentuki":null,"nirin":null,"charibike":null,"charirate":null,"bikerate":null,"nirinrate":null,"jidourate":"月極のみ　【自転車】月2700円【原付】4000円","setumei":"","freetime":"有","tukigime":"0:00","kaisi":"0:00","end":""},{"latitude":34.9550513906826,"longitude":135.755889521976,"shisetsu":"竹田駅6番出口（定期利用区画4）","kouei":"民営","koukyou":"地下鉄烏丸線","moyori":"竹田","tel":"075-606-1825","address":"伏見区竹田西樋ノ井町","chari":108,"bike":null,"gentuki":null,"nirin":null,"charibike":null,"charirate":null,"bikerate":null,"nirinrate":null,"jidourate":null,"setumei":"月極のみ　【自転車】2700円","freetime":"","tukigime":"有","kaisi":"0:00","end":"0:00","bikou":""},{"latitude":34.9543247348755,"longitude":135.755934756275,"shisetsu":"竹田駅南西（定期利用久区画3）","kouei":"民営","koukyou":"地下鉄烏丸線","moyori":"竹田","tel":"075-606-1825","address":"伏見区竹田西樋ノ井町","chari":150,"bike":null,"gentuki":null,"nirin":null,"charibike":null,"charirate":null,"bikerate":null,"nirinrate":null,"jidourate":null,"setumei":"月極のみ　【自転車】2700円","freetime":"","tukigime":"有","kaisi":"0:00","end":"0:00","bikou":""},{"latitude":34.9559485792712,"longitude":135.755871428256,"shisetsu":"竹田駅6番出口北（定期利用区画2）","kouei":"民営","koukyou":"地下鉄烏丸線","moyori":"竹田","tel":"075-606-1825","address":"伏見区竹田西樋ノ井町","chari":187,"bike":null,"gentuki":null,"nirin":null,"charibike":null,"charirate":null,"bikerate":null,"nirinrate":null,"jidourate":null,"setumei":"月極のみ　【自転車】2700円","freetime":"","tukigime":"有","kaisi":"0:00","end":"0:00","bikou":""},{"latitude":34.9561821432844,"longitude":135.757341542985,"shisetsu":"竹田駅前24時間駐輪場","kouei":"民営","koukyou":"地下鉄烏丸線","moyori":"竹田","tel":"0798-69-3720","address":"伏見区竹田樋ノ井町18-26","chari":103,"bike":null,"gentuki":null,"nirin":null,"charibike":null,"charirate":100,"bikerate":null,"nirinrate":null,"jidourate":null,"setumei":"","freetime":"","tukigime":"無","kaisi":"0:00","end":"0:00","bikou":""},{"latitude":34.9317970640945,"longitude":135.793047237186,"shisetsu":"京阪六地蔵駅自転車駐車場","kouei":"民営","koukyou":"地下鉄東西線","moyori":"六地蔵","tel":"075-601-3320","address":"伏見区桃山因幡町7番地","chari":600,"bike":100,"gentuki":null,"nirin":null,"charibike":null,"charirate":150,"bikerate":250,"nirinrate":350,"jidourate":250,"setumei":"125cc以下1日250円，125cc超1日350円","freetime":"","tukigime":"有","kaisi":"4:30","end":"1:00","bikou":""},{"latitude":34.9404796669173,"longitude":135.80361478664,"shisetsu":"京都市石田駅自転車等駐車場","kouei":"公営","koukyou":"地下鉄東西線","moyori":"石田","tel":"075－573－7365","address":"伏見区石田森東町46番地","chari":600,"bike":null,"gentuki":50,"nirin":null,"charibike":null,"charirate":150,"bikerate":250,"nirinrate":null,"jidourate":null,"setumei":"月極　自転車：月2700円（障害者等・学生月2500円），原付：月4500円","freetime":"","tukigime":"有","kaisi":"5:00","end":"1:00","bikou":""},{"latitude":34.9513302869127,"longitude":135.810935366332,"shisetsu":"京都市醍醐駅自転車駐車場","kouei":"公営","koukyou":"地下鉄東西線","moyori":"醍醐","tel":"075－573－2160","address":"伏見区醍醐高畑町1番地の36","chari":1000,"bike":null,"gentuki":null,"nirin":null,"charibike":null,"charirate":150,"bikerate":null,"nirinrate":null,"jidourate":null,"setumei":"月極　自転車：月2700円（障害者等・学生月2500円）","freetime":"","tukigime":"有","kaisi":"5:00","end":"1:00","bikou":""},{"latitude":34.952133378529,"longitude":135.811172897534,"shisetsu":"エコステーション21　パセオ・ダイゴロー東館アルプラザ","kouei":"民営","koukyou":"地下鉄東西線","moyori":"醍醐","tel":"0120－923－521","address":"伏見区醍醐高畑町1－37","chari":300,"bike":null,"longitude":135,"gentuki":null,"nirin":null,"charibike":null,"charirate":null,"bikerate":null,"nirinrate":null,"jidourate":"【自転車】8Ｈまで150円，以降8Ｈ毎100円，【バイク】8Ｈ200円，以降8Ｈ毎100円","setumei":"入庫後2時間30分","freetime":"無","tukigime":"0:00","kaisi":"0:00","end":""},{"latitude":34.9521468985225,"longitude":135.81091887111,"shisetsu":"エコステーション21　パセオ・ダイゴロー西館","kouei":"民営","koukyou":"地下鉄東西線","moyori":"醍醐","tel":"0120－923－521","address":"伏見区醍醐高畑町30－１","chari":410,"bike":null,"gentuki":78,"nirin":null,"charibike":null,"charirate":null,"bikerate":null,"nirinrate":null,"jidourate":null,"setumei":"【自転車】8Ｈまで150円，以降8Ｈ毎100円，【バイク】8Ｈ200円，以降8Ｈ毎100円","freetime":"入庫後2時間30分","tukigime":"無","kaisi":"0:00","end":"0:00","bikou":""},{"latitude":34.9612974645096,"longitude":135.812329041983,"shisetsu":"京都市小野駅自転車等駐車場","kouei":"公営","koukyou":"地下鉄東西線","moyori":"小野","tel":"075－573－0371","address":"山科区小野鐘附田町120番地の2","chari":"450","bike":null,"gentuki":15,"nirin":null,"charibike":null,"charirate":150,"bikerate":250,"nirinrate":null,"jidourate":null,"setumei":"月極　自転車：月2700円（障害者等・学生月2500円），原付：月4500円","freetime":"","tukigime":"有","kaisi":"5:00","end":"1:00","bikou":""},{"latitude":34.9720595767413,"longitude":135.814599861397,"shisetsu":"京都市椥辻駅自転車駐車場","kouei":"公営","koukyou":"地下鉄東西線","moyori":"椥辻","tel":"075－502－2270","address":"山科区椥辻池尻町14番地の4","chari":"800","bike":null,"gentuki":null,"nirin":null,"charibike":null,"charirate":150,"bikerate":null,"nirinrate":null,"jidourate":null,"setumei":"月極　自転車：月2700円（障害者等・学生月2500円）","freetime":"","tukigime":"有","kaisi":"5:00","end":"1:00","bikou":""},{"latitude":34.9719451752923,"longitude":135.813825458685,"shisetsu":"エコステーション21山科区総合庁舎来庁者駐輪場","kouei":"民営","koukyou":"地下鉄東西線","moyori":"椥辻","tel":"0120－923－521","address":"山科区椥辻池尻町14番地の2","chari":"224","bike":37,"gentuki":null,"nirin":null,"charibike":null,"charirate":null,"bikerate":null,"nirinrate":null,"jidourate":null,"setumei":"【自転車】8Ｈ毎100円，【自動二輪】（125ｃｃ以下）8Ｈ毎200円，【自動二輪】（125ｃｃ超）8Ｈ300円","freetime":"入庫後2時間","tukigime":"無","kaisi":"0:00","end":"0:00","bikou":""},{"latitude":34.9813687729192,"longitude":135.816382511295,"shisetsu":"京都市東野駅自転車駐車場","kouei":"公営","koukyou":"地下鉄東西線","moyori":"東野","tel":"075－502－1977","address":"山科区東野片下り町27番地の4","chari":"900","bike":null,"gentuki":null,"nirin":null,"charibike":null,"charirate":150,"bikerate":null,"nirinrate":null,"jidourate":null,"setumei":"月極　自転車：月2700円（障害者等・学生月2500円）","freetime":"","tukigime":"有","kaisi":"5:00","end":"1:00","bikou":""},{"latitude":34.9915861186118,"longitude":135.81650703626,"shisetsu":"京都市山科駅自転車等駐車場","kouei":"公営","koukyou":"地下鉄東西線","moyori":"山科","tel":"075－501－5206","address":"山科区安朱桟敷町200番地の2","chari":"1600","bike":null,"gentuki":300,"nirin":null,"charibike":null,"charirate":150,"bikerate":250,"nirinrate":null,"jidourate":null,"setumei":"月極　自転車：月2700円（障害者等・学生月2500円），原付：月4500円","freetime":"","tukigime":"有","kaisi":"5:00","end":"1:00","bikou":""},{"latitude":34.9918884026107,"longitude":135.816596132245,"shisetsu":"山科駅西自転車駐車場","kouei":"民営","koukyou":"地下鉄東西線","moyori":"山科","tel":"075－501－3485","address":"山科区上野御所ノ内町","chari":"589","bike":307,"gentuki":null,"nirin":null,"charibike":null,"charirate":150,"bikerate":250,"nirinrate":350,"jidourate":null,"setumei":"","freetime":"","tukigime":"有","kaisi":"0:00","end":"0:00","bikou":""},{"latitude":34.9923646819633,"longitude":135.818095464666,"shisetsu":"山科駅前24時間駐輪場","kouei":"民営","koukyou":"地下鉄東西線","moyori":"山科","tel":"0798－69－3720","address":"山科区安朱中溝町14番1","chari":"178","bike":null,"gentuki":25,"nirin":null,"charibike":null,"charirate":100,"bikerate":150,"nirinrate":null,"jidourate":null,"setumei":"","freetime":"","tukigime":"無","kaisi":"0:00","end":"0:00","bikou":""},{"latitude":34.9957384159313,"longitude":135.802651034069,"shisetsu":"京都市御陵駅北自転車等駐車場","kouei":"公営","koukyou":"地下鉄東西線","moyori":"御陵","tel":"075－591－2665","address":"山科区御陵原西町12番地の12","chari":"75","bike":null,"gentuki":25,"nirin":null,"charibike":null,"charirate":null,"bikerate":null,"nirinrate":null,"jidourate":null,"setumei":"月極のみ　【自転車】2700円（障害者等・学生月2500円）），原付：月4500円","freetime":"","tukigime":"有","kaisi":"5:00","end":"1:00","bikou":""},{"latitude":34.9957384159313,"longitude":135.802187396951,"shisetsu":"京都市御陵駅南自転車駐車場","kouei":"公営","koukyou":"地下鉄東西線","moyori":"御陵","tel":"075－591－2665","address":"山科区御陵鴨戸町51番地の7","chari":"200","bike":null,"gentuki":null,"nirin":null,"charibike":null,"charirate":150,"bikerate":null,"nirinrate":null,"jidourate":null,"setumei":"月極　自転車：月2700円（障害者等・学生月2500円）","freetime":"","tukigime":"有","kaisi":"5:00","end":"1:00","bikou":""},{"latitude":35.0094655213583,"longitude":135.788117775247,"shisetsu":"蹴上駐輪場","kouei":"民営","koukyou":"地下鉄東西線","moyori":"蹴上","tel":"075－761－1221","address":"東山区三条通白川橋東入七町目東分木町","chari":37,"bike":4,"gentuki":null,"nirin":null,"charibike":null,"charirate":null,"bikerate":null,"nirinrate":null,"jidourate":null,"setumei":"月極のみ","freetime":"","tukigime":"有","kaisi":"0:00","end":"0:00","bikou":""},{"latitude":35.0265961039756,"longitude":135.794813398179,"shisetsu":"京都市銀閣寺観光駐車場","kouei":"公営","koukyou":"その他（京都市営バス銀閣寺道）","moyori":"京都市営バス銀閣寺道","tel":"075－361－7431","address":"左京区浄土寺石橋町62番地","chari":5,"bike":15,"gentuki":null,"nirin":null,"charibike":null,"charirate":200,"bikerate":null,"nirinrate":400,"jidourate":null,"setumei":"","freetime":"","tukigime":"無","kaisi":"8:00","end":"17:00","bikou":""},{"latitude":35.0090644104253,"longitude":135.773299663825,"shisetsu":"エコステーション21京阪三条","kouei":"民営","koukyou":"地下鉄東西線","moyori":"三条京阪","tel":"0120－923－521","address":"東山区大和大路通三条下る大黒町","chari":null,"bike":null,"gentuki":64,"nirin":7,"charibike":null,"charirate":null,"bikerate":null,"nirinrate":null,"jidourate":null,"setumei":"【原付】12Ｈまで300円，以降12Ｈ毎150円，【バイク】12Ｈまで400円，以降12Ｈ毎200円","freetime":"入庫後1時間","tukigime":"無","kaisi":"0:00","end":"0:00","bikou":""},{"latitude":35.007900990103,"longitude":135.772579983734,"shisetsu":"エコステーション21京阪三条南ビル","kouei":"民営","koukyou":"地下鉄東西線","moyori":"三条京阪","tel":"0120－923－521","address":"東山区新五軒町","chari":40,"bike":null,"gentuki":38,"nirin":null,"charibike":null,"charirate":null,"bikerate":null,"nirinrate":null,"jidourate":null,"setumei":"【自転車】12Ｈまで200円，以降12Ｈ毎100円，【原付】12Ｈまで300円，以降12Ｈ毎150円","freetime":"入庫後1時間","tukigime":"無","kaisi":"0:00","end":"0:00","bikou":""},{"latitude":35.0087425324585,"longitude":135.773692647032,"shisetsu":"エコステーション21三条東","kouei":"民営","koukyou":"地下鉄東西線","moyori":"三条京阪","tel":"0120－923－521","address":"東山区大和大路通三条下る大黒町","chari":217,"bike":null,"gentuki":50,"nirin":11,"charibike":null,"charirate":null,"bikerate":null,"nirinrate":null,"jidourate":null,"setumei":"【自転車】12Ｈまで200円，以降12Ｈ毎100円，【原付】12Ｈまで300円，以降12Ｈ毎150円，【自動二輪】（125ｃｃ超）12Ｈまで400円，以降12Ｈ毎200円","freetime":"入庫後1時間","tukigime":"無","kaisi":"0:00","end":"0:00","bikou":""},{"latitude":35.0137510428035,"longitude":135.782951358449,"shisetsu":"岡崎公園駐車場","kouei":"民営","koukyou":"地下鉄東西線","moyori":"東山","tel":"075－361－7431","address":"左京区岡崎最勝寺町63番地","chari":10,"bike":30,"gentuki":null,"nirin":null,"charibike":null,"charirate":200,"bikerate":300,"nirinrate":400,"jidourate":null,"setumei":"","freetime":"","tukigime":"無","kaisi":"7:30","end":"22:30","bikou":""},{"latitude":35.0073668635932,"longitude":135.767223613531,"shisetsu":"エコステーション21ろっくんプラザ","kouei":"民営","koukyou":"地下鉄東西線","moyori":"京都市役所前","tel":"0120－923－521","address":"中京区桜之町","chari":70,"bike":null,"gentuki":null,"nirin":null,"charibike":null,"charirate":null,"bikerate":null,"nirinrate":null,"jidourate":null,"setumei":"1Ｈまで50円，3Ｈまで100円，以降1Ｈ毎50円","freetime":"","tukigime":"無","kaisi":"0:00","end":"0:00","bikou":""},{"latitude":35.0107995262108,"longitude":135.769633413618,"shisetsu":"御池通まちかど駐輪場（河原町エリア）","kouei":"民営","koukyou":"地下鉄東西線","moyori":"京都市役所前","tel":"0120－923－521","address":"河原町御池交差点付近","chari":"208","bike":null,"gentuki":null,"nirin":null,"charibike":null,"charirate":null,"bikerate":null,"nirinrate":null,"jidourate":null,"setumei":"3Ｈまで100円，以降2Ｈ毎50円","freetime":"入庫後30分","tukigime":"無","kaisi":"0:00","end":"0:00","bikou":""},{"latitude":35.0086991219974,"longitude":135.766079355211,"shisetsu":"町家パーク","kouei":"民営","koukyou":"地下鉄東西線","moyori":"京都市役所前","tel":"075－255－0739","address":"中京区弁慶石町","chari":40,"bike":null,"gentuki":5,"nirin":null,"charibike":null,"charirate":null,"bikerate":null,"nirinrate":null,"jidourate":null,"setumei":"【自転車】3Ｈ100円，【原付】1Ｈ100円","freetime":"","tukigime":"有","kaisi":"8:00","end":"22:00","bikou":""},{"latitude":35.0072569516373,"longitude":135.764992424284,"shisetsu":"富小路六角自転車駐車場","kouei":"民営","koukyou":"地下鉄東西線","moyori":"京都市役所前","tel":"075－255－9737","address":"中京区六角通柳馬場東入る大黒町81番地","chari":464,"bike":66,"gentuki":null,"nirin":null,"charibike":null,"charirate":150,"bikerate":250,"nirinrate":350,"jidourate":250,"setumei":"","freetime":"入庫後1時間","tukigime":"無","kaisi":"0:00","end":"0:00","bikou":""},{"latitude":35.0081065029028,"longitude":135.768329536525,"shisetsu":"T-park桜之町駐輪場","kouei":"民営","koukyou":"地下鉄東西線","moyori":"京都市役所前","tel":"075－693－5761","address":"中京区桜之町414","chari":null,"bike":null,"gentuki":null,"nirin":null,"charibike":36,"charirate":300,"bikerate":300,"nirinrate":300,"jidourate":null,"setumei":"","freetime":"","tukigime":"無","kaisi":"0:00","end":"0:00","bikou":"（台数）36台のうち大型自動二輪は5台"},{"latitude":35.0081065029028,"longitude":135.76820514821,"shisetsu":"T-park桜之町２駐輪場","kouei":"民営","koukyou":"地下鉄東西線","moyori":"京都市役所前","tel":"075－693－5761","address":"中京区桜之町414","chari":null,"bike":null,"gentuki":null,"nirin":null,"charibike":62,"charirate":300,"bikerate":null,"nirinrate":null,"jidourate":null,"setumei":"【バイク】1日300円","freetime":"","tukigime":"無","kaisi":"0:00","end":"0:00","bikou":""},{"latitude":35.0107397402413,"longitude":135.742093170561,"shisetsu":"二条駅まちかど東駐輪場","kouei":"民営","koukyou":"地下鉄・ＪＲ","moyori":"二条","tel":"0800－3333－321","address":"中京区西ノ京栂尾町","chari":68,"bike":null,"gentuki":null,"nirin":null,"charibike":null,"charirate":null,"bikerate":null,"nirinrate":null,"jidourate":null,"setumei":"6Ｈ150円，以降6Ｈ毎に100円，","freetime":"入庫後1時間","tukigime":"無","kaisi":"0:00","end":"0:00","bikou":""},{"latitude":35.0108096141597,"longitude":135.740801250984,"shisetsu":"二条駅まちかど西駐輪場","kouei":"民営","koukyou":"地下鉄・ＪＲ","moyori":"二条","tel":"0120－923－521","address":"中京区西ノ京栂尾町","chari":203,"bike":null,"gentuki":null,"nirin":null,"charibike":null,"charirate":null,"bikerate":null,"nirinrate":null,"jidourate":null,"setumei":"6Ｈ100円","freetime":"入庫後1時間","tukigime":"無","kaisi":"0:00","end":"0:00","bikou":""},{"latitude":35.0098082019407,"longitude":135.741687819016,"shisetsu":"京都市二条駅南自転車駐車場","kouei":"公営","koukyou":"地下鉄・ＪＲ","moyori":"二条","tel":"0800－3333－321","address":"中京区西ノ京栂尾町2番地","chari":1060,"bike":null,"gentuki":null,"nirin":null,"charibike":null,"charirate":150,"bikerate":null,"nirinrate":null,"jidourate":null,"setumei":"月極　月2,700円（障害者等・学生月2500円）","freetime":"","tukigime":"有","kaisi":"5:00","end":"1:00","bikou":""},{"latitude":35.0084646940499,"longitude":135.744565549046,"shisetsu":"京都三条会商店街駐輪場","kouei":"民営","koukyou":"地下鉄・ＪＲ","moyori":"二条","tel":"075－803－3466","address":"中京区壬生馬場町14－7","chari":11,"bike":15,"gentuki":null,"nirin":null,"charibike":null,"charirate":null,"bikerate":null,"nirinrate":null,"jidourate":null,"setumei":"月極のみ　【自転車】3150円/月【原付】4550円/月【自動二輪（中型）】5600円/月【自動二輪（大型）7000円/月","freetime":"","tukigime":"有","kaisi":"0:00","end":"0:00","bikou":""},{"latitude":35.0131664947318,"longitude":135.751411536884,"shisetsu":"二条城駐車場","kouei":"公営","koukyou":"地下鉄東西線","moyori":"二条城前","tel":"075－361－7431","address":"中京区二条通堀川西入る二条城町541番地","chari":100,"bike":35,"gentuki":null,"nirin":null,"charibike":null,"charirate":200,"bikerate":null,"nirinrate":null,"jidourate":null,"setumei":"【バイク】1日200円","freetime":"","tukigime":"無","kaisi":"0:00","end":"0:00","bikou":""},{"latitude":35.0102139672283,"longitude":135.732307820676,"shisetsu":"京都市西大路御池駅自転車等駐車場","kouei":"公営","koukyou":"地下鉄東西線","moyori":"西大路御池","tel":"075－811－1119","address":"中京区西ノ京下合町38番地の4","chari":384,"bike":null,"gentuki":51,"nirin":null,"charibike":null,"charirate":150,"bikerate":250,"nirinrate":null,"jidourate":null,"setumei":"月極　月2,700円（障害者等・学生月2500円），原付：月4500円","freetime":"","tukigime":"有","kaisi":"5:00","end":"1:00","bikou":""},{"latitude":35.0106910226913,"longitude":135.715309766399,"shisetsu":"京都市太秦天神川駅自転車等駐車場","kouei":"公営","koukyou":"地下鉄東西線","moyori":"太秦天神川","tel":"075－864－0648","address":"右京区太秦下刑部町9番地の2","chari":840,"bike":null,"gentuki":196,"nirin":null,"charibike":null,"charirate":150,"bikerate":250,"nirinrate":null,"jidourate":null,"setumei":"月極　月2,700円（障害者等・学生月2500円），原付：月4500円","freetime":"","tukigime":"有","kaisi":"5:00","end":"1:00","bikou":""},{"latitude":34.9963936883381,"longitude":135.742237975356,"shisetsu":"丹波口駅駐輪場","kouei":"民営","koukyou":"JR線","moyori":"丹波口","tel":"075－821－7080","address":"下京区中堂寺北町","chari":286,"bike":null,"gentuki":null,"nirin":null,"charibike":null,"charirate":null,"bikerate":null,"nirinrate":null,"jidourate":null,"setumei":"12Ｈ100円","freetime":"","tukigime":"無","kaisi":"0:00","end":"0:00","bikou":""},{"latitude":35.0181271448197,"longitude":135.730764122011,"shisetsu":"京都市円町駅自転車等駐車場","kouei":"公営","koukyou":"JR線","moyori":"円町","tel":"0800－3333－321","address":"中京区西ノ京南円町42番地の1","chari":690,"bike":null,"gentuki":71,"nirin":null,"charibike":null,"charirate":150,"bikerate":250,"nirinrate":null,"jidourate":null,"setumei":"月極　月2,700円（障害者等・学生月2500円），原付：月4500円","freetime":"","tukigime":"有","kaisi":"5:00","end":"1:00","bikou":""},{"latitude":35.0182184149826,"longitude":135.73013260005,"shisetsu":"円町駅西自転車駐車場","kouei":"民営","koukyou":"JR線","moyori":"円町","tel":"075－361－7431","address":"中京区西ノ京円町42番地の1","chari":258,"bike":null,"gentuki":35,"nirin":null,"charibike":null,"charirate":null,"bikerate":null,"nirinrate":null,"jidourate":null,"setumei":"月極のみ","freetime":"","tukigime":"有","kaisi":"5:00","end":"1:00","bikou":""},{"latitude":35.0185175775804,"longitude":135.717434055525,"shisetsu":"京都市花園駅自転車等駐車場","kouei":"公営","koukyou":"JR線","moyori":"花園","tel":"0800－3333－321","address":"右京区花園寺ノ内町5番地","chari":730,"bike":null,"gentuki":50,"nirin":null,"charibike":null,"charirate":150,"bikerate":250,"nirinrate":null,"jidourate":null,"setumei":"月極　月2,700円（障害者等・学生月2500円），原付：月4500円","freetime":"","tukigime":"有","kaisi":"5:00","end":"1:00","bikou":""},{"latitude":35.0171791754535,"longitude":135.700811255654,"shisetsu":"京都市太秦自転車等駐車場","kouei":"公営","koukyou":"JR線","moyori":"太秦","tel":"0800－3333－321","address":"右京区太秦上ノ段町19番地の2","chari":947,"bike":null,"gentuki":74,"nirin":null,"charibike":null,"charirate":150,"bikerate":250,"nirinrate":null,"jidourate":null,"setumei":"月極　月2,700円（障害者等・学生月2500円），原付：月4500円","freetime":"","tukigime":"有","kaisi":"5:00","end":"1:00","bikou":""},{"latitude":35.018410283267,"longitude":135.680021223756,"shisetsu":"トロッコ嵯峨駅駐輪場","kouei":"民営","koukyou":"JR線","moyori":"トロッコ嵯峨","tel":"075－881－4898","address":"右京区嵯峨天竜寺車道町","chari":170,"bike":null,"gentuki":40,"nirin":null,"charibike":null,"charirate":200,"bikerate":300,"nirinrate":null,"jidourate":null,"setumei":"料金前払で退出自由","freetime":"","tukigime":"有","kaisi":"0:00","end":"0:00","bikou":""},{"latitude":35.0185503232195,"longitude":135.681631647293,"shisetsu":"JR嵯峨嵐山南駐輪場","kouei":"民営","koukyou":"JR線","moyori":"トロッコ嵯峨","tel":"075－881－4898","address":"右京区嵯峨天竜寺車道町","chari":150,"bike":null,"gentuki":null,"nirin":null,"charibike":null,"charirate":null,"bikerate":null,"nirinrate":null,"jidourate":null,"setumei":"月極のみ","freetime":"","tukigime":"有","kaisi":"0:00","end":"0:00","bikou":""},{"latitude":35.018943269865,"longitude":135.681623990763,"shisetsu":"京都市嵯峨嵐山駅自転車駐車場","kouei":"公営","koukyou":"JR線","moyori":"トロッコ嵯峨","tel":"0800－3333－321","address":"右京区嵯峨天龍寺広道町20番地の7","chari":383,"bike":null,"gentuki":null,"nirin":null,"charibike":null,"charirate":150,"bikerate":null,"nirinrate":null,"jidourate":null,"setumei":"月極　月2,700円（障害者等・学生月2500円）","freetime":"","tukigime":"有","kaisi":"5:00","end":"1:00","bikou":""},{"latitude":35.0138473577906,"longitude":135.679957419337,"shisetsu":"京都市嵐山観光駐車場","kouei":"公営","koukyou":"JR線","moyori":"嵯峨嵐山","tel":"075－361－7431","address":"右京区嵯峨天竜寺造路町31番地の1","chari":10,"bike":5,"gentuki":null,"nirin":null,"charibike":null,"charirate":200,"bikerate":null,"nirinrate":null,"jidourate":null,"setumei":"【自動二輪】1日400円","freetime":"","tukigime":"無","kaisi":"8:00","end":"17:00","bikou":""},{"latitude":34.9857559056658,"longitude":135.76161704233,"shisetsu":"京都駅ビル東駐輪場","kouei":"民営","koukyou":"近鉄・地下鉄・JR","moyori":"京都","tel":"075-361-4551","address":"下京区東塩小路向畑町","chari":221,"bike":null,"gentuki":4,"nirin":null,"charibike":null,"charirate":200,"bikerate":300,"nirinrate":null,"jidourate":null,"setumei":"","freetime":"","tukigime":"無","kaisi":"6:00","end":"0:00","bikou":""},{"latitude":34.9868430475584,"longitude":135.75375606381,"shisetsu":"コンセプト　ライダーパーク","kouei":"民営","koukyou":"近鉄・地下鉄・JR","moyori":"京都","tel":"0120－485－017","address":"下京区南不動堂町","chari":null,"bike":null,"gentuki":null,"nirin":null,"charibike":26,"charirate":null,"bikerate":null,"nirinrate":null,"jidourate":null,"setumei":"自転車・原付バイク・大型バイクの選別なし1Ｈ100円　入庫後24Ｈ最大400円","freetime":"","tukigime":"有","kaisi":"0:00","end":"0:00","bikou":"月極あり（3台）"},{"latitude":34.9808070040999,"longitude":135.732888359173,"shisetsu":"わかば自転車駐輪場","kouei":"民営","koukyou":"JR線","moyori":"西大路","tel":"075－691－7725","address":"南区唐橋平垣町","chari":200,"bike":null,"gentuki":20,"nirin":null,"charibike":null,"charirate":150,"bikerate":250,"nirinrate":null,"jidourate":null,"setumei":"","freetime":"","tukigime":"有","kaisi":"6:00","end":"22:00","bikou":""},{"latitude":34.9817774314896,"longitude":135.73215190385,"shisetsu":"京都市西大路駅北自転車駐車場","kouei":"公営","koukyou":"JR線","moyori":"西大路","tel":"0800－3333－321","address":"南区吉祥院西ノ庄門口町29番地","chari":200,"bike":null,"gentuki":null,"nirin":null,"charibike":null,"charirate":null,"bikerate":null,"nirinrate":null,"jidourate":null,"setumei":"月極のみ　月2,700円（障害者等・学生月2500円）","freetime":"","tukigime":"有","kaisi":"4:30","end":"4.16666666666667E-02","bikou":""},{"latitude":34.9802222538379,"longitude":135.732087369105,"shisetsu":"西大路駅自転車駐車場","kouei":"民営","koukyou":"JR線","moyori":"西大路","tel":"075－662－3388","address":"南区唐橋西平垣町7番地の3","chari":930,"bike":70,"gentuki":null,"nirin":null,"charibike":null,"charirate":150,"bikerate":250,"nirinrate":null,"jidourate":250,"setumei":"","freetime":"","tukigime":"有","kaisi":"4:30","end":"1:00","bikou":""},{"latitude":34.9647088681414,"longitude":135.710720949631,"shisetsu":"京都市桂川駅東自転車等駐車場","kouei":"公営","koukyou":"JR線","moyori":"桂川","tel":"0800－3333－321","address":"南区久世上久世町110番地の3","chari":720,"bike":null,"gentuki":80,"nirin":null,"charibike":null,"charirate":150,"bikerate":250,"nirinrate":null,"jidourate":null,"setumei":"月極　月2,700円（障害者等・学生月2500円）","freetime":"","tukigime":"有","kaisi":"4:30","end":"1:30","bikou":""},{"latitude":34.9645581199596,"longitude":135.709013025452,"shisetsu":"京都市桂川駅西自転車等駐車場","kouei":"公営","koukyou":"JR線","moyori":"桂川","tel":"0800－3333－321","address":"南区久世高田町126番地","chari":560,"bike":null,"gentuki":440,"nirin":null,"charibike":null,"charirate":150,"bikerate":250,"nirinrate":null,"jidourate":null,"setumei":"月極　月2,700円（障害者等・学生月2500円）","freetime":"","tukigime":"有","kaisi":"4:30","end":"1:30","bikou":""},{"latitude":34.9806929437306,"longitude":135.770267289269,"shisetsu":"ｴｺｽﾃｰｼｮﾝ21東福寺駐輪場","kouei":"民営","koukyou":"JR線","moyori":"東福寺","tel":"0120－923－521","address":"東山区本町","chari":98,"bike":null,"gentuki":null,"nirin":null,"charibike":null,"charirate":150,"bikerate":null,"nirinrate":null,"jidourate":null,"setumei":"","freetime":"入庫後1時間","tukigime":"無","kaisi":"0:00","end":"0:00","bikou":""},{"latitude":34.9802505720248,"longitude":135.770182080173,"shisetsu":"サイクルパーク　東福寺","kouei":"民営","koukyou":"JR線","moyori":"東福寺","tel":"075－925－1191","address":"東山区本町14丁目225－8　東福寺駅南側","chari":null,"bike":null,"gentuki":17,"nirin":null,"charibike":null,"charirate":null,"bikerate":null,"nirinrate":null,"jidourate":null,"setumei":"月極のみ　【原付】5000/月　※契約時のみネームプレート代3000円","freetime":"","tukigime":"有","kaisi":"0:00","end":"0:00","bikou":""},{"latitude":34.9480708053677,"longitude":135.775585175345,"shisetsu":"JR藤森駅自転車駐輪場","kouei":"民営","koukyou":"JR線","moyori":"藤森","tel":"075-361-7431","address":"伏見区深草大亀谷大山町","chari":301,"bike":null,"gentuki":null,"nirin":null,"charibike":null,"charirate":150,"bikerate":null,"nirinrate":null,"jidourate":null,"setumei":"月極　月2,700円（障害者等・学生月2500円）","freetime":"入庫後1時間","tukigime":"有","kaisi":"0:00","end":"0:00","bikou":""},{"latitude":34.9327260811279,"longitude":135.770897231176,"shisetsu":"桃山駅自転車駐輪場","kouei":"公営","koukyou":"JR線","moyori":"桃山","tel":"075－222－3565","address":"伏見区桃山町鍋島","chari":126,"bike":null,"gentuki":null,"nirin":null,"charibike":null,"charirate":"無料","bikerate":null,"nirinrate":null,"jidourate":null,"setumei":"","freetime":"","tukigime":"無","kaisi":"0:00","end":"0:00","bikou":""},{"latitude":35.0051343777179,"longitude":135.770360447266,"shisetsu":"ｴｺｽﾃｰｼｮﾝ21西木屋町バイク駐車場","kouei":"民営","koukyou":"阪急線","moyori":"河原町","tel":"0120－923－521","address":"中京区高瀬川筋四条上る紙屋町","chari":null,"bike":55,"gentuki":null,"nirin":null,"charibike":null,"charirate":null,"bikerate":null,"nirinrate":null,"jidourate":null,"setumei":"【原付】8Ｈ毎200円，【バイク】8Ｈ毎300円","freetime":"入庫後1時間","tukigime":"無","kaisi":"0:00","end":"0:00","bikou":""},{"latitude":35.0026683993325,"longitude":135.770173905474,"shisetsu":"船頭町屋内駐輪場","kouei":"民営","koukyou":"阪急線","moyori":"河原町","tel":"075－761－8161","address":"下京区西木屋町四条下る船頭町","chari":1,"bike":27,"gentuki":null,"nirin":null,"charibike":null,"charirate":null,"bikerate":null,"nirinrate":null,"jidourate":null,"setumei":"月極のみ","freetime":"","tukigime":"有","kaisi":"0:00","end":"0:00","bikou":""},{"latitude":35.0041397079386,"longitude":135.765576770489,"shisetsu":"フヤ町パーキング","kouei":"民営","koukyou":"阪急線","moyori":"河原町","tel":"075－211－3168","address":"中京区麩屋町通四条上ル桝屋町","chari":10,"bike":5,"gentuki":null,"nirin":null,"charibike":null,"charirate":200,"bikerate":400,"nirinrate":600,"jidourate":null,"setumei":"","freetime":"","tukigime":"無","kaisi":"8:00","end":"23:00","bikou":""},{"latitude":35.0063570615475,"longitude":135.770595199733,"shisetsu":"先斗町バイク駐車場","kouei":"民営","koukyou":"阪急線","moyori":"河原町","tel":"075－213－5526","address":"中京区樵木町195番地の4","chari":null,"bike":390,"gentuki":null,"nirin":null,"charibike":null,"charirate":null,"bikerate":250,"nirinrate":350,"jidourate":250,"setumei":"","freetime":"","tukigime":"有","kaisi":"0:00","end":"0:00","bikou":""},{"latitude":35.0053161258653,"longitude":135.770443481031,"shisetsu":"先斗町自転車駐車場","kouei":"民営","koukyou":"阪急線","moyori":"河原町","tel":"075－256－8466","address":"中京区備前島町310番地の2","chari":328,"bike":null,"gentuki":null,"nirin":null,"charibike":null,"charirate":150,"bikerate":null,"nirinrate":null,"jidourate":null,"setumei":"","freetime":"","tukigime":"有","kaisi":"0:00","end":"0:00","bikou":""},{"latitude":35.0048951626837,"longitude":135.767829032386,"shisetsu":"新京極公園自転車駐車場","kouei":"民営","koukyou":"阪急線","moyori":"河原町","tel":"075-255-1511","address":"中京区裏寺町538－9","chari":108,"bike":null,"gentuki":null,"nirin":null,"charibike":null,"charirate":null,"bikerate":null,"nirinrate":null,"jidourate":null,"setumei":"月極のみ　月2500円","freetime":"","tukigime":"有","kaisi":"0:00","end":"0:00","bikou":""},{"latitude":35.0067521303216,"longitude":135.768210017879,"shisetsu":"イージー自転車パーク河原町","kouei":"民営","koukyou":"阪急線","moyori":"河原町","tel":"0120－162－088","address":"中京区裏寺町584番地","chari":115,"bike":null,"gentuki":null,"nirin":null,"charibike":null,"charirate":null,"bikerate":null,"nirinrate":null,"jidourate":null,"setumei":"平日8Ｈ100円，ただし24Ｈ最大200円，土日祝8Ｈ150円，ただし24Ｈ300円","freetime":"","tukigime":"無","kaisi":"0:00","end":"0:00","bikou":""},{"latitude":35.0059436548943,"longitude":135.764029198022,"shisetsu":"SOZO+（ソゾクロス）駐輪場","kouei":"民営","koukyou":"阪急線","moyori":"河原町","tel":"075－823－0001","address":"中京区柳馬場通蛸薬師下る十文字町437","chari":67,"bike":null,"gentuki":14,"nirin":null,"charibike":null,"charirate":200,"bikerate":300,"nirinrate":null,"jidourate":null,"setumei":"","freetime":"","tukigime":"無","kaisi":"0:00","end":"0:00","bikou":""},{"latitude":35.0047033631129,"longitude":135.768380320609,"shisetsu":"フルーツ自転車パーク四条河原町","kouei":"民営","koukyou":"阪急線","moyori":"河原町","tel":"0120－162－088","address":"中京区新京極通四条上る中之町576番地","chari":60,"bike":null,"gentuki":null,"nirin":null,"charibike":null,"charirate":null,"bikerate":null,"nirinrate":null,"jidourate":null,"setumei":"8Ｈまで150円，8Ｈ以降24Ｈまで300円","freetime":"","tukigime":"無","kaisi":"0:00","end":"0:00","bikou":""},{"latitude":35.0028805581193,"longitude":135.765535853659,"shisetsu":"フルーツ自転車パーク四条麩屋町","kouei":"民営","koukyou":"阪急線","moyori":"河原町","tel":"0120－162－088","address":"下京区麩屋町通四条下る八文字町345番地1","chari":108,"bike":null,"gentuki":null,"nirin":null,"charibike":null,"charirate":null,"bikerate":null,"nirinrate":null,"jidourate":null,"setumei":"平日8Ｈまで100円，24Ｈ毎最大150円，土日祝6Ｈ100円，24Ｈ毎最大200円","freetime":"","tukigime":"無","kaisi":"0:00","end":"0:00","bikou":""},{"latitude":35.0025524673921,"longitude":135.76589347698,"shisetsu":"ｴｺｽﾃｰｼｮﾝ21綾小路御幸町","kouei":"民営","koukyou":"阪急線","moyori":"河原町","tel":"0120－923－521","address":"下京区綾小路御幸町西入ル足袋屋町","chari":135,"bike":null,"gentuki":11,"nirin":null,"charibike":null,"charirate":null,"bikerate":null,"nirinrate":null,"jidourate":null,"setumei":"【自転車】3Ｈ毎100円，【原付】3Ｈ毎150円","freetime":"入庫後1時間","tukigime":"無","kaisi":"0:00","end":"0:00","bikou":""},{"latitude":35.0023561982031,"longitude":135.765621683256,"shisetsu":"GSパーク　俵屋町","kouei":"民営","koukyou":"阪急線","moyori":"河原町","tel":"06－4300－3418","address":"下京区俵屋町","chari":null,"bike":24,"gentuki":null,"nirin":null,"charibike":null,"charirate":null,"bikerate":null,"nirinrate":null,"jidourate":null,"setumei":"【原付】【バイク】12Ｈ毎300円","freetime":"","tukigime":"無","kaisi":"0:00","end":"0:00","bikou":""},{"latitude":35.0062668462559,"longitude":135.770431716932,"shisetsu":"七之舟入自転車駐車場","kouei":"民営","koukyou":"阪急線","moyori":"河原町","tel":"075－361－7431","address":"中京区備前島町","chari":134,"bike":null,"gentuki":null,"nirin":null,"charibike":null,"charirate":null,"bikerate":null,"nirinrate":null,"jidourate":null,"setumei":"6Ｈまで150円，以降6Ｈ毎50円加算，","freetime":"入庫後30分","tukigime":"無","kaisi":"0:00","end":"0:00","bikou":""},{"latitude":35.0303923607394,"longitude":135.77346700165,"shisetsu":"出町柳駐輪場","kouei":"民営","koukyou":"京阪線","moyori":"出町柳","tel":"075－723－0701","address":"左京区田中上柳町","chari":897,"bike":null,"gentuki":200,"nirin":null,"charibike":null,"charirate":150,"bikerate":250,"nirinrate":null,"jidourate":null,"setumei":"","freetime":"","tukigime":"有","kaisi":"0:00","end":"0:00","bikou":""},{"latitude":35.0302054204368,"longitude":135.773634729718,"shisetsu":"柳月堂出町柳駐輪場","kouei":"民営","koukyou":"京阪線","moyori":"出町柳","tel":"080－5701－5161","address":"左京区田中下柳町","chari":424,"bike":null,"gentuki":null,"nirin":null,"charibike":null,"charirate":null,"bikerate":null,"nirinrate":null,"jidourate":null,"setumei":"6Ｈ毎100円","freetime":"","tukigime":"無","kaisi":"0:00","end":"0:00","bikou":""},{"latitude":35.0303236888412,"longitude":135.770429259978,"shisetsu":"京都市出町駐車場","kouei":"公営","koukyou":"京阪線","moyori":"出町柳","tel":"075－251－0222","address":"上京区河原町通今出川上る青龍町","chari":540,"bike":null,"gentuki":80,"nirin":null,"charibike":null,"charirate":150,"bikerate":null,"nirinrate":null,"jidourate":null,"setumei":"【自動二輪】【原付】昼間：（4時30分～翌1時）1回30分までごとに60円。ただし，30分までごとに60円を加えた額が480円を超えるときは480円。夜間：（翌1時～9時）480円。","freetime":"","tukigime":"有","kaisi":"4:30","end":"1:00","bikou":""},{"latitude":35.0301062274495,"longitude":135.772842680509,"shisetsu":"出町柳まちかど駐輪場","kouei":"民営","koukyou":"京阪線","moyori":"出町柳","tel":"0120－923－521","address":"左京区田中下柳町","chari":150,"bike":null,"gentuki":null,"nirin":null,"charibike":null,"charirate":null,"bikerate":null,"nirinrate":null,"jidourate":null,"setumei":"3時間まで100円，以降3時間毎50円加算，12時間超以降12時間毎50円","freetime":"入庫後1時間","tukigime":"無","kaisi":"0:00","end":"0:00","bikou":""},{"latitude":35.0302054204368,"longitude":135.774939281357,"shisetsu":"フルーツ自転車パーク出町柳駅","kouei":"民営","koukyou":"京阪線","moyori":"出町柳","tel":"075-705-4141","address":"左京区田中上柳町77","chari":66,"bike":null,"gentuki":null,"nirin":null,"charibike":null,"charirate":null,"bikerate":null,"nirinrate":null,"jidourate":null,"setumei":"100円/24時間　以降12時間ごと50円","freetime":"","tukigime":"無","kaisi":"0:00","end":"0:00","bikou":""},{"latitude":35.0049569224064,"longitude":135.74927222787,"shisetsu":"PARK@四条大宮","kouei":"民営","koukyou":"阪急線","moyori":"大宮","tel":"0120－923－521","address":"中京区錦大宮通猪熊西入七軒町","chari":34,"bike":12,"gentuki":null,"nirin":null,"charibike":null,"charirate":null,"bikerate":null,"nirinrate":null,"jidourate":null,"setumei":"月極のみ","freetime":"","tukigime":"有","kaisi":"0:00","end":"0:00","bikou":""},{"latitude":35.0055866079522,"longitude":135.748983362865,"shisetsu":"TOYOラビットパーク四条大宮","kouei":"民営","koukyou":"阪急線","moyori":"大宮","tel":"0120－075－334","address":"中京区蛸薬師通大宮下る四坊大宮町173","chari":39,"bike":null,"gentuki":null,"nirin":null,"charibike":null,"charirate":null,"bikerate":null,"nirinrate":null,"jidourate":null,"setumei":"月極のみ　月3300円","freetime":"","tukigime":"有","kaisi":"0:00","end":"0:00","bikou":""},{"latitude":35.0032204917009,"longitude":135.748666543181,"shisetsu":"四条大宮まちかど駐輪場","kouei":"民営","koukyou":"阪急線","moyori":"大宮","tel":"0800－3333－321","address":"京福電鉄四条大宮駅南側","chari":141,"bike":null,"gentuki":null,"nirin":null,"charibike":null,"charirate":null,"bikerate":null,"nirinrate":null,"jidourate":null,"setumei":"200円12Ｈ，以降3Ｈ毎に100円加算","freetime":"入庫後1時間","tukigime":"無","kaisi":"0:00","end":"0:00","bikou":""},{"latitude":35.0053881621214,"longitude":135.748892510161,"shisetsu":"T-Park大宮町","kouei":"民営","koukyou":"阪急線","moyori":"大宮","tel":"075－693－5761","address":"中京区四条坊大宮町168－1","chari":null,"bike":null,"gentuki":null,"nirin":null,"charibike":80,"charirate":300,"bikerate":300,"nirinrate":300,"jidourate":null,"setumei":"","freetime":"","tukigime":"無","kaisi":"0:00","end":"0:00","bikou":""},{"latitude":35.0038234762106,"longitude":135.749698536709,"shisetsu":"四条大宮まちかど駐輪場２","kouei":"民営","koukyou":"阪急線","moyori":"大宮","tel":"0800－3333－321","address":"下京区立中町","chari":55,"bike":null,"gentuki":null,"nirin":null,"charibike":null,"charirate":null,"bikerate":null,"nirinrate":null,"jidourate":null,"setumei":"200円6Ｈ，以降3Ｈ毎に100円加算","freetime":"入庫後1時間","tukigime":"無","kaisi":"0:00","end":"0:00","bikou":""},{"latitude":35.0031384396678,"longitude":135.732771979201,"shisetsu":"第３ｼﾊﾞｳﾗ駐輪場","kouei":"民営","koukyou":"阪急線","moyori":"西院","tel":"075－313－0999","address":"右京区西院高山寺町","chari":102,"bike":73,"gentuki":null,"nirin":null,"charibike":null,"charirate":null,"bikerate":null,"nirinrate":null,"jidourate":null,"setumei":"月極のみ","freetime":"","tukigime":"有","kaisi":"0:00","end":"0:00","bikou":""},{"latitude":35.003307,"longitude":135.73106,"shisetsu":"阪急西院駐輪センター","kouei":"民営","koukyou":"阪急線","moyori":"西院","tel":"075－315－3088","address":"右京区西院高山寺町","chari":655,"bike":15,"gentuki":null,"nirin":null,"charibike":null,"charirate":150,"bikerate":null,"nirinrate":null,"jidourate":null,"setumei":"原付・バイク　月極のみ利用可能","freetime":"","tukigime":"有","kaisi":"6:30","end":"23:30","bikou":""},{"latitude":35.0042967014476,"longitude":135.731141289653,"shisetsu":"第1ｼﾊﾞｳﾗ駐輪場","kouei":"民営","koukyou":"阪急線","moyori":"西院","tel":"075－319－0999","address":"右京区西院西淳和院町","chari":35,"bike":30,"gentuki":null,"nirin":null,"charibike":null,"charirate":null,"bikerate":null,"nirinrate":null,"jidourate":null,"setumei":"月極のみ","freetime":"","tukigime":"有","kaisi":"0:00","end":"0:00","bikou":""},{"latitude":35.0023312722582,"longitude":135.731064414288,"shisetsu":"第2ｼﾊﾞｳﾗ駐輪場","kouei":"民営","koukyou":"阪急線","moyori":"西院","tel":"075－313－0999","address":"左京区西院西三蔵町","chari":35,"bike":35,"gentuki":null,"nirin":null,"charibike":null,"charirate":null,"bikerate":null,"nirinrate":null,"jidourate":null,"setumei":"月極のみ","freetime":"","tukigime":"有","kaisi":"0:00","end":"0:00","bikou":""},{"latitude":35.0039494154523,"longitude":135.732741694966,"shisetsu":"京都市西院自転車駐車場","kouei":"公営","koukyou":"阪急線","moyori":"西院","tel":"0800－3333－321","address":"右京区西院高山寺町19番地","chari":954,"bike":null,"gentuki":null,"nirin":null,"charibike":null,"charirate":150,"bikerate":null,"nirinrate":null,"jidourate":null,"setumei":"月極　月2,700円（障害者等・学生月2500円）","freetime":"","tukigime":"有","kaisi":"4:30","end":"1:00","bikou":""},{"latitude":35.0024801122375,"longitude":135.731232142356,"shisetsu":"フルーツバイクパーク西院","kouei":"民営","koukyou":"阪急線","moyori":"西院","tel":"0120－162－088","address":"左京区西院西三蔵町","chari":null,"bike":13,"gentuki":null,"nirin":null,"charibike":null,"charirate":null,"bikerate":null,"nirinrate":null,"jidourate":null,"setumei":"【原付】60分100円，24Ｈ最大300円，【バイク】60分100円，24Ｈ最大300円","freetime":"","tukigime":"無","kaisi":"0:00","end":"0:00","bikou":""},{"latitude":35.0047336690946,"longitude":135.731760369292,"shisetsu":"ブーブーパーク西院駐輪場","kouei":"民営","koukyou":"阪急線","moyori":"西院","tel":"075－823－0001","address":"右京区西院東淳和院町8－27","chari":70,"bike":39,"gentuki":null,"nirin":null,"charibike":null,"charirate":100,"bikerate":null,"nirinrate":null,"jidourate":null,"setumei":"【原付】【自動二輪】（125ｃｃ以下）1Ｈ毎100円，１日最大300円","freetime":"入庫後30分","tukigime":"無","kaisi":"0:00","end":"0:00","bikou":""},{"latitude":35.0036975367751,"longitude":135.734212227505,"shisetsu":"ブーブーパーク西院第3駐輪場","kouei":"民営","koukyou":"阪急線","moyori":"西院","tel":"075－823－0001","address":"中京区壬生仙念町","chari":35,"bike":null,"gentuki":6,"nirin":null,"charibike":null,"charirate":150,"bikerate":200,"nirinrate":null,"jidourate":null,"setumei":"","freetime":"","tukigime":"無","kaisi":"0:00","end":"0:00","bikou":""},{"latitude":34.9931675510865,"longitude":135.718962950675,"shisetsu":"京都市西京極自転車駐車場","kouei":"公営","koukyou":"阪急線","moyori":"西京極","tel":"0800－3333－321","address":"右京区西京極西大丸町80番地","chari":780,"bike":null,"gentuki":null,"nirin":null,"charibike":null,"charirate":150,"bikerate":null,"nirinrate":null,"jidourate":null,"setumei":"月極　月2,700円（障害者等・学生月2500円）","freetime":"","tukigime":"有","kaisi":"4:30","end":"1:30","bikou":""},{"latitude":34.9925034181308,"longitude":135.717779535974,"shisetsu":"T-park西京極堤町","kouei":"民営","koukyou":"阪急線","moyori":"西京極","tel":"075－693－5761","address":"右京区西京極堤町44番3","chari":null,"bike":null,"gentuki":null,"nirin":null,"charibike":51,"charirate":300,"bikerate":300,"nirinrate":300,"jidourate":null,"setumei":"","freetime":"","tukigime":"無","kaisi":"0:00","end":"0:00","bikou":""},{"latitude":34.9804011323295,"longitude":135.702126081091,"shisetsu":"K.M.Tパーク","kouei":"民営","koukyou":"阪急線","moyori":"桂","tel":"075－381－2630","address":"西京区桂南巽町","chari":34,"bike":54,"gentuki":null,"nirin":null,"charibike":null,"charirate":null,"bikerate":null,"nirinrate":null,"jidourate":null,"setumei":"月極のみ","freetime":"","tukigime":"有","kaisi":"0:00","end":"0:00","bikou":""},{"latitude":34.9788798700208,"longitude":135.703478388638,"shisetsu":"桂駐輪センター","kouei":"民営","koukyou":"阪急線","moyori":"桂","tel":"075－381－3335","address":"西京区川島北裏町","chari":147,"bike":null,"gentuki":91,"nirin":null,"charibike":null,"charirate":null,"bikerate":null,"nirinrate":null,"jidourate":null,"setumei":"月極のみ","freetime":"","tukigime":"有","kaisi":"0:00","end":"0:00","bikou":""},{"latitude":34.980227438815,"longitude":135.703664753158,"shisetsu":"桂東阪急ビル駐輪センター","kouei":"民営","koukyou":"阪急線","moyori":"桂","tel":"075－381－3335","address":"西京区桂野里町","chari":360,"bike":null,"gentuki":null,"nirin":null,"charibike":null,"charirate":180,"bikerate":null,"nirinrate":null,"jidourate":null,"setumei":"","freetime":"","tukigime":"有","kaisi":"6:30","end":"23:30","bikou":""},{"latitude":34.9786928119766,"longitude":135.702094632079,"shisetsu":"京都市桂駅西口自転車駐車場","kouei":"公営","koukyou":"阪急線","moyori":"桂","tel":"0800－3333－321","address":"西京区川島有栖川町52番地","chari":1721,"bike":null,"gentuki":null,"nirin":null,"charibike":null,"charirate":150,"bikerate":null,"nirinrate":null,"jidourate":null,"setumei":"月極　月2,700円（障害者等・学生月2500円）","freetime":"","tukigime":"有","kaisi":"4:30","end":"1:30","bikou":""},{"latitude":34.9799029554383,"longitude":135.705295442706,"shisetsu":"京都市桂駅東口自転車駐車場","kouei":"公営","koukyou":"阪急線","moyori":"桂","tel":"0800－3333－321","address":"西京区桂野里町41番地の45","chari":500,"bike":null,"gentuki":null,"nirin":null,"charibike":null,"charirate":150,"bikerate":null,"nirinrate":null,"jidourate":null,"setumei":"月極　月2,700円（障害者等・学生月2500円）","freetime":"","tukigime":"有","kaisi":"4:30","end":"1:30","bikou":""},{"latitude":34.9773414003504,"longitude":135.703352592587,"shisetsu":"京都市桂駅南自転車等駐車場","kouei":"公営","koukyou":"阪急線","moyori":"桂","tel":"0800－3333－321","address":"西京区川嶋北裏町116番地の7","chari":374,"bike":null,"gentuki":77,"nirin":null,"charibike":null,"charirate":150,"bikerate":250,"nirinrate":null,"jidourate":null,"setumei":"月極　月2,700円（障害者等・学生月2500円），原付：月4500円","freetime":"","tukigime":"有","kaisi":"4:30","end":"1:30","bikou":""},{"latitude":34.9799144078147,"longitude":135.705121890747,"shisetsu":"T-park桂野里町駐輪場","kouei":"民営","koukyou":"阪急線","moyori":"桂","tel":"075－693－5761","address":"西京区桂野里町41番15","chari":null,"bike":null,"gentuki":null,"nirin":null,"charibike":25,"charirate":300,"bikerate":300,"nirinrate":null,"jidourate":null,"setumei":"","freetime":"","tukigime":"無","kaisi":"0:00","end":"0:00","bikou":""},{"latitude":34.964269923128,"longitude":135.703429467952,"shisetsu":"阪急洛西口駅駐輪センター","kouei":"民営","koukyou":"阪急線","moyori":"洛西口","tel":"075－391－6681","address":"西京区川島六ノ坪町","chari":514,"bike":null,"gentuki":152,"nirin":null,"charibike":null,"charirate":150,"bikerate":300,"nirinrate":null,"jidourate":null,"setumei":"","freetime":"","tukigime":"有","kaisi":"0:00","end":"0:00","bikou":""},{"latitude":34.9905672871372,"longitude":135.694896302502,"shisetsu":"コクフ駐輪場","kouei":"民営","koukyou":"阪急線","moyori":"上桂","tel":"075－394－2666","address":"西京区上桂森上町","chari":300,"bike":20,"gentuki":null,"nirin":null,"charibike":null,"charirate":null,"bikerate":null,"nirinrate":null,"jidourate":null,"setumei":"月極のみ","freetime":"","tukigime":"有","kaisi":"0:00","end":"0:00","bikou":""},{"latitude":35.0006892440038,"longitude":135.68800780394,"shisetsu":"京都市松尾大社駅自転車等駐車場","kouei":"公営","koukyou":"阪急線","moyori":"松尾","tel":"0800－3333－321","address":"西京区嵐山宮ノ前町47番地の3","chari":180,"bike":null,"gentuki":20,"nirin":null,"charibike":null,"charirate":null,"bikerate":250,"nirinrate":null,"jidourate":null,"setumei":"【自転車】8Ｈまで100円，以降24Ｈまで50円加算，それ以降1日毎150円加算","freetime":"","tukigime":"無","kaisi":"0:00","end":"0:00","bikou":""},{"latitude":35.0003037776275,"longitude":135.687977519706,"shisetsu":"阪急松尾駅前24時間駐輪場","kouei":"民営","koukyou":"阪急線","moyori":"松尾","tel":"0798－69－3720","address":"西京区嵐山宮ノ前町46番地の4","chari":72,"bike":null,"gentuki":null,"nirin":null,"charibike":null,"charirate":null,"bikerate":null,"nirinrate":null,"jidourate":null,"setumei":"12Ｈ毎100円，以後8Ｈ毎50円","freetime":"","tukigime":"無","kaisi":"0:00","end":"0:00","bikou":""},{"latitude":35.0103482094685,"longitude":135.682081412211,"shisetsu":"T-park東一川町","kouei":"民営","koukyou":"阪急線","moyori":"嵐山","tel":"075－693－5761","address":"西京区嵐山東一川町12－1","chari":null,"bike":null,"gentuki":null,"nirin":null,"charibike":38,"charirate":200,"bikerate":200,"nirinrate":200,"jidourate":null,"setumei":"","freetime":"","tukigime":"無","kaisi":"0:00","end":"0:00","bikou":""},{"latitude":34.979019663016,"longitude":135.752493001255,"shisetsu":"京都市東寺駅自転車等駐車場","kouei":"公営","koukyou":"近鉄線","moyori":"東寺","tel":"0800－3333－321","address":"南区西九条島町66番地の1","chari":480,"bike":null,"gentuki":60,"nirin":null,"charibike":null,"charirate":150,"bikerate":250,"nirinrate":null,"jidourate":null,"setumei":"月極　月2,700円（障害者等・学生月2500円），原付：月4500円","freetime":"","tukigime":"有","kaisi":"5:00","end":"1:00","bikou":""},{"latitude":34.9742520079934,"longitude":135.752379312378,"shisetsu":"京都市近鉄十条駅自転車等駐車場","kouei":"公営","koukyou":"近鉄線","moyori":"十条","tel":"0800－3333－321","address":"南区西九条西柳ノ内町91番地","chari":310,"bike":null,"gentuki":40,"nirin":null,"charibike":null,"charirate":150,"bikerate":250,"nirinrate":null,"jidourate":null,"setumei":"月極　月2,700円（障害者等・学生月2500円），原付：月4500円","freetime":"","tukigime":"有","kaisi":"5:00","end":"1:00","bikou":""},{"latitude":34.964663523413,"longitude":135.752665450676,"shisetsu":"京都市上鳥羽口駅自転車等駐車場","kouei":"公営","koukyou":"近鉄線","moyori":"上鳥羽口","tel":"0800－3333－321","address":"伏見区竹田向代町110番地の1","chari":350,"bike":null,"gentuki":50,"nirin":null,"charibike":null,"charirate":150,"bikerate":250,"nirinrate":null,"jidourate":null,"setumei":"月極　月2,700円（障害者等・学生月2500円），原付：月4500円","freetime":"","tukigime":"有","kaisi":"5:00","end":"1:00","bikou":""},{"latitude":34.9464758173505,"longitude":135.76088681714,"shisetsu":"近鉄伏見駅駐輪場","kouei":"民営","koukyou":"近鉄戦","moyori":"伏見","tel":"075－642－9190","address":"伏見区深草柴田屋敷町","chari":90,"bike":null,"gentuki":30,"nirin":null,"charibike":null,"charirate":150,"bikerate":200,"nirinrate":null,"jidourate":null,"setumei":"","freetime":"","tukigime":"有","kaisi":"0:00","end":"0:00","bikou":""},{"latitude":34.941103499501,"longitude":135.765933946895,"shisetsu":"エコステーション21京阪丹波橋","kouei":"民営","koukyou":"近鉄線","moyori":"丹波橋","tel":"0120－923－521","address":"伏見区桃山井伊掃部西町","chari":251,"bike":null,"gentuki":null,"nirin":null,"charibike":null,"charirate":150,"bikerate":null,"nirinrate":null,"jidourate":null,"setumei":"","freetime":"入庫後30分","tukigime":"無","kaisi":"0:00","end":"0:00","bikou":""},{"latitude":34.9404025784594,"longitude":135.76548035875,"shisetsu":"エイワバイクプール","kouei":"民営","koukyou":"近鉄線","moyori":"丹波橋","tel":"075－602－1644","address":"伏見区桃山井伊掃部西町","chari":100,"bike":null,"gentuki":null,"nirin":null,"charibike":null,"charirate":null,"bikerate":null,"nirinrate":null,"jidourate":null,"setumei":"月極のみ","freetime":"","tukigime":"有","kaisi":"0:00","end":"0:00","bikou":""},{"latitude":34.9390789715305,"longitude":135.764943849441,"shisetsu":"サイクルパーク丹波橋","kouei":"民営","koukyou":"近鉄線","moyori":"丹波橋","tel":"075－925－1191","address":"伏見区京町北7丁目6－1","chari":70,"bike":80,"gentuki":null,"nirin":null,"charibike":null,"charirate":150,"bikerate":300,"nirinrate":300,"jidourate":null,"setumei":"","freetime":"","tukigime":"無","kaisi":"0:00","end":"0:00","bikou":""},{"latitude":34.9323496078501,"longitude":135.764006235552,"shisetsu":"伏見桃山駐輪場","kouei":"民営","koukyou":"近鉄線","moyori":"桃山御陵前","tel":"075－612－7700","address":"伏見区両替町","chari":100,"bike":null,"gentuki":null,"nirin":null,"charibike":null,"charirate":null,"bikerate":null,"nirinrate":null,"jidourate":null,"setumei":"月極のみ","freetime":"","tukigime":"有","kaisi":"5:00","end":"0:00","bikou":""},{"latitude":34.9316688913904,"longitude":135.764614918138,"shisetsu":"フルーツ自転車パーク京阪伏見桃山駅","kouei":"民営","koukyou":"近鉄線","moyori":"桃山御陵前","tel":"0120－162－088","address":"伏見区魚屋町559番地","chari":76,"bike":null,"gentuki":null,"nirin":null,"charibike":null,"charirate":100,"bikerate":null,"nirinrate":null,"jidourate":null,"setumei":"","freetime":"","tukigime":"無","kaisi":"0:00","end":"0:00","bikou":""},{"latitude":34.9156442419967,"longitude":135.769650441227,"shisetsu":"向島ニュータウン（北）自転車駐車場","kouei":"民営","koukyou":"近鉄線","moyori":"向島","tel":"075－621－0801","address":"伏見区向島二ノ丸町","chari":1201,"bike":null,"gentuki":149,"nirin":null,"charibike":null,"charirate":150,"bikerate":250,"nirinrate":350,"jidourate":null,"setumei":"","freetime":"","tukigime":"有","kaisi":"5:00","end":"1:00","bikou":""},{"latitude":34.9149068233475,"longitude":135.770243156273,"shisetsu":"向島ニュータウン（南）自転車駐車場","kouei":"民営","koukyou":"近鉄線","moyori":"向島","tel":"075－621－0801","address":"伏見区向島二ノ丸町","chari":695,"bike":30,"gentuki":null,"nirin":null,"charibike":null,"charirate":null,"bikerate":null,"nirinrate":null,"jidourate":null,"setumei":"月極のみ","freetime":"","tukigime":"有","kaisi":"5:00","end":"1:00","bikou":""},{"latitude":35.0162633907624,"longitude":135.772526450898,"shisetsu":"江若交通川端駐輪センター","kouei":"民営","koukyou":"京阪線","moyori":"神宮丸太町","tel":"075－752－1662","address":"左京区下堤町","chari":250,"bike":null,"gentuki":87,"nirin":null,"charibike":null,"charirate":210,"bikerate":310,"nirinrate":null,"jidourate":null,"setumei":"","freetime":"","tukigime":"有","kaisi":"0:00","end":"0:00","bikou":""},{"latitude":35.0040018177385,"longitude":135.772612561404,"shisetsu":"エコステーション21京阪四条","kouei":"民営","koukyou":"京阪線","moyori":"祇園四条","tel":"0120－923－521","address":"東山区中ノ町","chari":118,"bike":null,"gentuki":53,"nirin":null,"charibike":null,"charirate":200,"bikerate":300,"nirinrate":null,"jidourate":null,"setumei":"","freetime":"入庫後1時間","tukigime":"無","kaisi":"0:00","end":"0:00","bikou":""},{"latitude":35.0056580472346,"longitude":135.775856057111,"shisetsu":"祇園新橋ｻﾝｷﾝｶﾞﾚｰｼﾞ","kouei":"民営","koukyou":"京阪線","moyori":"祇園四条","tel":"075－551－4191","address":"東山区橋本町","chari":40,"bike":40,"gentuki":null,"nirin":null,"charibike":null,"charirate":null,"bikerate":null,"nirinrate":null,"jidourate":null,"setumei":"【自転車】12Ｈ300円，【原付】12Ｈ500円，【バイク】12Ｈ1000円","freetime":"","tukigime":"有","kaisi":"0:00","end":"0:00","bikou":""},{"latitude":35.0046209484618,"longitude":135.777645242059,"shisetsu":"フルーツ自転車パーク祇園","kouei":"民営","koukyou":"京阪線","moyori":"祇園四条","tel":"0120－162－088","address":"東山区祇園町北側","chari":65,"bike":null,"gentuki":null,"nirin":null,"charibike":null,"charirate":null,"bikerate":null,"nirinrate":null,"jidourate":null,"setumei":"100円/８Ｈ，150/24Ｈ毎","freetime":"","tukigime":"無","kaisi":"0:00","end":"0:00","bikou":""},{"latitude":34.9962871083023,"longitude":135.768887484721,"shisetsu":"フルーツ自転車パーク京阪清水五条駅","kouei":"民営","koukyou":"京阪線","moyori":"清水五条","tel":"0120－162－088","address":"東山区宮川筋8丁目431他","chari":91,"bike":null,"gentuki":null,"nirin":null,"charibike":null,"charirate":100,"bikerate":null,"nirinrate":null,"jidourate":null,"setumei":"","freetime":"","tukigime":"無","kaisi":"0:00","end":"0:00","bikou":""},{"latitude":34.9957515190161,"longitude":135.779246259606,"shisetsu":"京都市清水坂観光駐車場","kouei":"公営","koukyou":"京阪線","moyori":"清水五条","tel":"075－361－7431","address":"東山区清水四丁目161番地の1","chari":30,"bike":31,"gentuki":null,"nirin":null,"charibike":null,"charirate":200,"bikerate":null,"nirinrate":400,"jidourate":null,"setumei":"","freetime":"","tukigime":"無","kaisi":"0:00","end":"0:00","bikou":""},{"latitude":34.9888538608491,"longitude":135.767815887319,"shisetsu":"エコステーション21七条西","kouei":"民営","koukyou":"京阪線","moyori":"七条","tel":"0120－923－521","address":"東山区日吉町","chari":113,"bike":null,"gentuki":86,"nirin":null,"charibike":null,"charirate":150,"bikerate":250,"nirinrate":400,"jidourate":null,"setumei":"","freetime":"入庫後1時間","tukigime":"無","kaisi":"0:00","end":"0:00","bikou":""},{"latitude":34.9878583553668,"longitude":135.768240061291,"shisetsu":"エコステーション21七条東","kouei":"民営","koukyou":"京阪線","moyori":"七条","tel":"0120－923－521","address":"東山区一橋宮ノ内町","chari":66,"bike":null,"gentuki":null,"nirin":null,"charibike":null,"charirate":150,"bikerate":null,"nirinrate":null,"jidourate":null,"setumei":"","freetime":"入庫後1時間","tukigime":"無","kaisi":"0:00","end":"0:00","bikou":""},{"latitude":34.9876323399687,"longitude":135.768477662501,"shisetsu":"ECOPOOL七条東","kouei":"民営","koukyou":"京阪線","moyori":"七条","tel":"0120－3566－21","address":"東山区一橋宮ノ内町","chari":85,"bike":null,"gentuki":null,"nirin":null,"charibike":null,"charirate":null,"bikerate":null,"nirinrate":null,"jidourate":null,"setumei":"月極のみ　1ヶ月2700円","freetime":"","tukigime":"有","kaisi":"0:00","end":"0:00","bikou":""},{"latitude":34.968359946572,"longitude":135.769437635169,"shisetsu":"サイクルパーク伏見稲荷駅前","kouei":"民営","koukyou":"京阪線","moyori":"伏見稲荷","tel":"075－925－1191","address":"伏見区深草一ノ坪町","chari":66,"bike":null,"gentuki":20,"nirin":null,"charibike":null,"charirate":150,"bikerate":300,"nirinrate":null,"jidourate":null,"setumei":"","freetime":"","tukigime":"無","kaisi":"0:00","end":"0:00","bikou":""},{"latitude":34.968438351941,"longitude":135.769434445895,"shisetsu":"京阪伏見稲荷駅前24時間駐輪場","kouei":"民営","koukyou":"京阪線","moyori":"伏見稲荷","tel":"0798－69－3720","address":"伏見区深草一ノ坪町29－12","chari":47,"bike":null,"gentuki":null,"nirin":null,"charibike":null,"charirate":100,"bikerate":null,"nirinrate":null,"jidourate":null,"setumei":"","freetime":"","tukigime":"無","kaisi":"0:00","end":"0:00","bikou":""},{"latitude":34.9644918554939,"longitude":135.769957487484,"shisetsu":"PARK@深草","kouei":"民営","koukyou":"京阪線","moyori":"深草","tel":"075-803-1119","address":"伏見区深草ケナサ町","chari":82,"bike":13,"gentuki":null,"nirin":null,"charibike":null,"charirate":null,"bikerate":null,"nirinrate":null,"jidourate":null,"setumei":"【自転車】12Ｈ100円，【原付】【バイク】12Ｈ100円","freetime":"入庫後1時間","tukigime":"無","kaisi":"0:00","end":"0:00","bikou":""},{"latitude":34.9559814123047,"longitude":135.7700276516,"shisetsu":"藤森南駐輪場","kouei":"民営","koukyou":"京阪線","moyori":"藤森","tel":"075－601－5222","address":"伏見区深草極楽町","chari":97,"bike":null,"gentuki":null,"nirin":null,"charibike":null,"charirate":null,"bikerate":null,"nirinrate":null,"jidourate":null,"setumei":"月極のみ","freetime":"","tukigime":"有","kaisi":"0:00","end":"0:00","bikou":""},{"latitude":34.9565303311882,"longitude":135.770270036726,"shisetsu":"エコステーション21藤森駅前","kouei":"民営","koukyou":"京阪線","moyori":"藤森","tel":"0120－923－521","address":"伏見区深草堀田町","chari":99,"bike":null,"gentuki":null,"nirin":null,"charibike":null,"charirate":150,"bikerate":null,"nirinrate":null,"jidourate":null,"setumei":"","freetime":"入庫後1時間","tukigime":"無","kaisi":"0:00","end":"0:00","bikou":""},{"latitude":34.9567028477924,"longitude":135.770620857304,"shisetsu":"エコステーション21藤森東","kouei":"民営","koukyou":"京阪線","moyori":"藤森","tel":"0120－923－521","address":"伏見区深草堀田町","chari":102,"bike":null,"gentuki":null,"nirin":null,"charibike":null,"charirate":150,"bikerate":null,"nirinrate":null,"jidourate":null,"setumei":"","freetime":"入庫後1時間","tukigime":"無","kaisi":"0:00","end":"0:00","bikou":""},{"latitude":34.9565198756248,"longitude":135.76993197326,"shisetsu":"エコステーション21藤森西","kouei":"民営","koukyou":"京阪線","moyori":"藤森","tel":"0120－923－521","address":"伏見区深草堀田町","chari":108,"bike":null,"gentuki":36,"nirin":null,"charibike":null,"charirate":150,"bikerate":300,"nirinrate":null,"jidourate":null,"setumei":"","freetime":"入庫後1時間","tukigime":"無","kaisi":"0:00","end":"0:00","bikou":""},{"latitude":34.9566819367082,"longitude":135.769970244596,"shisetsu":"藤森西駐輪場","kouei":"民営","koukyou":"京阪線","moyori":"藤森","tel":"075－601－5222","address":"伏見区深草堀田町","chari":36,"bike":null,"gentuki":null,"nirin":null,"charibike":null,"charirate":null,"bikerate":null,"nirinrate":null,"jidourate":null,"setumei":"月極のみ","freetime":"","tukigime":"有","kaisi":"0:00","end":"0:00","bikou":""},{"latitude":34.9476583060535,"longitude":135.769562017014,"shisetsu":"京阪墨染駐輪場","kouei":"民営","koukyou":"京阪線","moyori":"墨染","tel":"075－748－7012","address":"伏見区深草北新町","chari":null,"bike":62,"gentuki":null,"nirin":null,"charibike":null,"charirate":null,"bikerate":null,"nirinrate":null,"jidourate":null,"setumei":"月極のみ","freetime":"","tukigime":"有","kaisi":"0:00","end":"0:00","bikou":""},{"latitude":34.9414912385783,"longitude":135.766085704014,"shisetsu":"ECOPOOL京阪丹波橋","kouei":"民営","koukyou":"京阪線","moyori":"丹波橋","tel":"0120－3566－21","address":"伏見区桃山井伊掃部西町","chari":72,"bike":null,"gentuki":null,"nirin":null,"charibike":null,"charirate":null,"bikerate":null,"nirinrate":null,"jidourate":null,"setumei":"月極のみ　月2000円","freetime":"","tukigime":"有","kaisi":"0:00","end":"0:00","bikou":""},{"latitude":34.9270115781637,"longitude":135.760140889856,"shisetsu":"京阪中書島駅駐輪場","kouei":"民営","koukyou":"京阪線","moyori":"中書島","tel":"075－601－5222","address":"伏見区葭島矢倉町","chari":646,"bike":null,"gentuki":74,"nirin":null,"charibike":null,"charirate":150,"bikerate":200,"nirinrate":null,"jidourate":null,"setumei":"","freetime":"","tukigime":"有","kaisi":"5:00","end":"3.47222222222222E-02","bikou":""},{"latitude":34.9268756067987,"longitude":135.759219188519,"shisetsu":"中書島西駐輪場","kouei":"民営","koukyou":"京阪線","moyori":"中書島","tel":"075－601－5222","address":"伏見区東浜南町","chari":50,"bike":null,"gentuki":81,"nirin":null,"charibike":null,"charirate":null,"bikerate":null,"nirinrate":null,"jidourate":null,"setumei":"月極のみ","freetime":"","tukigime":"有","kaisi":"5:00","end":"3.47222222222222E-02","bikou":""},{"latitude":34.9061870309456,"longitude":135.720750117502,"shisetsu":"京阪納所駐輪場","kouei":"民営","koukyou":"京阪線","moyori":"淀","tel":"070－6964－0744","address":"伏見区淀池上町","chari":927,"bike":null,"gentuki":null,"nirin":null,"charibike":null,"charirate":null,"bikerate":null,"nirinrate":null,"jidourate":null,"setumei":"月極のみ　月2500円","freetime":"","tukigime":"有","kaisi":"0:00","end":"0:00","bikou":""},{"latitude":34.9057554730933,"longitude":135.719595598873,"shisetsu":"和久田商店","kouei":"民営","koukyou":"京阪線","moyori":"淀","tel":"075－631－1760","address":"伏見区淀本町","chari":30,"bike":null,"gentuki":60,"nirin":null,"charibike":null,"charirate":100,"bikerate":200,"nirinrate":null,"jidourate":null,"setumei":"","freetime":"","tukigime":"有","kaisi":"6:00","end":"22:00","bikou":"有人管理は7時～19時"},{"latitude":34.9058522468696,"longitude":135.720708656889,"shisetsu":"京阪淀駐輪場","kouei":"民営","koukyou":"京阪線","moyori":"淀","tel":"075－631－7220","address":"伏見区池上町","chari":568,"bike":null,"gentuki":196,"nirin":59,"charibike":null,"charirate":150,"bikerate":250,"nirinrate":400,"jidourate":null,"setumei":"月極【自転車】月2500円【原付】月3500円【バイク】月5000円","freetime":"入庫後1時間","tukigime":"有","kaisi":"0:00","end":"0:00","bikou":""},{"latitude":34.9255969419784,"longitude":135.76934833539,"shisetsu":"観月橋南詰駐輪場","kouei":"（記載しない）","koukyou":"京阪線","moyori":"観月橋","tel":"075－601－7213","address":"伏見区向島善阿弥町","chari":950,"bike":null,"gentuki":null,"nirin":null,"charibike":null,"charirate":"無料","bikerate":null,"nirinrate":null,"jidourate":null,"setumei":"","freetime":"","tukigime":"無","kaisi":"0:00","end":"0:00","bikou":""},{"latitude":34.9315168096147,"longitude":135.78371284342,"shisetsu":"エコステーション21京阪桃山南口","kouei":"民営","koukyou":"京阪線","moyori":"桃山南口","tel":"0120－923－521","address":"伏見区桃山町丹後","chari":141,"bike":null,"gentuki":13,"nirin":null,"charibike":null,"charirate":150,"bikerate":300,"nirinrate":null,"jidourate":null,"setumei":"","freetime":"入庫後1時間","tukigime":"有","kaisi":"0:00","end":"0:00","bikou":""},{"latitude":34.9320658922969,"longitude":135.79327429881,"shisetsu":"エコステーション21京阪六地蔵駅前第二","kouei":"民営","koukyou":"京阪線","moyori":"六地蔵","tel":"0120－923－521","address":"京阪六地蔵駅北側","chari":54,"bike":null,"gentuki":null,"nirin":null,"charibike":null,"charirate":100,"bikerate":null,"nirinrate":null,"jidourate":null,"setumei":"","freetime":"入庫後30分","tukigime":"無","kaisi":"0:00","end":"0:00","bikou":""},{"latitude":35.0385316145358,"longitude":135.784603607914,"shisetsu":"パークス茶山駅駐輪場","kouei":"民営","koukyou":"叡山電鉄線","moyori":"茶山","tel":"075－803－1119","address":"左京区田中北春菜町","chari":46,"bike":2,"gentuki":null,"nirin":null,"charibike":null,"charirate":150,"bikerate":250,"nirinrate":250,"jidourate":null,"setumei":"","freetime":"","tukigime":"無","kaisi":"0:00","end":"0:00","bikou":""},{"latitude":35.0503472750318,"longitude":135.790175640312,"shisetsu":"修学院駅駐輪場","kouei":"民営","koukyou":"叡山電鉄線","moyori":"修学院","tel":"075－702－8111","address":"左京区山端壱町田町","chari":70,"bike":null,"gentuki":20,"nirin":null,"charibike":null,"charirate":100,"bikerate":null,"nirinrate":null,"jidourate":null,"setumei":"原付　月極のみ利用可能","freetime":"","tukigime":"有（原付のみ）","kaisi":"0:00","end":"0:00","bikou":""},{"latitude":35.0579599302601,"longitude":135.792163279563,"shisetsu":"パークス宝ヶ池駅東，西駐輪場","kouei":"民営","koukyou":"叡山電鉄線","moyori":"宝ヶ池","tel":"075－803－1119","address":"(東)左京区上高野上蒔町　（西）左京区上高野荒蒔町","chari":87,"bike":6,"gentuki":null,"nirin":null,"charibike":null,"charirate":150,"bikerate":250,"nirinrate":250,"jidourate":null,"setumei":"","freetime":"","tukigime":"無","kaisi":"0:00","end":"0:00","bikou":""},{"latitude":35.0665546851567,"longitude":135.79228080065,"shisetsu":"八幡前駅駐輪場","kouei":"民営","koukyou":"叡山電鉄線","moyori":"八幡前","tel":"075－781－5121","address":"左京区岩倉三宅町","chari":60,"bike":null,"gentuki":null,"nirin":null,"charibike":null,"charirate":"無料","bikerate":null,"nirinrate":null,"jidourate":null,"setumei":"","freetime":"","tukigime":"無","kaisi":"0:00","end":"0:00","bikou":"原付も可"},{"latitude":35.0713305519559,"longitude":135.786759864377,"shisetsu":"岩倉駅駐輪場","kouei":"民営","koukyou":"叡山電鉄線","moyori":"岩倉","tel":"0120－923－521","address":"左京区岩倉忠在地町","chari":85,"bike":null,"gentuki":17,"nirin":null,"charibike":null,"charirate":150,"bikerate":200,"nirinrate":null,"jidourate":null,"setumei":"","freetime":"入庫後30分","tukigime":"有","kaisi":"0:00","end":"0:00","bikou":""},{"latitude":35.0885194768528,"longitude":135.762969508718,"shisetsu":"市原駅駐輪場","kouei":"民営","koukyou":"叡山電鉄線","moyori":"市原","tel":"075－781－5121","address":"左京区静市市原町","chari":20,"bike":null,"gentuki":null,"nirin":null,"charibike":null,"charirate":"無料","bikerate":null,"nirinrate":null,"jidourate":null,"setumei":"","freetime":"","tukigime":"無","kaisi":"0:00","end":"0:00","bikou":"原付も可"},{"latitude":35.0130402391704,"longitude":135.708074387151,"shisetsu":"粟津工芸","kouei":"民営","koukyou":"京福電鉄線","moyori":"太秦広隆寺","tel":"075－881－3282","address":"右京区太秦組石町","chari":30,"bike":null,"gentuki":null,"nirin":null,"charibike":null,"charirate":"無料","bikerate":null,"nirinrate":null,"jidourate":null,"setumei":"月極のみ","freetime":"","tukigime":"有","kaisi":"0:00","end":"0:00","bikou":"原付も可"},{"latitude":35.0153607235228,"longitude":135.700887717213,"shisetsu":"エコステーション21京福帷子ノ辻駅","kouei":"民営","koukyou":"京福電鉄線","moyori":"帷子ノ辻","tel":"0120－923－521","address":"右京区太秦帷子ノ辻町","chari":238,"bike":null,"gentuki":14,"nirin":null,"charibike":null,"charirate":null,"bikerate":null,"nirinrate":null,"jidourate":null,"setumei":"（ＡＢブロック）【自転車】12Ｈ100円，【原付】12Ｈ200円（Ｃブロック）【自転車】3Ｈ100円，【原付】3Ｈ200円（Ｄブロック）【自転車】12Ｈ100円，【原付】12Ｈ200円","freetime":"ＡＢブロック1時間無料，Ｃブロック2時間無料，Ｄブロック2時間無料","tukigime":"無","kaisi":"0:00","end":"0:00","bikou":""},{"latitude":35.016821192988,"longitude":135.688790709691,"shisetsu":"エコステーション21車折神社駅駐輪場","kouei":"民営","koukyou":"京福電鉄線","moyori":"車折神社","tel":"0120－923－521","address":"右京区嵯峨中又町","chari":55,"bike":null,"gentuki":null,"nirin":null,"charibike":null,"charirate":100,"bikerate":null,"nirinrate":null,"jidourate":null,"setumei":"","freetime":"","tukigime":"無","kaisi":"0:00","end":"0:00","bikou":""},{"latitude":35.0204011159724,"longitude":135.704765913077,"shisetsu":"エコステーション21常盤駅駐輪場","kouei":"民営","koukyou":"京福電鉄線","moyori":"常盤","tel":"0120－923－521","address":"右京区常盤馬塚町","chari":70,"bike":null,"gentuki":null,"nirin":null,"charibike":null,"charirate":100,"bikerate":null,"nirinrate":null,"jidourate":null,"setumei":"","freetime":"","tukigime":"無","kaisi":"0:00","end":"0:00","bikou":""},{"latitude":35.0150677895441,"longitude":135.677907235131,"shisetsu":"エコステーション21嵐山駅駐輪場","kouei":"民営","koukyou":"京福電鉄線","moyori":"嵐山","tel":"0120－923－521","address":"右京区嵯峨天龍寺造路町35－32　京福嵐山駅舎南側倉庫内","chari":30,"bike":null,"gentuki":null,"nirin":null,"charibike":null,"charirate":150,"bikerate":null,"nirinrate":null,"jidourate":null,"setumei":"","freetime":"入庫後1時間","tukigime":"無","kaisi":"0:00","end":"0:00","bikou":""},{"latitude":35.0605394973499,"longitude":135.679189747861,"shisetsu":"京都市高雄観光駐車場","kouei":"公営","koukyou":"その他","moyori":"京都市営バス高雄","tel":"075－361－7431","address":"右京区梅ケ畑栂尾町1番地の1","chari":5,"bike":5,"gentuki":null,"nirin":null,"charibike":null,"charirate":200,"bikerate":null,"nirinrate":400,"jidourate":null,"setumei":"","freetime":"","tukigime":"無","kaisi":"8:00","end":"17:00","bikou":""},{"latitude":35.0640610447104,"longitude":135.744613225921,"shisetsu":"京都市西賀茂自転車駐車場","kouei":"公営","koukyou":"その他","moyori":"京都市営バス西賀茂車庫前","tel":"075－361－7431","address":"北区西賀茂大道口町65番地","chari":250,"bike":null,"gentuki":null,"nirin":null,"charibike":null,"charirate":150,"bikerate":null,"nirinrate":null,"jidourate":null,"setumei":"","freetime":"","tukigime":"無","kaisi":"0:00","end":"0:00","bikou":""},{"latitude":34.9481316,"longitude":135.7688195,"shisetsu":"ブーブーパーク墨染駅前駐輪場","kouei":"民営","koukyou":"京阪線","moyori":"墨染","tel":"075－823－0001","address":"伏見区深草芳本町671－51","chari":30,"bike":20,"gentuki":null,"nirin":null,"charibike":null,"charirate":null,"bikerate":null,"nirinrate":null,"jidourate":null,"setumei":"【自転車】2Ｈ100円，24H最大500円　【バイク】2Ｈ200円，24H最大800円","freetime":"入庫後1時間","tukigime":"無","kaisi":"0:00","end":"0:00","bikou":""},{"latitude":35.0292588,"longitude":135.7580437,"shisetsu":"サクラ今出川ビル","kouei":"民営","koukyou":"地下鉄烏丸線","moyori":"今出川","tel":"075－354－0123","address":"上京区今出川通室町東入今出川町313番地","chari":46,"bike":5,"gentuki":null,"nirin":null,"charibike":null,"charirate":null,"bikerate":null,"nirinrate":null,"jidourate":null,"setumei":"【自転車】2Ｈ100円　1日最大500円【バイク】2Ｈ200円　1日最大800円","freetime":"【自転車】入庫後3時間　【バイク】入庫後1時間","tukigime":"無","kaisi":"0:00","end":"0:00","bikou":""},{"latitude":35.0127473,"longitude":135.7588974,"shisetsu":"フルーツ自転車パーク烏丸御池駅","kouei":"民営","koukyou":"地下鉄烏丸線","moyori":"烏丸御池","tel":"0120-162-088","address":"中京区両替町通押小路上る金吹町461番","chari":60,"bike":null,"gentuki":null,"nirin":null,"charibike":null,"charirate":null,"bikerate":null,"nirinrate":null,"jidourate":null,"setumei":"最初の12Ｈ100円　以降6Ｈ毎50円","freetime":"","tukigime":"無","kaisi":"0:00","end":"0:00","bikou":""},{"latitude":34.9338045,"longitude":135.7648834,"shisetsu":"京阪伏見桃山＆近鉄桃山御陵駅前24時間駐輪場","kouei":"民営","koukyou":"京阪線／近鉄線","moyori":"伏見桃山／桃山御陵","tel":"0798－69－3720","address":"伏見区京町4丁目143","chari":134,"bike":21,"gentuki":null,"nirin":null,"charibike":null,"charirate":100,"bikerate":null,"nirinrate":null,"jidourate":null,"setumei":"【バイク】1日200円","freetime":"","tukigime":"無","kaisi":"0:00","end":"0:00","bikou":""},{"latitude":34.9398924,"longitude":135.764582,"shisetsu":"京阪丹波橋駅前24時間駐輪場","kouei":"民営","koukyou":"京阪線","moyori":"丹波橋","tel":"090－4761－4627","address":"伏見区京町南八丁目118番6","chari":86,"bike":null,"gentuki":null,"nirin":null,"charibike":null,"charirate":100,"bikerate":null,"nirinrate":null,"jidourate":null,"setumei":"","freetime":"","tukigime":"無","kaisi":"0:00","end":"0:00","bikou":""},{"latitude":34.9976263,"longitude":135.7604781,"shisetsu":"Ｔ－ｐaｒｋ大堀町","kouei":"民営","koukyou":"地下鉄烏丸線","moyori":"五条","tel":"075－693－5761","address":"下京区大堀町492","chari":null,"bike":null,"gentuki":null,"nirin":null,"charibike":47,"charirate":null,"bikerate":null,"nirinrate":null,"jidourate":null,"setumei":"1日300円","freetime":"","tukigime":"無","kaisi":"0:00","end":"0:00","bikou":""},{"latitude":35.0465132,"longitude":135.7580786,"shisetsu":"ブーブーパーク北大路駅北駐輪場","kouei":"民営","koukyou":"地下鉄烏丸線","moyori":"北大路駅","tel":"075－823－0001","address":"北区小山花ノ木町54－24","chari":125,"bike":21,"gentuki":null,"nirin":null,"charibike":null,"charirate":null,"bikerate":null,"nirinrate":null,"jidourate":null,"setumei":"【自転車】24H100円，【バイク】24H200円","freetime":"","tukigime":"無","kaisi":"0:00","end":"0:00","bikou":""},{"latitude":35.0049266,"longitude":135.7609785,"shisetsu":"大丸東洞院駐車場","kouei":"民営","koukyou":"地下鉄／阪急","moyori":"四条／烏丸","tel":"0120－9235－21","address":"中京区阪東屋町652","chari":240,"bike":null,"gentuki":41,"nirin":9,"charibike":null,"charirate":null,"bikerate":null,"nirinrate":null,"jidourate":null,"setumei":"【自転車】4H150円，以降4H毎50円加算　【原付】4H250円，以降4H毎50円加算　【自動二輪】4H300円，以降4H毎50円加算","freetime":"入庫後3時間","tukigime":"無","kaisi":"9:45","end":"20:15","bikou":"・20：15～9：45まで閉場します。・年末年始など、早期閉場、終日閉場の場合があります"},{"latitude":34.9890629,"longitude":135.7609491,"shisetsu":"フルーツ自転車パーク京都駅北","kouei":"民営","koukyou":"近鉄・地下鉄・JR","moyori":"京都","tel":"0120-162-088","address":"下京区七条通烏丸東入真芋町220番3","chari":34,"bike":null,"gentuki":null,"nirin":null,"charibike":null,"charirate":null,"bikerate":null,"nirinrate":null,"jidourate":null,"setumei":"12H150円，以降4H毎50円","freetime":"","tukigime":"無","kaisi":"0:00","end":"0:00","bikou":""},{"latitude":34.9324393,"longitude":135.7660126,"shisetsu":"フルーツ自転車パーク近鉄桃山御陵前","kouei":"民営","koukyou":"近鉄線","moyori":"桃山御陵前","tel":"0120-162-088","address":"伏見区道阿弥町138番4","chari":83,"bike":null,"gentuki":null,"nirin":null,"charibike":null,"charirate":null,"bikerate":null,"nirinrate":null,"jidourate":null,"setumei":"12H100円，以降6H毎50円","freetime":"","tukigime":"無","kaisi":"0:00","end":"0:00","bikou":""},{"latitude":35.005052,"longitude":135.7609216,"shisetsu":"錦小路バイク駐車場","kouei":"民営","koukyou":"地下鉄／阪急","moyori":"四条／烏丸","tel":"0120－9235－21","address":"中京区東洞院錦小路元竹田町650","chari":null,"bike":69,"gentuki":null,"nirin":null,"charibike":null,"charirate":null,"bikerate":null,"nirinrate":null,"jidourate":null,"setumei":"【原付】3H250円，以降4H毎50円加算　【自動二輪】3H300円，以降4H毎50円加算","freetime":"入庫後1時間","tukigime":"無","kaisi":"10:00","end":"20:00","bikou":""},{"latitude":34.9337806,"longitude":135.7634086,"shisetsu":"システムパーク大手筋駐輪場第2","kouei":"民営","koukyou":"京阪線","moyori":"伏見桃山","tel":"0776－30－1800","address":"伏見区新町5－487","chari":5,"bike":18,"gentuki":null,"nirin":null,"charibike":null,"charirate":null,"bikerate":null,"nirinrate":null,"jidourate":null,"setumei":"【自転車】12H100円　【バイク】12H200円","freetime":"入庫後1時間","tukigime":"無","kaisi":"0:00","end":"0:00","bikou":""},{"latitude":34.985879,"longitude":135.7613429,"shisetsu":"Dパーキング京都駅前駐輪場第1","kouei":"民営","koukyou":"近鉄・地下鉄・JR","moyori":"京都","tel":"03－3737－3777","address":"下京区東塩小路町字向畑680番2","chari":69,"bike":null,"gentuki":null,"nirin":null,"charibike":null,"charirate":200,"bikerate":null,"nirinrate":null,"jidourate":null,"setumei":"","freetime":"","tukigime":"無","kaisi":"0:00","end":"0:00","bikou":""},{"latitude":35.003312,"longitude":135.75937,"shisetsu":"COCON烏丸駐輪場","kouei":"民営","koukyou":"地下鉄／阪急","moyori":"四条／烏丸","tel":"075－255－0549","address":"下京区烏丸通四条下る水銀屋町620番","chari":146,"bike":null,"gentuki":null,"nirin":null,"charibike":null,"charirate":null,"bikerate":null,"nirinrate":null,"jidourate":null,"setumei":"1H100円，9時～24時最大500円，24時以降60分毎100円","freetime":"入庫後30分","tukigime":"無","kaisi":"9:00","end":"23:00","bikou":"・祇園祭りやビル設備点検の際に不定期で閉鎖をすることがあります・23時～9時までシャッターを閉鎖します"},{"latitude":35.0042967,"longitude":135.731679,"shisetsu":"ブーブーパーク西院第4駐輪場","kouei":"民営","koukyou":"阪急線","moyori":"西院","tel":"075－823－0001","address":"右京区西院東淳和院町7番1","chari":50,"bike":null,"gentuki":24,"nirin":null,"charibike":null,"charirate":150,"bikerate":200,"nirinrate":null,"jidourate":null,"setumei":"","freetime":"","tukigime":"無","kaisi":"0:00","end":"0:00","bikou":""},{"latitude":34.9889949,"longitude":135.743918,"shisetsu":"梅小路公園七条入口広場　自転車・バイク駐車場","kouei":"民営","koukyou":"近鉄・地下鉄・JR","moyori":"京都","tel":"075－321－7776","address":"下京区観喜寺町５６-３","chari":169,"bike":47,"gentuki":null,"nirin":null,"charibike":null,"charirate":150,"bikerate":null,"nirinrate":null,"jidourate":null,"setumei":"【バイク】2H100円","freetime":"【自転車】入庫後3時間　【バイク】入庫後1時間","tukigime":"無","kaisi":"0:00","end":"0:00","bikou":""},{"latitude":34.9867982,"longitude":135.7490316,"shisetsu":"梅小路公園大宮入口広場　南バイク駐車場","kouei":"民営","koukyou":"近鉄・地下鉄・JR","moyori":"京都","tel":"075－321－7776","address":"下京区観喜寺町５６-３","chari":null,"bike":28,"gentuki":null,"nirin":null,"charibike":null,"charirate":null,"bikerate":null,"nirinrate":null,"jidourate":null,"setumei":"【バイク】2H100円","freetime":"入庫後1時間","tukigime":"無","kaisi":"0:00","end":"0:00","bikou":""},{"latitude":34.9858305,"longitude":135.748897,"shisetsu":"梅小路公園大宮南口自転車駐車場","kouei":"民営","koukyou":"近鉄・地下鉄・JR","moyori":"京都","tel":"075－321－7776","address":"下京区観喜寺町５６-３","chari":76,"bike":null,"gentuki":null,"nirin":null,"charibike":null,"charirate":150,"bikerate":null,"nirinrate":null,"jidourate":null,"setumei":"","freetime":"入庫後3時間","tukigime":"無","kaisi":"0:00","end":"0:00","bikou":""},{"latitude":34.9844068476786,"longitude":135.754732739951,"shisetsu":"京都駅八条口まちかど駐輪場（定期エリア）","kouei":"民営","koukyou":"近鉄・地下鉄・JR","moyori":"京都","tel":"0800－3333－321","address":"南区西九条院町","chari":38,"bike":null,"gentuki":null,"nirin":null,"charibike":null,"charirate":null,"bikerate":null,"nirinrate":null,"jidourate":null,"setumei":"月極のみ　月2,700円（障害者等・学生月2500円）","freetime":"","tukigime":"有","kaisi":"0:00","end":"0:00","bikou":""},{"latitude":34.9641149,"longitude":135.7101189,"shisetsu":"JR桂川駅西口バイク駐車場","kouei":"民営","koukyou":"JR線・阪急線","moyori":"桂川　洛西口","tel":"075-361-7431","address":"南区久世高田町","chari":null,"bike":128,"gentuki":null,"nirin":null,"charibike":null,"charirate":null,"bikerate":null,"nirinrate":null,"jidourate":null,"setumei":"250ｃｃ以下　8：00～20：00　100円/2H　20：00～8：00　100円/3H　入庫から24H最大300円　251ｃｃ以上　400円/24H　8：00～20：00　100円/1H　20：00～8：00　100円/3H　24H最大400円","freetime":"入庫後1時間","tukigime":"有","kaisi":"0:00","end":"0:00","bikou":""},{"latitude":34.984416,"longitude":135.75637,"shisetsu":"京都駅八条口まちかど駐輪場（一時エリア）","kouei":"民営","koukyou":"近鉄・地下鉄・JR","moyori":"京都","tel":"0800－3333－321","address":"南区西九条院町","chari":202,"bike":null,"gentuki":null,"nirin":null,"charibike":null,"charirate":150,"bikerate":null,"nirinrate":null,"jidourate":null,"setumei":"","freetime":"入庫後1時間","tukigime":"無","kaisi":"0:00","end":"0:00","bikou":""},{"latitude":34.9956935,"longitude":135.7654875,"shisetsu":"五条河原町駐車場","kouei":"民営","koukyou":"京阪線","moyori":"清水五条","tel":"075-361-7431","address":"下京区本塩竃町558-7","chari":null,"bike":5,"gentuki":null,"nirin":null,"charibike":null,"charirate":null,"bikerate":null,"nirinrate":null,"jidourate":null,"setumei":"100円/時　当日上限500円（0時を過ぎると料金加算）","freetime":"","tukigime":"無","kaisi":"0:00","end":"0:00","bikou":""},{"latitude":35.0045649,"longitude":135.7779409,"shisetsu":"円山駐車場","kouei":"公営","koukyou":"京阪線","moyori":"祇園四条","tel":"075-541-6371","address":"東山区祇園町北側","chari":null,"bike":10,"gentuki":null,"nirin":null,"charibike":null,"charirate":null,"bikerate":null,"nirinrate":null,"jidourate":null,"setumei":"【バイク】30分100円","freetime":"","tukigime":"無","kaisi":"0:00","end":"0:00","bikou":"12月31日は0:00～21:00，1月1日は7:00～24:00"},{"latitude":34.9834162199935,"longitude":135.760218670221,"shisetsu":"八条口駐車場","kouei":"民営","koukyou":"近鉄・地下鉄・JR","moyori":"京都","tel":"075-671-8947","address":"南区東九条西山王町31番地","chari":null,"bike":100,"gentuki":null,"nirin":null,"charibike":null,"charirate":null,"bikerate":300,"nirinrate":400,"jidourate":300,"setumei":"","freetime":"","tukigime":"無","kaisi":"0:00","end":"0:00","bikou":""},{"latitude":35.0113004654135,"longitude":135.767500698566,"shisetsu":"京都市市役所前広場自転車駐輪場","kouei":"公営","koukyou":"地下鉄東西線","moyori":"京都市役所前","tel":"075-708-6111","address":"中京区寺町通御池上る上本能寺前町488","chari":408,"bike":null,"gentuki":null,"nirin":null,"charibike":null,"charirate":150,"bikerate":null,"nirinrate":null,"jidourate":null,"setumei":"月極　月2,700円（障害者等・学生月2500円）","freetime":"","tukigime":"有","kaisi":"0:00","end":"0:00","bikou":""},{"latitude":35.0108941,"longitude":135.7680022,"shisetsu":"ゼスト御池","kouei":"公営","koukyou":"地下鉄東西線","moyori":"京都市役所前","tel":"075-253-2760","address":"中京区下本能寺前町４９２?１","chari":null,"bike":403,"gentuki":null,"nirin":null,"charibike":null,"charirate":null,"bikerate":null,"nirinrate":null,"jidourate":null,"setumei":"7:00～22:00　30分100円　22:00～7:00　60分100円上限(土曜・日曜・祝日除く)　6:00～24:00　500円　　21:00～9:00　500円","freetime":"","tukigime":"有","kaisi":"0:00","end":"0:00","bikou":""},{"latitude":35.002442,"longitude":135.760675,"shisetsu":"くるっとパーク四条烏丸南駐輪場","kouei":"民営","koukyou":"地下鉄烏丸線","moyori":"四条","tel":"075－361－7431","address":"下京区綾小路通烏丸東入竹屋之町251番1","chari":68,"bike":null,"gentuki":null,"nirin":null,"charibike":null,"charirate":null,"bikerate":null,"nirinrate":null,"jidourate":null,"setumei":"6H毎100円　24H最大料金300円","freetime":"","tukigime":"無","kaisi":"0:00","end":"0:00","bikou":""},{"latitude":35.0042994,"longitude":135.7639113,"shisetsu":"くるっとパーク四条柳馬場駐輪場","kouei":"民営","koukyou":"地下鉄烏丸線","moyori":"四条","tel":"075－361－7431","address":"中京区柳馬場通四条上る瀬戸屋町473番2","chari":40,"bike":null,"gentuki":null,"nirin":null,"charibike":null,"charirate":200,"bikerate":null,"nirinrate":null,"jidourate":null,"setumei":"","freetime":"","tukigime":"無","kaisi":"0:00","end":"0:00","bikou":"0時を過ぎると料金加算"},{"latitude":35.007734,"longitude":135.790452,"shisetsu":"蹴上駅前駐輪場","kouei":"民営","koukyou":"地下鉄東西線","moyori":"蹴上","tel":"090－3466－0682","address":"東山区東小物座町331","chari":15,"bike":null,"gentuki":null,"nirin":null,"charibike":null,"charirate":null,"bikerate":null,"nirinrate":null,"jidourate":null,"setumei":"月極のみ　月3,000円（日割りも可　別途相談）","freetime":"","tukigime":"有","kaisi":"0:00","end":"0:00","bikou":""},{"latitude":35.0049288,"longitude":135.7617149,"shisetsu":"エコステーション21錦小路自転車駐輪場","kouei":"民営","koukyou":"阪急線","moyori":"烏丸","tel":"0120－9235－21","address":"下京区四条高倉西入立売西町79番地","chari":118,"bike":null,"gentuki":null,"nirin":null,"charibike":null,"charirate":null,"bikerate":null,"nirinrate":null,"jidourate":null,"setumei":"4H150円，以降4H毎50円加算","freetime":"入庫後3時間","tukigime":"無","kaisi":"9:00","end":"21:00","bikou":"・21：00～9：30まで閉場します。・年末年始など、早期閉場、終日閉場の場合があります。"},{"latitude":35.032596,"longitude":135.77269,"shisetsu":"ＪＲＥＣ出町柳　月極駐輪場","kouei":"民営","koukyou":"京阪線･叡山電鉄","moyori":"出町柳","tel":"075-781-1111","address":"左京区下賀茂宮河町49番","chari":1,"bike":2,"gentuki":null,"nirin":null,"charibike":null,"charirate":null,"bikerate":null,"nirinrate":null,"jidourate":null,"setumei":"・月極のみ　【自転車】5,000円，【原付】6,000円，【自動二輪】7,000円（全て税別）・保証金１ヶ月分＋手数料１ヶ月分が別途必要（契約時のみ）","freetime":"","tukigime":"有","kaisi":"0:00","end":"0:00","bikou":"自転車3台もしくは原付3台でも可"},{"latitude":35.034265,"longitude":135.781039,"shisetsu":"ＪＲＥＣ元田中　月極駐輪場","kouei":"民営","koukyou":"叡山電鉄線","moyori":"元田中","tel":"075-781-1111","address":"左京区田中里ノ内町64番地","chari":2,"bike":null,"gentuki":2,"nirin":null,"charibike":null,"charirate":null,"bikerate":null,"nirinrate":null,"jidourate":null,"setumei":"・月極のみ　【自転車】2,500円，【原付】3,000円，【自動二輪】3,500円（全て税別）・保証金１ヶ月分＋手数料１ヶ月分が別途必要（契約時のみ）","freetime":"","tukigime":"有","kaisi":"0:00","end":"0:00","bikou":"126cc以上要相談"},{"latitude":35.043822,"longitude":135.787666,"shisetsu":"ＪＲＥＣ一乗寺　月極駐輪場","kouei":"民営","koukyou":"叡山電鉄線","moyori":"一乗寺","tel":"075-781-1111","address":"左京区一乗寺里ノ前町5番","chari":2,"bike":null,"gentuki":2,"nirin":2,"charibike":null,"charirate":null,"bikerate":null,"nirinrate":null,"jidourate":null,"setumei":"・月極のみ　【自転車】5,000円，【原付】6,000円，【自動二輪】7,000円（全て税別）・保証金１ヶ月分＋手数料１ヶ月分が別途必要（契約時のみ）","freetime":"","tukigime":"有","kaisi":"0:00","end":"0:00","bikou":"126cc以上要相談"},{"latitude":34.988829,"longitude":135.759463,"shisetsu":"エコステーション21東塩小路町","kouei":"民営","koukyou":"近鉄・地下鉄・JR","moyori":"京都","tel":"0120-923-521","address":"下京区烏丸通七条下る東塩小路町707番2","chari":61,"bike":null,"gentuki":7,"nirin":1,"charibike":null,"charirate":null,"bikerate":null,"nirinrate":null,"jidourate":null,"setumei":"【自転車】8時間毎100円，【原付】8時間毎250円，【自動二輪】8時間毎350円","freetime":"入庫後1時間","tukigime":"無","kaisi":"0:00","end":"0:00","bikou":""},{"latitude":35.003085,"longitude":135.735347,"shisetsu":"エコステーション21西院朱雀まちかど駐輪場","kouei":"民営","koukyou":"阪急・京福電鉄","moyori":"西院","tel":"0120-923-521","address":"中京区壬生東土居ノ内町20","chari":203,"bike":null,"gentuki":null,"nirin":null,"charibike":null,"charirate":null,"bikerate":null,"nirinrate":null,"jidourate":null,"setumei":"3時間まで100円，3時間以上24時間まで150円，以降24時間毎150円","freetime":"入庫後30分間","tukigime":"無","kaisi":"0:00","end":"0:00","bikou":""},{"latitude":34.983009,"longitude":135.76099,"shisetsu":"エコステーション21白川ビル","kouei":"民営","koukyou":"近鉄・地下鉄・JR","moyori":"京都","tel":"0120-923-521","address":"南区東九条西山王町11","chari":34,"bike":null,"gentuki":null,"nirin":null,"charibike":null,"charirate":null,"bikerate":null,"nirinrate":null,"jidourate":null,"setumei":"8時間まで150円，以降8時間毎50円","freetime":"入庫後30分間","tukigime":"無","kaisi":"0:00","end":"0:00","bikou":""},{"latitude":34.984476,"longitude":135.760851,"shisetsu":"エコステーション21八条口まちかど駐輪場バイクエリア","kouei":"民営","koukyou":"近鉄・地下鉄・JR","moyori":"京都","tel":"0120-923-521","address":"下京区東小路高倉町","chari":null,"bike":null,"gentuki":52,"nirin":6,"charibike":null,"charirate":null,"bikerate":null,"nirinrate":null,"jidourate":null,"setumei":"【原付】3時間まで200円，以降2時間毎50円【自動二輪】3時間まで300円，以降2時間毎50円","freetime":"入庫後60分間","tukigime":"無","kaisi":"0:00","end":"0:00","bikou":""},{"latitude":34.987776,"longitude":135.748742,"shisetsu":"エコステーション21京都水族館","kouei":"民営","koukyou":"近鉄・地下鉄・JR","moyori":"京都","tel":"0120-923-521","address":"下京区観喜寺町35-1","chari":131,"bike":null,"gentuki":null,"nirin":null,"charibike":null,"charirate":null,"bikerate":null,"nirinrate":null,"jidourate":null,"setumei":"24時間毎150円","freetime":"入庫後3時間","tukigime":"無","kaisi":"0:00","end":"0:00","bikou":""},{"latitude":34.987491,"longitude":135.743379,"shisetsu":"エコステーション21京都鉄道博物館Aエリア","kouei":"民営","koukyou":"近鉄・地下鉄・JR","moyori":"京都","tel":"0120-923-521","address":"下京区観喜寺町15","chari":54,"bike":null,"gentuki":null,"nirin":null,"charibike":null,"charirate":null,"bikerate":null,"nirinrate":null,"jidourate":null,"setumei":"24時間毎150円","freetime":"入庫後3時間","tukigime":"無","kaisi":"0:00","end":"0:00","bikou":""},{"latitude":34.986526,"longitude":135.740973,"shisetsu":"エコステーション21京都鉄道博物館Bエリア","kouei":"民営","koukyou":"近鉄・地下鉄・JR","moyori":"京都","tel":"0120-923-521","address":"下京区観喜寺町15","chari":87,"bike":null,"gentuki":14,"nirin":null,"charibike":null,"charirate":null,"bikerate":null,"nirinrate":null,"jidourate":null,"setumei":"【自転車】24時間毎150円，【原付】2時間毎100円","freetime":"【自転車】入庫後3時間，【原付】入庫後1時間","tukigime":"無","kaisi":"0:00","end":"0:00","bikou":""},{"latitude":35.0032753,"longitude":135.7328327,"shisetsu":"第3シバウラ駐輪場","kouei":"民営","koukyou":"阪急線","moyori":"西院","tel":"075-313-0999","address":"右京区西院高山寺町1","chari":102,"bike":"備考欄に記載","gentuki":null,"nirin":null,"charibike":null,"charirate":null,"bikerate":null,"nirinrate":null,"jidourate":null,"setumei":"月極のみ　【自転車】2700円，【バイク125cc以下】Ａ料金5,000円，Ｂ料金6,500円（車種による）【バイク126cc以上】7,000円","freetime":"","tukigime":"有","kaisi":"0:00","end":"0:00","bikou":"【バイク125cc以下】53台【バイク126cc以上】11台"},{"latitude":35.029985,"longitude":135.75898,"shisetsu":"岡松町駐輪場","kouei":"民営","koukyou":"地下鉄烏丸線","moyori":"今出川","tel":"0120-559-115","address":"上京区岡松町262番地3","chari":21,"bike":null,"gentuki":null,"nirin":null,"charibike":null,"charirate":null,"bikerate":null,"nirinrate":null,"jidourate":null,"setumei":"6時間毎150円","freetime":"","tukigime":"無","kaisi":"0:00","end":"0:00","bikou":""},{"latitude":35.0061002658915,"longitude":135.760621997535,"shisetsu":"フルーツ自転車パーク阪急烏丸駅","kouei":"民営","koukyou":"地下鉄／阪急","moyori":"四条／烏丸","tel":"0120-162-088","address":"中京区蛸薬師通烏丸東入一蓮社町307番","chari":72,"bike":null,"gentuki":null,"nirin":null,"charibike":null,"charirate":null,"bikerate":null,"nirinrate":null,"jidourate":null,"setumei":"6時間毎100円","freetime":"","tukigime":"無","kaisi":"0:00","end":"0:00","bikou":""},{"latitude":35.0021397408922,"longitude":135.756287802446,"shisetsu":"フルーツ自転車パーク地下鉄四条駅","kouei":"民営","koukyou":"地下鉄／阪急","moyori":"四条／烏丸","tel":"0120-162-088","address":"下京区新町通綾小路下る船鉾町382番","chari":36,"bike":null,"gentuki":null,"nirin":null,"charibike":null,"charirate":null,"bikerate":null,"nirinrate":null,"jidourate":null,"setumei":"12時間毎100円","freetime":"","tukigime":"無","kaisi":"0:00","end":"0:00","bikou":""},{"latitude":35.0021408438383,"longitude":135.7632244,"shisetsu":"フルーツ自転車パーク阪急烏丸駅第２","kouei":"民営","koukyou":"地下鉄／阪急","moyori":"四条／烏丸","tel":"0120-162-088","address":"下京区柳馬場通綾小路下る永原町153-4","chari":58,"bike":null,"gentuki":null,"nirin":null,"charibike":null,"charirate":null,"bikerate":null,"nirinrate":null,"jidourate":null,"setumei":"12時間毎100円","freetime":"","tukigime":"無","kaisi":"0:00","end":"0:00","bikou":""},{"latitude":35.00426788809,"longitude":135.750850431877,"shisetsu":"フルーツ自転車パーク阪急大宮駅","kouei":"民営","koukyou":"阪急線","moyori":"大宮","tel":"0120-162-088","address":"中京区岩上通錦小路下る松浦町864番","chari":111,"bike":null,"gentuki":null,"nirin":null,"charibike":null,"charirate":null,"bikerate":null,"nirinrate":null,"jidourate":null,"setumei":"12時間毎100円","freetime":"","tukigime":"無","kaisi":"0:00","end":"0:00","bikou":""},{"latitude":34.9820420521892,"longitude":135.770563679762,"shisetsu":"フルーツ自転車パーク東福寺駅","kouei":"民営","koukyou":"京阪線","moyori":"東福寺","tel":"0120-162-088","address":"東山区本町十一丁目215番1","chari":87,"bike":null,"gentuki":null,"nirin":null,"charibike":null,"charirate":null,"bikerate":null,"nirinrate":null,"jidourate":null,"setumei":"24時間毎100円","freetime":"","tukigime":"無","kaisi":"0:00","end":"0:00","bikou":""},{"latitude":35.0082305709481,"longitude":135.756678491996,"shisetsu":"フルーツ自転車パーク烏丸御池駅第２","kouei":"民営","koukyou":"地下鉄烏丸線","moyori":"烏丸御池","tel":"0120-162-088","address":"中京区新町通三条下る三条町329番","chari":52,"bike":null,"gentuki":null,"nirin":null,"charibike":null,"charirate":null,"bikerate":null,"nirinrate":null,"jidourate":null,"setumei":"24時間毎100円","freetime":"","tukigime":"無","kaisi":"0:00","end":"0:00","bikou":""},{"latitude":35.0101985341385,"longitude":135.732067502446,"shisetsu":"フルーツバイクパーク地下鉄西大路御池駅","kouei":"民営","koukyou":"地下鉄東西線","moyori":"西大路御池","tel":"0120-162-088","address":"中京区西ノ京下合町37番","chari":null,"bike":7,"gentuki":null,"nirin":null,"charibike":null,"charirate":null,"bikerate":null,"nirinrate":null,"jidourate":null,"setumei":"1時間毎100円，24時間毎最大200円","freetime":"","tukigime":"無","kaisi":"0:00","end":"0:00","bikou":""},{"latitude":34.9982512676592,"longitude":135.758070792625,"shisetsu":"フルーツ自転車パーク地下鉄五条駅","kouei":"民営","koukyou":"地下鉄烏丸線","moyori":"五条","tel":"0120-162-088","address":"下京区室町通松原下る元両替町251-1","chari":60,"bike":null,"gentuki":null,"nirin":null,"charibike":null,"charirate":null,"bikerate":null,"nirinrate":null,"jidourate":null,"setumei":"24時間毎100円","freetime":"","tukigime":"無","kaisi":"0:00","end":"0:00","bikou":""}]}
