{"aed":[{"ward":"北","wardcode":11,"name":"観光日本株式会社京都ゴルフ場（舟山コース）","latitude":35.064133402142,"longitude":135.736381709575,"url":"","register":"○","establishment":"クラブハウス事務所","setsumei":"7:00～18:30","holiday":"毎月最終火曜日"},{"ward":"北","wardcode":11,"name":"観光日本株式会社京都ゴルフ場（上賀茂コース）","latitude":35.0669061623914,"longitude":135.757458508014,"url":"","register":"○","establishment":"クラブハウス事務所","setsumei":"7:00～18:30","holiday":"毎月最終火曜日"},{"ward":"北","wardcode":11,"name":"立命館大学　衣笠キャンパス","latitude":35.0325001483148,"longitude":135.725269317626,"url":"","register":"○","establishment":"至徳館一階インフォーメション","setsumei":"8:00～22:00","holiday":"土、日、祝日，盆、年末年始"},{"ward":"北","wardcode":11,"name":"社会福祉法人仁恵会　ユーカリの里","latitude":35.0603923316963,"longitude":135.769820809364,"url":"","register":"○","establishment":"三階介護室","setsumei":"6:00～22:00","holiday":"年中無休"},{"ward":"北","wardcode":11,"name":"学校法人　京都産業大学","latitude":35.0702935001773,"longitude":135.758185386657,"url":"","register":"○","establishment":"","setsumei":"8:45～16:45","holiday":"日、祝日"},{"ward":"北","wardcode":11,"name":"大学共同利用機関法人人間文化研究機構　総合地球環境学研究所","latitude":35.0725765260499,"longitude":135.764558315277,"url":"","register":"○","establishment":"警備員室","setsumei":"（警備員室）８：３０～１７：００，（地球研ハウス）２４時間使用可能","holiday":"土曜，日曜日，祝日，年末年始"},{"ward":"北","wardcode":11,"name":"大学共同利用機関法人人間文化研究機構　総合地球環境学研究所","latitude":35.074354607727,"longitude":135.764595866203,"url":"","register":"○","establishment":"地球研ハウス","setsumei":"（警備員室）８：３０～１７：００，（地球研ハウス）２４時間使用可能","holiday":"土曜，日曜日，祝日，年末年始"},{"ward":"北","wardcode":11,"name":"社会福祉法人京都福祉サービス協会　高齢者福祉施設　紫野","latitude":35.0413637890298,"longitude":135.74145913124,"url":"","register":"○","establishment":"玄関ロビー","setsumei":"7:00～20:00","holiday":"年中無休"},{"ward":"北","wardcode":11,"name":"紫野高等学校","latitude":35.04309694,"longitude":135.741974,"url":"","register":"○","establishment":"","setsumei":"","holiday":""},{"ward":"北","wardcode":11,"name":"北保健センター","latitude":35.0408477213454,"longitude":135.753451287746,"url":"","register":"○","establishment":"庁内","setsumei":"開庁時間内","holiday":""},{"ward":"北","wardcode":11,"name":"京都市営地下鉄　北山駅","latitude":35.0513419206898,"longitude":135.766682624816,"url":"http://www.city.kyoto.jp/kotsu/","register":"○","establishment":"改札口内","setsumei":"始発～終電（４：４５頃～０：３０頃）","holiday":"年中無休"},{"ward":"北","wardcode":11,"name":"京都市営地下鉄　北大路駅","latitude":35.044763166189,"longitude":135.758678913116,"url":"http://www.city.kyoto.jp/kotsu/","register":"○","establishment":"改札口内","setsumei":"始発～終電（４：４５頃～０：３０頃）","holiday":"年中無休"},{"ward":"北","wardcode":11,"name":"（株）公益社　北ブライトホール","latitude":35.0386340834062,"longitude":135.752992630004,"url":"http://www.koekisha-kyoto.com","register":"○","establishment":"一階ロビー","setsumei":"","holiday":""},{"ward":"北","wardcode":11,"name":"キタオオジタウン","latitude":35.0448312401267,"longitude":135.758426785469,"url":"","register":"○","establishment":"北モール壁面","setsumei":"6:00～22:00","holiday":"年中無休"},{"ward":"北","wardcode":11,"name":"京都ライトハウス老人ホーム「船岡寮」","latitude":35.0397321255945,"longitude":135.738691091537,"url":"","register":"○","establishment":"本館事務所カウンター","setsumei":"9:00～21:00","holiday":"盆、年末年始"},{"ward":"北","wardcode":11,"name":"京都ライトハウス老人ホーム「船岡寮」","latitude":35.0400922802184,"longitude":135.738613307476,"url":"","register":"○","establishment":"老人ホーム１階通路","setsumei":"9:00～21:00","holiday":"盆、年末年始"},{"ward":"北","wardcode":11,"name":"上賀茂小学校","latitude":35.056704,"longitude":135.757638,"url":"","register":"○","establishment":"","setsumei":"","holiday":""},{"ward":"北","wardcode":11,"name":"イズミヤ株式会社　白梅町店","latitude":35.027062017789,"longitude":135.730762481689,"url":"","register":"○","establishment":"1階サービスコーナー","setsumei":"10:00～20:00","holiday":"年中無休"},{"ward":"北","wardcode":11,"name":"紫野小学校","latitude":35.03988611,"longitude":135.7455531,"url":"","register":"○","establishment":"","setsumei":"","holiday":""},{"ward":"北","wardcode":11,"name":"衣笠小学校","latitude":35.0300490809589,"longitude":135.732758045196,"url":"","register":"○","establishment":"","setsumei":"","holiday":""},{"ward":"北","wardcode":11,"name":"北消防署（署配置）","latitude":35.0495238132177,"longitude":135.748953223228,"url":"http://www.city.kyoto.lg.jp/shobo/soshiki/25-7-0-0-0_1.html","register":"○","establishment":"1階事務所","setsumei":"24時間使用可能","holiday":"年中無休"},{"ward":"北","wardcode":11,"name":"加茂川中学校","latitude":35.05474306,"longitude":135.7520131,"url":"","register":"○","establishment":"","setsumei":"","holiday":""},{"ward":"北","wardcode":11,"name":"京都中央信用金庫賀茂支店","latitude":35.0572087740697,"longitude":135.745857954025,"url":"http://www.chushin.co.jp/","register":"○","establishment":"営業室内","setsumei":"9:00～15:00","holiday":"土曜日・日曜日・祝日・１２／３１～１／３"},{"ward":"北","wardcode":11,"name":"京都中央信用金庫北烏丸支店","latitude":35.0439155311173,"longitude":135.759132206439,"url":"http://www.chushin.co.jp/","register":"○","establishment":"営業室内","setsumei":"9:00～15:00","holiday":"土曜日・日曜日・祝日・１２／３１～１／３"},{"ward":"北","wardcode":11,"name":"京都中央信用金庫金閣寺支店","latitude":35.0356846690422,"longitude":135.732538104057,"url":"http://www.chushin.co.jp/","register":"○","establishment":"営業室内","setsumei":"9:00～15:00","holiday":"土曜日・日曜日・祝日・１２／３１～１／３"},{"ward":"北","wardcode":11,"name":"社会福祉法人　柊野福祉会　ケアハウスアーバンヴィレッジ柊野","latitude":35.0663178094191,"longitude":135.748108327388,"url":"","register":"○","establishment":"事務室","setsumei":"6:00～24:00","holiday":"年中無休"},{"ward":"北","wardcode":11,"name":"衣笠中学校","latitude":35.0367432201753,"longitude":135.726712346076,"url":"","register":"○","establishment":"","setsumei":"","holiday":""},{"ward":"北","wardcode":11,"name":"鳳徳会館","latitude":35.0456042047307,"longitude":135.751463770866,"url":"","register":"○","establishment":"１階入口奥","setsumei":"８：３０～１９：３０（閉館の場合あり）","holiday":"月曜日，年末年始"},{"ward":"北","wardcode":11,"name":"山本恵一事務所","latitude":35.0621882425426,"longitude":135.744044780731,"url":"http://yamamoto-keiichi.org/","register":"○","establishment":"事務所","setsumei":"9:30～17:30","holiday":"土・日・祝日・年末年始"},{"ward":"北","wardcode":11,"name":"京都市北文化会館","latitude":35.0448158685974,"longitude":135.7585850358,"url":"","register":"○","establishment":"１階事務室","setsumei":"９：００～２１：３０","holiday":"火曜日，年末年始"},{"ward":"北","wardcode":11,"name":"田野接骨院","latitude":35.0639072742308,"longitude":135.745361745357,"url":"","register":"○","establishment":"治療室","setsumei":"8:30～22:00","holiday":"木、日、祝日"},{"ward":"北","wardcode":11,"name":"トヨタカローラ京都株式会社　上堀川店","latitude":35.0490056012608,"longitude":135.751831233501,"url":"http://www.corolla-kyoto.com/","register":"○","establishment":"ショールーム","setsumei":"9:30～17:50","holiday":"第一火、水曜日"},{"ward":"北","wardcode":11,"name":"北警察署","latitude":35.0482129062707,"longitude":135.751844644546,"url":"http://www.pref.kyoto.jp/fukei/site/policemap/kita/index.html","register":"○","establishment":"庁舎内","setsumei":"24時間使用可能","holiday":"年中無休"},{"ward":"北","wardcode":11,"name":"北警察署　北大路交番","latitude":35.0437508341632,"longitude":135.757656991481,"url":"http://www.pref.kyoto.jp/fukei/site/policemap/kita/index.html","register":"○","establishment":"庁舎内","setsumei":"24時間使用可能","holiday":"年中無休"},{"ward":"北","wardcode":11,"name":"北警察署　金閣寺交番","latitude":35.0394268713471,"longitude":135.733653903007,"url":"http://www.pref.kyoto.jp/fukei/site/policemap/kita/index.html","register":"○","establishment":"庁舎内","setsumei":"24時間使用可能","holiday":"年中無休"},{"ward":"北","wardcode":11,"name":"京都三菱自動車販売株式会社　北山店","latitude":35.0505777934943,"longitude":135.744259357452,"url":"http://www.kmjg.jp/kitayama.html","register":"○","establishment":"ショールーム","setsumei":"9:45～19:00","holiday":"水曜日"},{"ward":"北","wardcode":11,"name":"柊野小学校","latitude":35.0695317456044,"longitude":135.745737254619,"url":"","register":"○","establishment":"","setsumei":"","holiday":""},{"ward":"北","wardcode":11,"name":"西賀茂中学校","latitude":35.0707171819204,"longitude":135.740118026733,"url":"","register":"○","establishment":"","setsumei":"","holiday":""},{"ward":"北","wardcode":11,"name":"旭丘中学校","latitude":35.0465264824723,"longitude":135.739890038967,"url":"","register":"○","establishment":"","setsumei":"","holiday":""},{"ward":"北","wardcode":11,"name":"大宮小学校","latitude":35.0589323017121,"longitude":135.74646949768,"url":"","register":"○","establishment":"","setsumei":"","holiday":""},{"ward":"北","wardcode":11,"name":"楽只小学校","latitude":35.0396069495302,"longitude":135.739597678184,"url":"","register":"○","establishment":"","setsumei":"","holiday":""},{"ward":"北","wardcode":11,"name":"株式会社　フジックス","latitude":35.0312921941985,"longitude":135.731674432754,"url":"http://www.fjx.co.jp","register":"○","establishment":"二階事務室","setsumei":"8:45～17:30","holiday":"土日曜日、年末年始"},{"ward":"北","wardcode":11,"name":"岸本歯科医院","latitude":35.043153530424,"longitude":135.756683349609,"url":"http://www.kishimoto-dental.com","register":"○","establishment":"受付","setsumei":"10:00～13:00 15:00～19:00","holiday":"日、水、木曜日"},{"ward":"北","wardcode":11,"name":"北部まち美化事務所","latitude":35.0740560683246,"longitude":135.743567347526,"url":"","register":"○","establishment":"事務所","setsumei":"８：００～１６：４５","holiday":"土・日曜日"},{"ward":"北","wardcode":11,"name":"賀茂別雷神社","latitude":35.0602737738444,"longitude":135.752804875373,"url":"http://www.kamigamojinja.jp/","register":"○","establishment":"社務所","setsumei":"6:00～22:00","holiday":"年中無休"},{"ward":"北","wardcode":11,"name":"大宮保育園","latitude":35.0593604335107,"longitude":135.746952295303,"url":"","register":"○","establishment":"一階事務室","setsumei":"7:30～19:30","holiday":"日祝日、年末年始"},{"ward":"北","wardcode":11,"name":"鷹ヶ峯保育園","latitude":35.0525407955023,"longitude":135.732500553131,"url":"http://www.takagamine-hoikuen.jp/","register":"○","establishment":"一階階段下廊下","setsumei":"7:00～19:00","holiday":"日祝日、年末年始"},{"ward":"北","wardcode":11,"name":"旭ケ丘保育園","latitude":35.0654506396576,"longitude":135.740598142147,"url":"","register":"○","establishment":"一階事務室","setsumei":"7:15～19:15","holiday":"日祝日、年末年始"},{"ward":"北","wardcode":11,"name":"上賀茂保育園","latitude":35.0558826210293,"longitude":135.754086971282,"url":"http://web.kyoto-inet.or.jp/people/kamig-ns/","register":"○","establishment":"玄関口","setsumei":"7:15～19:15","holiday":"日祝日、年末年始"},{"ward":"北","wardcode":11,"name":"妙林苑","latitude":35.0246591098139,"longitude":135.73220282793,"url":"http://www.ans.co.jp/n/myourinen/","register":"○","establishment":"一階事務室","setsumei":"7:30～18:00","holiday":"日祝日"},{"ward":"北","wardcode":11,"name":"上賀茂診療所","latitude":35.0578718425131,"longitude":135.755701661109,"url":"http://kamigamo.aoikai.net/","register":"○","establishment":"一階処置室","setsumei":"9:00～20:00","holiday":"日祝日"},{"ward":"北","wardcode":11,"name":"京都市西賀茂児童館","latitude":35.0571785845671,"longitude":135.739782750606,"url":"","register":"○","establishment":"事務所","setsumei":"１０：００～１８：３０","holiday":"日曜日・祝日・年末年始"},{"ward":"北","wardcode":11,"name":"京都市楽只保育所","latitude":35.0419682428854,"longitude":135.737582668662,"url":"http://www.city.kyoto.lg.jp/hokenfukushi/page/0000085806.html","register":"○","establishment":"幼児棟（事務所）","setsumei":"７：００～１９：００","holiday":"日曜日，祝日，年末年始"},{"ward":"北","wardcode":11,"name":"京都市船岡乳児保育所","latitude":35.0391501650726,"longitude":135.745713114738,"url":"http://www.city.kyoto.lg.jp/hokenfukushi/page/0000085570.html","register":"○","establishment":"事務所","setsumei":"７：３０～１８：００","holiday":"日曜日，祝日，年末年始"},{"ward":"北","wardcode":11,"name":"京都市楽只乳児保育所","latitude":35.0415394709021,"longitude":135.737913250923,"url":"http://www.city.kyoto.lg.jp/hokenfukushi/page/0000085800.html","register":"○","establishment":"（乳児棟）事務所","setsumei":"７：００～１９：００","holiday":"日曜日，祝日，年末年始"},{"ward":"北","wardcode":11,"name":"一般社団法人　表千家同門会　表千家北山会館","latitude":35.0512013920868,"longitude":135.762028992176,"url":"http://www.omotesenke.jp/","register":"○","establishment":"１階受付","setsumei":"開館時間内","holiday":""},{"ward":"北","wardcode":11,"name":"京都トヨペット（株）　北店","latitude":35.0389964389597,"longitude":135.759435296058,"url":"","register":"○","establishment":"店内","setsumei":"９：３０～１８：３０","holiday":"定休日　毎週水曜日，１２月２９日～１月３日"},{"ward":"北","wardcode":11,"name":"北大路商店街振興組合","latitude":35.0438447114677,"longitude":135.759424567222,"url":"http://www.kics.gr.jp/kita/kitaoji/","register":"○","establishment":"相原ビル１階","setsumei":"","holiday":""},{"ward":"北","wardcode":11,"name":"北大路商店街振興組合","latitude":35.0435674711637,"longitude":135.761932432651,"url":"http://www.kics.gr.jp/kita/kitaoji/","register":"○","establishment":"青山石油　事務所","setsumei":"平日7:30～21:30 日祝7:30～20:00","holiday":""},{"ward":"北","wardcode":11,"name":"中嶋総合事業株式会社","latitude":35.0512134687732,"longitude":135.763163566589,"url":"","register":"○","establishment":"地下　ナカジマスイミングスクール","setsumei":"営業時間内","holiday":""},{"ward":"北","wardcode":11,"name":"社会福祉法人　柊野福祉会　ガーデンハウス西賀茂","latitude":35.0593118,"longitude":135.7433335,"url":"","register":"○","establishment":"事務所","setsumei":"24時間使用可能","holiday":"年中無休"},{"ward":"北","wardcode":11,"name":"株式会社　ジョイナス","latitude":35.0571899,"longitude":135.7462305,"url":"","register":"○","establishment":"事務所","setsumei":"9:00～18:00","holiday":"日曜日・祝日"},{"ward":"北","wardcode":11,"name":"上賀茂幼稚園","latitude":35.056128531829,"longitude":135.756927430629,"url":"","register":"○","establishment":"","setsumei":"","holiday":""},{"ward":"北","wardcode":11,"name":"元町小学校","latitude":35.0504547,"longitude":135.754153099999,"url":"","register":"○","establishment":"","setsumei":"","holiday":""},{"ward":"北","wardcode":11,"name":"待鳳小学校","latitude":35.0493398,"longitude":135.746490499999,"url":"","register":"○","establishment":"","setsumei":"","holiday":""},{"ward":"北","wardcode":11,"name":"鳳徳小学校","latitude":35.0451996,"longitude":135.752302099999,"url":"","register":"○","establishment":"","setsumei":"","holiday":""},{"ward":"北","wardcode":11,"name":"紫竹小学校","latitude":35.053558,"longitude":135.7503587,"url":"","register":"○","establishment":"","setsumei":"","holiday":""},{"ward":"北","wardcode":11,"name":"鷹峯小学校","latitude":35.0544620325392,"longitude":135.730867087841,"url":"","register":"○","establishment":"","setsumei":"","holiday":""},{"ward":"北","wardcode":11,"name":"紫明小学校","latitude":35.0427291,"longitude":135.756874199999,"url":"","register":"○","establishment":"","setsumei":"","holiday":""},{"ward":"北","wardcode":11,"name":"柏野小学校","latitude":35.037436,"longitude":135.736867699999,"url":"","register":"○","establishment":"","setsumei":"","holiday":""},{"ward":"北","wardcode":11,"name":"金閣小学校","latitude":35.0362974005189,"longitude":135.728243887424,"url":"","register":"○","establishment":"","setsumei":"","holiday":""},{"ward":"北","wardcode":11,"name":"大将軍小学校","latitude":35.0244428,"longitude":135.728504899999,"url":"","register":"○","establishment":"","setsumei":"","holiday":""},{"ward":"北","wardcode":11,"name":"株式会社　関西アーバン銀行北野支店","latitude":35.0269467061769,"longitude":135.731650292873,"url":"","register":"○","establishment":"ＡＴＭコーナー","setsumei":"平日/8：00～21：00　土・日・祝日/9：00～17：00","holiday":""},{"ward":"北","wardcode":11,"name":"京都視力センタービル　２階ナカノ眼科","latitude":35.0405249028813,"longitude":135.748655498027,"url":"","register":"○","establishment":"２階ナカノ眼科エントランス","setsumei":"月～土 9:00～19:00","holiday":"日・祝"},{"ward":"北","wardcode":11,"name":"株式会社ユタカファーマシー　北野白梅店","latitude":35.0276440643957,"longitude":135.730962306261,"url":"http://www.d-yutaka.co.jp/","register":"○","establishment":"サービスカウンター","setsumei":"9:00～22:00","holiday":"１月1日（原則年中無休）"},{"ward":"北","wardcode":11,"name":"株式会社ユタカファーマシー　紫竹店","latitude":35.0502099998386,"longitude":135.741355866193,"url":"http://www.d-yutaka.co.jp/","register":"○","establishment":"サービスカウンター","setsumei":"10:00～22:00","holiday":"１月1日（原則年中無休）"},{"ward":"北","wardcode":11,"name":"フレスコ北野白梅町店","latitude":35.0264041903144,"longitude":135.731245279312,"url":"http://www.super-fresco.co.jp/","register":"○","establishment":"店内","setsumei":"24時間使用可能","holiday":""},{"ward":"北","wardcode":11,"name":"御薗橋８０１商店街","latitude":35.0571451016511,"longitude":135.748365819454,"url":"http://www.kics.gr.jp/kita/801office/index.html","register":"○","establishment":"第二池田ビル１F","setsumei":"9:00～17:00","holiday":"木曜休"},{"ward":"北","wardcode":11,"name":"医療法人三幸会　ケアサポートセンター鷹峯","latitude":35.054359933651,"longitude":135.732709765434,"url":"http://www.sankokai.jp/","register":"○","establishment":"事務室","setsumei":"","holiday":""},{"ward":"北","wardcode":11,"name":"株式会社　島津製作所　紫野工場","latitude":35.0394246752692,"longitude":135.751478523015,"url":"","register":"○","establishment":"１号館１階総務エリア","setsumei":"","holiday":""},{"ward":"北","wardcode":11,"name":"京都信用金庫　北大路支店","latitude":35.0408784658945,"longitude":135.749059170484,"url":"http://www.kyoto-shinkin.co.jp/","register":"○","establishment":"１階ロビー","setsumei":"9:00～15:00","holiday":"土・日・祝日及び12月31日～1月3日"},{"ward":"北","wardcode":11,"name":"京都信用金庫　北野支店","latitude":35.0275693869496,"longitude":135.731765627861,"url":"http://www.kyoto-shinkin.co.jp/","register":"○","establishment":"１階ロビー","setsumei":"9:00～15:00","holiday":"土・日・祝日及び12月31日～1月3日"},{"ward":"上京","wardcode":12,"name":"真如苑京都支部","latitude":35.019301732566,"longitude":135.757302939891,"url":"http://www.shinnyo-en.or.jp/","register":"○","establishment":"事務所","setsumei":"９：００～２１：００（日・祝日は１７：００まで）","holiday":"年中無休"},{"ward":"上京","wardcode":12,"name":"京都御苑（中立売休憩所）","latitude":35.0248238452483,"longitude":135.759789347648,"url":"","register":"○","establishment":"中立売休憩所","setsumei":"９時～１６時３０分","holiday":"年中無休"},{"ward":"上京","wardcode":12,"name":"京都御苑（富小路休憩所）","latitude":35.0181682695119,"longitude":135.765759944915,"url":"","register":"○","establishment":"富小路休憩所","setsumei":"９時～１６時３０分","holiday":"年中無休"},{"ward":"上京","wardcode":12,"name":"京都ブライトンホテル株式会社","latitude":35.0242615469317,"longitude":135.755905508995,"url":"","register":"○","establishment":"1階フロント内","setsumei":"２４時間使用可能","holiday":"年中無休"},{"ward":"上京","wardcode":12,"name":"京都ブライトンホテル株式会社","latitude":35.0246656992377,"longitude":135.755881369113,"url":"","register":"○","establishment":"地下　宴会場前","setsumei":"２４時間使用可能","holiday":"年中無休"},{"ward":"上京","wardcode":12,"name":"京都ブライトンホテル株式会社","latitude":35.024373567608,"longitude":135.75599938631,"url":"","register":"○","establishment":"1階インターネットコーナー","setsumei":"２４時間使用可能","holiday":"年中無休"},{"ward":"上京","wardcode":12,"name":"京都平安女学院中・高等学校（体育館入口）","latitude":35.0192270474995,"longitude":135.758402645587,"url":"","register":"○","establishment":"体育館","setsumei":"開校時間内","holiday":"年中無休"},{"ward":"上京","wardcode":12,"name":"京都平安女学院中・高等学校（室町門）","latitude":35.0197520381393,"longitude":135.758024454116,"url":"","register":"○","establishment":"室町門","setsumei":"開校時間内","holiday":"年中無休"},{"ward":"上京","wardcode":12,"name":"京都平安女学院中・高等学校（教員室前）","latitude":35.0197849872303,"longitude":135.758563578128,"url":"","register":"○","establishment":"教員室前廊下","setsumei":"開校時間内","holiday":"年中無休"},{"ward":"上京","wardcode":12,"name":"嘉楽中学校","latitude":35.03082306,"longitude":135.7437169,"url":"","register":"○","establishment":"","setsumei":"","holiday":"年中無休"},{"ward":"上京","wardcode":12,"name":"上京区役所","latitude":35.0293638231744,"longitude":135.756849646568,"url":"http://www.city.kyoto.lg.jp/kamigyo/","register":"○","establishment":"地域力推進室　総務・防災担当執務室（２階）","setsumei":"開庁時間内（8:30～17:15）","holiday":"土・日曜日，祝日，年末年始"},{"ward":"上京","wardcode":12,"name":"上京保健センター","latitude":35.0294209282092,"longitude":135.756594836711,"url":"http://www.city.kyoto.lg.jp/kamigyo/","register":"○","establishment":"総合庁舎３階ロビー","setsumei":"開庁時間内（8:30～17:15）","holiday":"土・日曜日，祝日，年末年始"},{"ward":"上京","wardcode":12,"name":"京都府立府民ホール","latitude":35.0253411123546,"longitude":135.758672207593,"url":"http://www.alti.org/","register":"○","establishment":"玄関","setsumei":"９：００～１８：００","holiday":"年中無休"},{"ward":"上京","wardcode":12,"name":"京都市小川特別養護老人ホーム","latitude":35.0287730033572,"longitude":135.753647089004,"url":"","register":"○","establishment":"","setsumei":"","holiday":"年中無休"},{"ward":"上京","wardcode":12,"name":"デイサービスセンター「十四軒町の家」","latitude":35.0209623593654,"longitude":135.742011666297,"url":"","register":"○","establishment":"１階事務室","setsumei":"営業時間内","holiday":"年中無休"},{"ward":"上京","wardcode":12,"name":"京都市北総合支援学校","latitude":35.0353201026145,"longitude":135.75077176094,"url":"","register":"○","establishment":"","setsumei":"","holiday":"年中無休"},{"ward":"上京","wardcode":12,"name":"京都市営地下鉄　鞍馬口駅","latitude":35.0370375037389,"longitude":135.759298503398,"url":"http://www.city.kyoto.jp/kotsu/","register":"○","establishment":"改札口内","setsumei":"始発～終電（４：４５頃～０：３０頃）","holiday":"年中無休"},{"ward":"上京","wardcode":12,"name":"京都市営地下鉄　今出川駅","latitude":35.0302160018568,"longitude":135.759381651878,"url":"http://www.city.kyoto.jp/kotsu/","register":"○","establishment":"改札口内","setsumei":"始発～終電（４：４５頃～０：３０頃）","holiday":"年中無休"},{"ward":"上京","wardcode":12,"name":"京都中央信用金庫西陣支店","latitude":35.0248106664257,"longitude":135.751517415046,"url":"http://www.chushin.co.jp/","register":"○","establishment":"営業室内","setsumei":"9:00～15:00","holiday":"土曜日・日曜日・祝日・１２／３１～１／３"},{"ward":"上京","wardcode":12,"name":"京都ガーデンパレス","latitude":35.0230776327543,"longitude":135.758920311927,"url":"http://www.hotelgp-kyoto.com/","register":"○","establishment":"フロント","setsumei":"24時間使用可能","holiday":"年中無休"},{"ward":"上京","wardcode":12,"name":"西陣中央小学校","latitude":35.0304,"longitude":135.74812,"url":"","register":"○","establishment":"","setsumei":"","holiday":"年中無休"},{"ward":"上京","wardcode":12,"name":"同志社幼稚園","latitude":35.0299908781973,"longitude":135.766286998987,"url":"","register":"○","establishment":"幼稚園玄関","setsumei":"","holiday":""},{"ward":"上京","wardcode":12,"name":"駿河台学園　駿台予備学校京都校","latitude":35.0166800262378,"longitude":135.751565694808,"url":"http://www.sundai.ac.jp/yobi/","register":"○","establishment":"１階ホール","setsumei":"９：００～２１：００","holiday":"年中無休"},{"ward":"上京","wardcode":12,"name":"京都保健衛生専門学校","latitude":35.016481225639,"longitude":135.743167698383,"url":"http://www.kyohosen.ac.jp/pc/index-p.html","register":"○","establishment":"玄関ロビー","setsumei":"9時から17時","holiday":"年中無休"},{"ward":"上京","wardcode":12,"name":"上京消防署（署配置）","latitude":35.0197234822498,"longitude":135.755253732204,"url":"http://www.city.kyoto.lg.jp/shobo/soshiki/25-8-0-0-0_2.html","register":"○","establishment":"３階事務所","setsumei":"24時間使用可能","holiday":"年中無休"},{"ward":"上京","wardcode":12,"name":"京都中央信用金庫大宮寺ノ内支店","latitude":35.0338859791372,"longitude":135.748725235462,"url":"http://www.chushin.co.jp/","register":"○","establishment":"営業室内","setsumei":"9:00～15:00","holiday":"土曜日・日曜日・祝日・１２／３１～１／３"},{"ward":"上京","wardcode":12,"name":"京都中央信用金庫北野支店","latitude":35.0262625205996,"longitude":135.737242698669,"url":"http://www.chushin.co.jp/","register":"○","establishment":"営業室内","setsumei":"9:00～15:00","holiday":"土曜日・日曜日・祝日・１２／３１～１／３"},{"ward":"上京","wardcode":12,"name":"社会福祉法人　柊野福祉会　デイサービスセンター千本笹屋町","latitude":35.0280569855131,"longitude":135.743299126625,"url":"","register":"○","establishment":"事務室","setsumei":"24時間使用可能","holiday":"年中無休"},{"ward":"上京","wardcode":12,"name":"公立学校共済組合京都宿泊所ルビノ京都堀川","latitude":35.021825608386,"longitude":135.752316713333,"url":"","register":"○","establishment":"１階ロビー","setsumei":"24時間使用可能","holiday":"年中無休"},{"ward":"上京","wardcode":12,"name":"警察本部１１０番指令センター","latitude":35.0202462731091,"longitude":135.756841599941,"url":"http://www.pref.kyoto.jp/fukei/site/policemap/honbu/index.html","register":"○","establishment":"庁舎内","setsumei":"24時間使用可能","holiday":"年中無休"},{"ward":"上京","wardcode":12,"name":"上京警察署","latitude":35.0275232626106,"longitude":135.736387073993,"url":"http://www.pref.kyoto.jp/fukei/site/policemap/kamigyo/index.html","register":"○","establishment":"庁舎内","setsumei":"24時間使用可能","holiday":"年中無休"},{"ward":"上京","wardcode":12,"name":"上京警察署　出町交番","latitude":35.0314766828913,"longitude":135.769785940647,"url":"http://www.pref.kyoto.jp/fukei/site/policemap/kamigyo/index.html","register":"○","establishment":"庁舎内","setsumei":"24時間使用可能","holiday":"年中無休"},{"ward":"上京","wardcode":12,"name":"上京警察署　今出川大宮交番","latitude":35.0298645890436,"longitude":135.74889421463,"url":"http://www.pref.kyoto.jp/fukei/site/policemap/kamigyo/index.html","register":"○","establishment":"庁舎内","setsumei":"24時間使用可能","holiday":"年中無休"},{"ward":"上京","wardcode":12,"name":"上京中学校","latitude":35.0259594124781,"longitude":135.757420957088,"url":"","register":"○","establishment":"","setsumei":"","holiday":""},{"ward":"上京","wardcode":12,"name":"二条中学校","latitude":35.0153433300395,"longitude":135.744924545288,"url":"","register":"○","establishment":"","setsumei":"","holiday":""},{"ward":"上京","wardcode":12,"name":"烏丸中学校","latitude":35.0344679771508,"longitude":135.759952962398,"url":"","register":"○","establishment":"","setsumei":"","holiday":""},{"ward":"上京","wardcode":12,"name":"二条城北小学校","latitude":35.0190666940379,"longitude":135.744943320751,"url":"","register":"○","establishment":"","setsumei":"","holiday":""},{"ward":"上京","wardcode":12,"name":"同志社女子中学校・高等学校（新生館）","latitude":35.0294516770576,"longitude":135.765271782875,"url":"http://www.girls.doshisha.ac.jp./","register":"○","establishment":"新生館","setsumei":"","holiday":""},{"ward":"上京","wardcode":12,"name":"同志社女子中学校・高等学校（清和館）","latitude":35.0296537406305,"longitude":135.764633417129,"url":"http://www.girls.doshisha.ac.jp./","register":"○","establishment":"清和館","setsumei":"","holiday":""},{"ward":"上京","wardcode":12,"name":"同志社女子中学校・高等学校（希望館）","latitude":35.0299194973953,"longitude":135.765073299407,"url":"http://www.girls.doshisha.ac.jp./","register":"○","establishment":"希望館","setsumei":"","holiday":""},{"ward":"上京","wardcode":12,"name":"同志社女子中学校・高等学校（黎明館）","latitude":35.0301567010505,"longitude":135.76471120119,"url":"http://www.girls.doshisha.ac.jp./","register":"○","establishment":"黎明館","setsumei":"","holiday":""},{"ward":"上京","wardcode":12,"name":"同志社大学継志館フィットネス","latitude":35.0284391553269,"longitude":135.756372213363,"url":"http://www.doshisha-ep.co.jp/","register":"○","establishment":"２階フロント","setsumei":"","holiday":""},{"ward":"上京","wardcode":12,"name":"同志社大学継志館フィットネス","latitude":35.0284391553269,"longitude":135.756372213363,"url":"http://www.doshisha-ep.co.jp/","register":"○","establishment":"３階ジム入口前","setsumei":"","holiday":""},{"ward":"上京","wardcode":12,"name":"同志社大学寒梅館","latitude":35.0314964495123,"longitude":135.75902223587,"url":"","register":"○","establishment":"寒梅館","setsumei":"","holiday":""},{"ward":"上京","wardcode":12,"name":"同志社大学　今出川正門","latitude":35.0292737728461,"longitude":135.762195289134,"url":"http://www.doshisha.ac.jp/japanese/","register":"○","establishment":"今出川正門","setsumei":"","holiday":""},{"ward":"上京","wardcode":12,"name":"同志社大学　今出川西門","latitude":35.0300446882991,"longitude":135.759547948837,"url":"http://www.doshisha.ac.jp/japanese/","register":"○","establishment":"今出川西門","setsumei":"","holiday":""},{"ward":"上京","wardcode":12,"name":"同志社大学　図書館","latitude":35.0296054211259,"longitude":135.759875178337,"url":"http://www.doshisha.ac.jp/japanese/","register":"○","establishment":"図書館","setsumei":"","holiday":""},{"ward":"上京","wardcode":12,"name":"同志社大学　至誠館","latitude":35.0303807260929,"longitude":135.761361122131,"url":"http://www.doshisha.ac.jp/japanese/","register":"○","establishment":"至誠館","setsumei":"","holiday":""},{"ward":"上京","wardcode":12,"name":"同志社大学　博遠館","latitude":35.0317556114339,"longitude":135.760339200496,"url":"http://www.doshisha.ac.jp/japanese/","register":"○","establishment":"博遠館","setsumei":"","holiday":""},{"ward":"上京","wardcode":12,"name":"同志社大学新町別館　正門","latitude":35.0311274717993,"longitude":135.756278336048,"url":"http://www.doshisha.ac.jp/japanese/","register":"○","establishment":"新町キャンパス正門","setsumei":"","holiday":""},{"ward":"上京","wardcode":12,"name":"同志社大学新町別館　学生会館","latitude":35.031786359404,"longitude":135.755524635314,"url":"http://www.doshisha.ac.jp/japanese/","register":"○","establishment":"学生会館","setsumei":"","holiday":""},{"ward":"上京","wardcode":12,"name":"同志社大学新町別館　育真館","latitude":35.031727059737,"longitude":135.755977928638,"url":"http://www.doshisha.ac.jp/japanese/","register":"○","establishment":"育真館","setsumei":"","holiday":""},{"ward":"上京","wardcode":12,"name":"同志社大学新町別館　良心館","latitude":35.0315513567677,"longitude":135.759902000427,"url":"http://www.doshisha.ac.jp/japanese/","register":"○","establishment":"良心館","setsumei":"","holiday":""},{"ward":"上京","wardcode":12,"name":"同志社大学新町別館　良心館","latitude":35.0308617189622,"longitude":135.759955644607,"url":"http://www.doshisha.ac.jp/japanese/","register":"○","establishment":"良心館","setsumei":"","holiday":""},{"ward":"上京","wardcode":12,"name":"同志社大学新町別館　北門門衛所","latitude":35.0318720144024,"longitude":135.759601593017,"url":"http://www.doshisha.ac.jp/japanese/","register":"○","establishment":"北門門衛所","setsumei":"","holiday":""},{"ward":"上京","wardcode":12,"name":"京都社会福祉会館","latitude":35.0159693942494,"longitude":135.750967562198,"url":"","register":"○","establishment":"１階事務所内","setsumei":"","holiday":""},{"ward":"上京","wardcode":12,"name":"北部環境共生センター","latitude":35.0246481274398,"longitude":135.75360417366,"url":"","register":"○","establishment":"事務所","setsumei":"","holiday":""},{"ward":"上京","wardcode":12,"name":"NTT西陣ビル","latitude":35.0245558754392,"longitude":135.753201842308,"url":"","register":"○","establishment":"1階通用門フロア","setsumei":"","holiday":""},{"ward":"上京","wardcode":12,"name":"中立保育園","latitude":35.0243516027816,"longitude":135.758078098297,"url":"http://www12.ocn.ne.jp/~tyuritu/","register":"○","establishment":"職員室","setsumei":"","holiday":""},{"ward":"上京","wardcode":12,"name":"京都市上京老人福祉センター","latitude":35.0281909647891,"longitude":135.736990571022,"url":"","register":"○","establishment":"玄関","setsumei":"","holiday":""},{"ward":"上京","wardcode":12,"name":"学校法人　京都インターナショナルスクール","latitude":35.0244746057333,"longitude":135.750664472579,"url":"bvsiness@kyoto-is.org","register":"○","establishment":"事務所内","setsumei":"","holiday":""},{"ward":"上京","wardcode":12,"name":"京都西陣公共職業安定所","latitude":35.0245053564423,"longitude":135.748765468597,"url":"http://www.kyoto-roudou.plb.go.jp/","register":"○","establishment":"事務所内","setsumei":"","holiday":""},{"ward":"上京","wardcode":12,"name":"ザグランリゾートエレガンテ京都","latitude":35.0251049929562,"longitude":135.752453505992,"url":"http://www.granresort.jp/hotels/kyoto/","register":"○","establishment":"2階ロビー","setsumei":"24時間使用可能","holiday":"年中無休"},{"ward":"上京","wardcode":12,"name":"ナイトケアセンター　小川","latitude":35.0268841083765,"longitude":135.754526853561,"url":"http://kyoto-fukushi.org/place/name.html","register":"○","establishment":"事務所内","setsumei":"24時間使用可能","holiday":"年中無休"},{"ward":"上京","wardcode":12,"name":"社会福祉法人　京都福祉サービス協会　小川事務所","latitude":35.0289931885652,"longitude":135.753608196973,"url":"http://kyoto-fukushi.org/place/ogw.html","register":"○","establishment":"１階事務所内","setsumei":"24時間使用可能","holiday":"年中無休"},{"ward":"上京","wardcode":12,"name":"京都市室町乳児保育所","latitude":35.0302731062962,"longitude":135.756655186414,"url":"http://www.city.kyoto.lg.jp/hokenfukushi/page/0000085720.html","register":"○","establishment":"玄関ホール","setsumei":"","holiday":""},{"ward":"上京","wardcode":12,"name":"京都市鶴山保育所","latitude":35.0346963827859,"longitude":135.766077786684,"url":"http://www.city.kyoto.lg.jp/hokenfukushi/page/0000085700.html","register":"○","establishment":"玄関","setsumei":"","holiday":""},{"ward":"上京","wardcode":12,"name":"室町スカイハイツ管理組合","latitude":35.0249347669204,"longitude":135.757378041744,"url":"","register":"○","establishment":"１階玄関ロビー","setsumei":"24時間使用可能","holiday":"年中無休"},{"ward":"上京","wardcode":12,"name":"樋口造園株式会社","latitude":35.0253866888111,"longitude":135.739285871386,"url":"","register":"○","establishment":"２階事務所","setsumei":"","holiday":""},{"ward":"上京","wardcode":12,"name":"介護付有料老人ホーム　たのしい家堀川今出川","latitude":35.0306882104453,"longitude":135.750677883625,"url":"http://care21.co.jp/","register":"○","establishment":"１階事務所内","setsumei":"24時間使用可能","holiday":"年中無休"},{"ward":"上京","wardcode":12,"name":"ホンダカーズ京都上京　上京店","latitude":35.0213972798585,"longitude":135.747161507606,"url":"","register":"○","establishment":"１階店舗前","setsumei":"","holiday":""},{"ward":"上京","wardcode":12,"name":"居宅介護サービス　音希","latitude":35.0220430666258,"longitude":135.751225054264,"url":"","register":"○","establishment":"１階事務室","setsumei":"24時間使用可能","holiday":"年中無休"},{"ward":"上京","wardcode":12,"name":"花友じゅらくだいディサービス","latitude":35.0251489221983,"longitude":135.746254920959,"url":"","register":"○","establishment":"２階事務室","setsumei":"24時間使用可能","holiday":"年中無休"},{"ward":"上京","wardcode":12,"name":"京都地方法務局","latitude":35.0208009110177,"longitude":135.770109146833,"url":"","register":"○","establishment":"１階出入口ロビー","setsumei":"","holiday":""},{"ward":"上京","wardcode":12,"name":"相国寺派宗務本所","latitude":35.033286407038,"longitude":135.762171149253,"url":"","register":"○","establishment":"正面守衛室内","setsumei":"24時間使用可能","holiday":"年中無休"},{"ward":"上京","wardcode":12,"name":"ザ・パレスサイドホテル","latitude":35.0205472058274,"longitude":135.759043693542,"url":"http://www.palacesidehotel.co.jp/","register":"○","establishment":"フロント","setsumei":"24時間使用可能","holiday":"年中無休"},{"ward":"上京","wardcode":12,"name":"社会福祉法人　わかば園","latitude":35.0197388584993,"longitude":135.770515501499,"url":"","register":"○","establishment":"","setsumei":"24時間使用可能","holiday":"年中無休"},{"ward":"上京","wardcode":12,"name":"株式会社　京都放送","latitude":35.0235454895709,"longitude":135.759035646915,"url":"http://www.kbs-kyoto.co.jp/","register":"○","establishment":"","setsumei":"24時間使用可能","holiday":"年中無休"},{"ward":"上京","wardcode":12,"name":"星の子スイミングスクール","latitude":35.0248567922953,"longitude":135.746625065803,"url":"http://hoshinokoo.com/","register":"○","establishment":"受付","setsumei":"","holiday":""},{"ward":"上京","wardcode":12,"name":"西陣織会館","latitude":35.0289025887385,"longitude":135.75164347887,"url":"http://www.nishijin.or.jp/","register":"○","establishment":"","setsumei":"","holiday":""},{"ward":"上京","wardcode":12,"name":"本門佛立宗　宗務本庁","latitude":35.0271784274418,"longitude":135.735070109367,"url":"http://www.honmon-butsuryushu.or.jp/","register":"○","establishment":"１階受付","setsumei":"24時間使用可能","holiday":"年中無休"},{"ward":"上京","wardcode":12,"name":"有限会社　デイジー・ヒル　ひなぎくの丘デイサービスセンター","latitude":35.023962824378,"longitude":135.741590559482,"url":"http://care-net.biz/26/daisy-hill/","register":"○","establishment":"デイルーム","setsumei":"24時間使用可能","holiday":"年中無休"},{"ward":"上京","wardcode":12,"name":"社会福祉法人　北野健寿会","latitude":35.0316150491378,"longitude":135.742274522781,"url":"http://kweb.sub.jp/nishijin/","register":"○","establishment":"受付","setsumei":"24時間使用可能","holiday":"年中無休"},{"ward":"上京","wardcode":12,"name":"一般社団法人　表千家同門会","latitude":35.0338837829104,"longitude":135.752191990613,"url":"http://www.omotesenke.jp/","register":"○","establishment":"１階","setsumei":"","holiday":""},{"ward":"上京","wardcode":12,"name":"メッサ北野","latitude":35.0254718014028,"longitude":135.740069746971,"url":"","register":"○","establishment":"1階レジ横","setsumei":"","holiday":""},{"ward":"上京","wardcode":12,"name":"宗教法人　護王神社","latitude":35.0222012177097,"longitude":135.759130865335,"url":"http://www.gooujinja.or.jp/","register":"○","establishment":"社務所","setsumei":"24時間使用可能","holiday":"年中無休"},{"ward":"上京","wardcode":12,"name":"医療法人社団　潤和会　今出川前田歯科医院","latitude":35.02996342405,"longitude":135.746925473213,"url":"http://www.maeda-dental.info/","register":"○","establishment":"診療室","setsumei":"","holiday":""},{"ward":"上京","wardcode":12,"name":"御所東アーバンライフ管理組合","latitude":35.0256376334237,"longitude":135.767235159873,"url":"","register":"○","establishment":"1階ロビー","setsumei":"24時間使用可能","holiday":"年中無休"},{"ward":"上京","wardcode":12,"name":"医療法人　明貴会　山口歯科医院","latitude":35.0216312134093,"longitude":135.769171714782,"url":"http://www.dr-yamaguchi-mti.jp","register":"○","establishment":"待合室","setsumei":"","holiday":""},{"ward":"上京","wardcode":12,"name":"京都府立文化芸術会館","latitude":35.0229260729297,"longitude":135.768852531909,"url":"http://www.bungei.jp/index.shtml","register":"○","establishment":"１階保安室前","setsumei":"","holiday":""},{"ward":"上京","wardcode":12,"name":"医療法人三幸会　ケアサポートセンター千本今出川","latitude":35.0287982615409,"longitude":135.743423849344,"url":"http://www.sankokai.jp/","register":"○","establishment":"事務室","setsumei":"24時間使用可能","holiday":"年中無休"},{"ward":"上京","wardcode":12,"name":"ファーストフィットネスクラブ京都","latitude":35.0301720753378,"longitude":135.751587152481,"url":"http://firstfitnessclub.co.jp/","register":"○","establishment":"フロント","setsumei":"","holiday":""},{"ward":"上京","wardcode":12,"name":"祐正寺","latitude":35.0204066242574,"longitude":135.740040242671,"url":"","register":"○","establishment":"庫裡","setsumei":"24時間使用可能","holiday":"年中無休"},{"ward":"上京","wardcode":12,"name":"京都中央信用金庫出町支店","latitude":35.0294626587863,"longitude":135.769979059696,"url":"http://www.chushin.co.jp/","register":"○","establishment":"営業室内","setsumei":"9:00～15:00","holiday":"土曜日・日曜日・祝日・１２／３１～１／３"},{"ward":"上京","wardcode":12,"name":"京極幼稚園","latitude":35.0321648,"longitude":135.7642793,"url":"","register":"○","establishment":"","setsumei":"","holiday":""},{"ward":"上京","wardcode":12,"name":"みつば幼稚園","latitude":35.0291891,"longitude":135.7539865,"url":"","register":"○","establishment":"","setsumei":"","holiday":""},{"ward":"上京","wardcode":12,"name":"待賢幼稚園","latitude":35.0168736,"longitude":135.7501366,"url":"","register":"○","establishment":"","setsumei":"","holiday":""},{"ward":"上京","wardcode":12,"name":"乾隆幼稚園","latitude":35.0330607,"longitude":135.7427337,"url":"","register":"○","establishment":"","setsumei":"","holiday":""},{"ward":"上京","wardcode":12,"name":"翔鸞幼稚園","latitude":35.0316915,"longitude":135.7385701,"url":"","register":"○","establishment":"","setsumei":"","holiday":""},{"ward":"上京","wardcode":12,"name":"室町小学校","latitude":35.0335316,"longitude":135.7583921,"url":"","register":"○","establishment":"","setsumei":"","holiday":""},{"ward":"上京","wardcode":12,"name":"京極小学校","latitude":35.0273715,"longitude":135.7676119,"url":"","register":"○","establishment":"","setsumei":"","holiday":""},{"ward":"上京","wardcode":12,"name":"新町小学校","latitude":35.0252267,"longitude":135.7560227,"url":"","register":"○","establishment":"","setsumei":"","holiday":""},{"ward":"上京","wardcode":12,"name":"乾隆小学校","latitude":35.0337161,"longitude":135.743103799999,"url":"","register":"○","establishment":"","setsumei":"","holiday":""},{"ward":"上京","wardcode":12,"name":"翔鸞小学校","latitude":35.0319385,"longitude":135.7382,"url":"","register":"○","establishment":"","setsumei":"","holiday":""},{"ward":"上京","wardcode":12,"name":"仁和小学校","latitude":35.0247437,"longitude":135.7367752,"url":"","register":"○","establishment":"","setsumei":"","holiday":""},{"ward":"上京","wardcode":12,"name":"正親小学校","latitude":35.0246273,"longitude":135.7458427,"url":"","register":"○","establishment":"","setsumei":"","holiday":""},{"ward":"上京","wardcode":12,"name":"株式会社三菱東京ＵＦＪ銀行出町支店","latitude":35.0293868848279,"longitude":135.769500285387,"url":"http://www.bk.mufg.jp/","register":"○","establishment":"１階ATMコーナー","setsumei":"7:00～24:00","holiday":"毎月第2土曜日の21:00～翌朝7:00"},{"ward":"上京","wardcode":12,"name":"株式会社三菱東京ＵＦＪ銀行西陣支店","latitude":35.0294406953273,"longitude":135.74261650443,"url":"http://www.bk.mufg.jp/","register":"○","establishment":"１階ATMコーナー","setsumei":"7:00～24:00","holiday":"毎月第2土曜日の21:00～翌朝7:00"},{"ward":"上京","wardcode":12,"name":"株式会社みずほ銀行出町支店","latitude":35.029312208974,"longitude":135.770103782415,"url":"http://www.mizuhobank.co.jp/index.html","register":"○","establishment":"ＡＴＭコーナー","setsumei":"月～金7:00～24:00　土・日・祝日8:00～21:00","holiday":""},{"ward":"上京","wardcode":12,"name":"京都府社会保険労務士会","latitude":35.0289706758904,"longitude":135.755956470966,"url":"","register":"○","establishment":"１階出入口","setsumei":"9:00～18:00","holiday":"日・祝・土曜日は不定"},{"ward":"上京","wardcode":12,"name":"ローソン　ひかり千本中立売店","latitude":35.0251994407974,"longitude":135.744377374649,"url":"","register":"○","establishment":"１Ｆレジ内","setsumei":"24時間使用可能","holiday":"年中無休"},{"ward":"上京","wardcode":12,"name":"フレスコ堀川店","latitude":35.0200562675742,"longitude":135.751540213823,"url":"http://www.super-fresco.co.jp/","register":"○","establishment":"店内","setsumei":"24時間使用可能","holiday":""},{"ward":"上京","wardcode":12,"name":"公益社団法人モラロジー研究所　京都出張所","latitude":35.0270093039293,"longitude":135.767905712127,"url":"","register":"○","establishment":"１階玄関奥","setsumei":"月～土 9:00～18:00","holiday":"日曜日・祝日"},{"ward":"上京","wardcode":12,"name":"すどう医院","latitude":35.0287060142237,"longitude":135.746689438819,"url":"","register":"○","establishment":"１階診察室内","setsumei":"月～土 9:00～12:30　月・火・水・金17:00～19:00","holiday":""},{"ward":"上京","wardcode":12,"name":"渡辺肛門科医院","latitude":35.0294384989811,"longitude":135.745530724525,"url":"","register":"○","establishment":"診療所内（１階）","setsumei":"24時間使用可能","holiday":""},{"ward":"上京","wardcode":12,"name":"近畿産業信用組合西陣支店","latitude":35.0298865523887,"longitude":135.748714506626,"url":"","register":"○","establishment":"営業場（ロビー）内","setsumei":"営業時間（AM9:00～PM3:00）","holiday":""},{"ward":"上京","wardcode":12,"name":"津田皮フ科医院","latitude":35.0297558703985,"longitude":135.745840519666,"url":"","register":"○","establishment":"１階待合室","setsumei":"診療時間内（9:00～12:00，15:30～18:30）","holiday":"土曜日午後，木・日・祝日休診"},{"ward":"上京","wardcode":12,"name":"医療法人博侑会　吉岡医院","latitude":35.0295351381591,"longitude":135.745364427566,"url":"","register":"○","establishment":"１階診察室内","setsumei":"診察時間内","holiday":"日・祝"},{"ward":"上京","wardcode":12,"name":"妙顕寺","latitude":35.0344284453414,"longitude":135.754709243774,"url":"","register":"○","establishment":"玄関","setsumei":"","holiday":""},{"ward":"上京","wardcode":12,"name":"上京区役所","latitude":35.0296251881994,"longitude":135.756720900535,"url":"http://www.city.kyoto.lg.jp/kamigyo/","register":"○","establishment":"３階多目的室","setsumei":"開庁時間内（8:30～17:15）","holiday":"土・日曜日，祝日，年末年始"},{"ward":"上京","wardcode":12,"name":"株式会社ＳＣＲＥＥＮホールディングス","latitude":35.0377007359443,"longitude":135.751326978206,"url":"http://www.screen.co.jp/","register":"○","establishment":"本館６階","setsumei":"AM6:00～PM11:00（土・日・祭日含む）","holiday":""},{"ward":"上京","wardcode":12,"name":"株式会社ＳＣＲＥＥＮホールディングス","latitude":35.0370902111309,"longitude":135.751187503337,"url":"http://www.screen.co.jp/","register":"○","establishment":"西館１階","setsumei":"AM6:00～PM11:00（土・日・祭日含む）","holiday":""},{"ward":"上京","wardcode":12,"name":"裏千家学園茶道専門学校","latitude":35.0355023860316,"longitude":135.75292289257,"url":"http://www.urasenke.or.jp/","register":"○","establishment":"校内","setsumei":"9:00～17:00（土曜・日曜・祝日を除く）","holiday":""},{"ward":"上京","wardcode":12,"name":"一般財団法人　今日庵","latitude":35.0347161486281,"longitude":135.753660500049,"url":"http://www.urasenke.or.jp/","register":"○","establishment":"裏千家センター　１階警備室","setsumei":"","holiday":""},{"ward":"上京","wardcode":12,"name":"都総合管理株式会社","latitude":35.0257738131099,"longitude":135.751455724239,"url":"http://www.miyako-sogokanri.co.jp/","register":"○","establishment":"1階　警備室","setsumei":"","holiday":""},{"ward":"左京","wardcode":13,"name":"京都ノートルダム女子大学","latitude":35.0502308598216,"longitude":135.771988034248,"url":"http://www.notredame.ac.jp/","register":"○","establishment":"守衛室","setsumei":"24時間使用可能","holiday":"年中無休"},{"ward":"左京","wardcode":13,"name":"京都ノートルダム女子大学　","latitude":35.0502308598216,"longitude":135.771988034248,"url":"http://www.notredame.ac.jp/","register":"○","establishment":"保健室前廊下","setsumei":"","holiday":""},{"ward":"左京","wardcode":13,"name":"京都ノートルダム女子大学　松ヶ崎グラウンド","latitude":35.0509466833778,"longitude":135.770995616912,"url":"http://www.notredame.ac.jp/","register":"○","establishment":"グラウンド","setsumei":"","holiday":""},{"ward":"左京","wardcode":13,"name":"京都大学（農学部門衛所）","latitude":35.0297789319414,"longitude":135.785527825355,"url":"","register":"○","establishment":"農学部門衛所","setsumei":"24時間使用可能","holiday":"年中無休"},{"ward":"左京","wardcode":13,"name":"京都大学（数理解析研究所１階）","latitude":35.0302818915911,"longitude":135.785798728466,"url":"","register":"○","establishment":"数理解析研究所１階","setsumei":"24時間使用可能","holiday":"年中無休"},{"ward":"左京","wardcode":13,"name":"京都大学（北部グランド更衣室前）","latitude":35.0316567785946,"longitude":135.787209570407,"url":"","register":"○","establishment":"北部グランド更衣室前","setsumei":"24時間使用可能","holiday":"年中無休"},{"ward":"左京","wardcode":13,"name":"京都大学（農業・生命科学研究棟１階）","latitude":35.0312043422936,"longitude":135.784849226474,"url":"","register":"○","establishment":"農業・生命科学研究棟１階","setsumei":"24時間使用可能","holiday":"年中無休"},{"ward":"左京","wardcode":13,"name":"京都大学（理学研究科５号館）","latitude":35.0315469641886,"longitude":135.78385412693,"url":"","register":"○","establishment":"理学研究科５号館","setsumei":"24時間使用可能","holiday":"年中無休"},{"ward":"左京","wardcode":13,"name":"京都大学（農学部総合館1階玄関ホール）","latitude":35.0301808606435,"longitude":135.784267187118,"url":"","register":"○","establishment":"農学部総合館1階玄関ホール","setsumei":"24時間使用可能","holiday":"年中無休"},{"ward":"左京","wardcode":13,"name":"京都大学（農学部総合館1階Ｗ100講義室前）","latitude":35.0304488120135,"longitude":135.783816576004,"url":"","register":"○","establishment":"農学部総合館1階Ｗ100講義室前","setsumei":"24時間使用可能","holiday":"年中無休"},{"ward":"左京","wardcode":13,"name":"京都大学（理学研究科３号館）","latitude":35.0301149708278,"longitude":135.783162117004,"url":"","register":"○","establishment":"理学研究科３号館","setsumei":"24時間使用可能","holiday":"年中無休"},{"ward":"左京","wardcode":13,"name":"京都大学（理学研究科６号館・北側玄関ホール）","latitude":35.0297986989729,"longitude":135.783060193061,"url":"","register":"○","establishment":"理学研究科６号館・北側玄関ホール","setsumei":"24時間使用可能","holiday":"年中無休"},{"ward":"左京","wardcode":13,"name":"京都大学（理学研究科６号館・南側廊下）","latitude":35.029398964739,"longitude":135.782979726791,"url":"","register":"○","establishment":"理学研究科６号館・南側廊下","setsumei":"24時間使用可能","holiday":"年中無休"},{"ward":"左京","wardcode":13,"name":"京都大学（理学研究科２号館）","latitude":35.0288366978924,"longitude":135.782926082611,"url":"","register":"○","establishment":"理学研究科２号館","setsumei":"24時間使用可能","holiday":"年中無休"},{"ward":"左京","wardcode":13,"name":"京都大学（北部学生食堂）","latitude":35.0298338403506,"longitude":135.784041881561,"url":"","register":"○","establishment":"北部学生食堂","setsumei":"24時間使用可能","holiday":"年中無休"},{"ward":"左京","wardcode":13,"name":"京都大学（理学研究科1号館）","latitude":35.0292056859467,"longitude":135.783446431159,"url":"","register":"○","establishment":"理学研究科1号館","setsumei":"24時間使用可能","holiday":"年中無休"},{"ward":"左京","wardcode":13,"name":"京都大学（工学部10号館）","latitude":35.0276242968431,"longitude":135.783746838569,"url":"","register":"○","establishment":"工学部10号館","setsumei":"24時間使用可能","holiday":"年中無休"},{"ward":"左京","wardcode":13,"name":"京都大学（工学部3号館北側）","latitude":35.0275408337904,"longitude":135.782620310783,"url":"","register":"○","establishment":"工学部3号館北側","setsumei":"24時間使用可能","holiday":"年中無休"},{"ward":"左京","wardcode":13,"name":"京都大学（工学部３号館西側）","latitude":35.0270971603431,"longitude":135.782319903373,"url":"","register":"○","establishment":"工学部３号館西側","setsumei":"24時間使用可能","holiday":"年中無休"},{"ward":"左京","wardcode":13,"name":"京都大学（工学部物理系校舎）","latitude":35.026319627801,"longitude":135.782749056816,"url":"","register":"○","establishment":"工学部物理系校舎","setsumei":"24時間使用可能","holiday":"年中無休"},{"ward":"左京","wardcode":13,"name":"京都大学（工学部８号館）","latitude":35.026842376483,"longitude":135.781933665275,"url":"","register":"○","establishment":"工学部８号館","setsumei":"24時間使用可能","holiday":"年中無休"},{"ward":"左京","wardcode":13,"name":"京都大学（中央食堂）","latitude":35.0268160194866,"longitude":135.781740546226,"url":"","register":"○","establishment":"中央食堂","setsumei":"24時間使用可能","holiday":"年中無休"},{"ward":"左京","wardcode":13,"name":"京都大学（工学部総合校舎）","latitude":35.0257002321786,"longitude":135.781971216201,"url":"","register":"○","establishment":"工学部総合校舎","setsumei":"24時間使用可能","holiday":"年中無休"},{"ward":"左京","wardcode":13,"name":"京都大学（百周年時計台記念館）","latitude":35.0260384842703,"longitude":135.780844688415,"url":"","register":"○","establishment":"百周年時計台記念館","setsumei":"24時間使用可能","holiday":"年中無休"},{"ward":"左京","wardcode":13,"name":"京都大学（保健管理センター）","latitude":35.0254103007002,"longitude":135.780227780342,"url":"","register":"○","establishment":"保健管理センター","setsumei":"24時間使用可能","holiday":"年中無休"},{"ward":"左京","wardcode":13,"name":"京都大学（総合研究４号館）","latitude":35.0281646082276,"longitude":135.782631039619,"url":"","register":"○","establishment":"総合研究４号館","setsumei":"24時間使用可能","holiday":"年中無休"},{"ward":"左京","wardcode":13,"name":"京都大学（総合研究２号館北玄関）","latitude":35.0284193879665,"longitude":135.780866146087,"url":"","register":"○","establishment":"総合研究２号館北玄関","setsumei":"24時間使用可能","holiday":"年中無休"},{"ward":"左京","wardcode":13,"name":"京都大学（総合研究２号館南玄関）","latitude":35.0277604732197,"longitude":135.780662298202,"url":"","register":"○","establishment":"総合研究２号館南玄関","setsumei":"24時間使用可能","holiday":"年中無休"},{"ward":"左京","wardcode":13,"name":"京都大学（法経済学部東館）","latitude":35.0270356608634,"longitude":135.781139731407,"url":"","register":"○","establishment":"法経済学部東館","setsumei":"24時間使用可能","holiday":"年中無休"},{"ward":"左京","wardcode":13,"name":"京都大学（総合研究１号館）","latitude":35.0280591818964,"longitude":135.779862999916,"url":"","register":"○","establishment":"総合研究１号館","setsumei":"24時間使用可能","holiday":"年中無休"},{"ward":"左京","wardcode":13,"name":"京都大学（教育学部本館）","latitude":35.0270136967523,"longitude":135.779766440391,"url":"","register":"○","establishment":"教育学部本館","setsumei":"24時間使用可能","holiday":"年中無休"},{"ward":"左京","wardcode":13,"name":"京都大学（総合体育館2階ラウンジ）","latitude":35.0275671905531,"longitude":135.778087377548,"url":"","register":"○","establishment":"総合体育館2階ラウンジ","setsumei":"24時間使用可能","holiday":"年中無休"},{"ward":"左京","wardcode":13,"name":"京都大学（総合体育館地下武道場前）","latitude":35.0276594391555,"longitude":135.777910351753,"url":"","register":"○","establishment":"総合体育館地下武道場前","setsumei":"24時間使用可能","holiday":"年中無休"},{"ward":"左京","wardcode":13,"name":"京都大学（西部食堂）","latitude":35.0271630525915,"longitude":135.778505802154,"url":"","register":"○","establishment":"西部食堂","setsumei":"24時間使用可能","holiday":"年中無休"},{"ward":"左京","wardcode":13,"name":"京都大学（附属図書館）","latitude":35.0264821634636,"longitude":135.779841542243,"url":"","register":"○","establishment":"附属図書館","setsumei":"24時間使用可能","holiday":"年中無休"},{"ward":"左京","wardcode":13,"name":"京都大学（本部棟）","latitude":35.0259154836716,"longitude":135.779160261154,"url":"","register":"○","establishment":"本部棟","setsumei":"24時間使用可能","holiday":"年中無休"},{"ward":"左京","wardcode":13,"name":"京都大学（i  CeMS本館）","latitude":35.025599195568,"longitude":135.778403878211,"url":"","register":"○","establishment":"i  CeMS本館","setsumei":"24時間使用可能","holiday":"年中無休"},{"ward":"左京","wardcode":13,"name":"京都大学（芝蘭会館）","latitude":35.0244416585323,"longitude":135.777693092823,"url":"","register":"○","establishment":"芝蘭会館","setsumei":"24時間使用可能","holiday":"年中無休"},{"ward":"左京","wardcode":13,"name":"京都大学（ＲＩ教育訓練棟）","latitude":35.0229480381391,"longitude":135.778248310089,"url":"","register":"○","establishment":"ＲＩ教育訓練棟","setsumei":"24時間使用可能","holiday":"年中無休"},{"ward":"左京","wardcode":13,"name":"京都大学（医学部学生会館１階）","latitude":35.0242911994786,"longitude":135.777121782302,"url":"","register":"○","establishment":"医学部学生会館１階","setsumei":"24時間使用可能","holiday":"年中無休"},{"ward":"左京","wardcode":13,"name":"京都大学（医学・生命科学総合研究棟）","latitude":35.0238365259112,"longitude":135.777121782302,"url":"","register":"○","establishment":"医学・生命科学総合研究棟","setsumei":"24時間使用可能","holiday":"年中無休"},{"ward":"左京","wardcode":13,"name":"京都大学（医学研究科管理棟）","latitude":35.0228711598804,"longitude":135.777153968811,"url":"","register":"○","establishment":"医学研究科管理棟","setsumei":"24時間使用可能","holiday":"年中無休"},{"ward":"左京","wardcode":13,"name":"京都大学（表門衛所）","latitude":35.0220123149907,"longitude":135.777221024036,"url":"","register":"○","establishment":"表門衛所","setsumei":"24時間使用可能","holiday":"年中無休"},{"ward":"左京","wardcode":13,"name":"京都大学（吉田南総合館北棟）","latitude":35.0245778402107,"longitude":135.780528187751,"url":"","register":"○","establishment":"吉田南総合館北棟","setsumei":"24時間使用可能","holiday":"年中無休"},{"ward":"左京","wardcode":13,"name":"京都大学（吉田南１号館）","latitude":35.0249710086223,"longitude":135.780125856399,"url":"","register":"○","establishment":"吉田南１号館","setsumei":"24時間使用可能","holiday":"年中無休"},{"ward":"左京","wardcode":13,"name":"京都大学（南総合館西棟）","latitude":35.0241758839581,"longitude":135.780077576637,"url":"","register":"○","establishment":"南総合館西棟","setsumei":"24時間使用可能","holiday":"年中無休"},{"ward":"左京","wardcode":13,"name":"京都大学（吉田南４号館）","latitude":35.0227239927266,"longitude":135.780699849128,"url":"","register":"○","establishment":"吉田南４号館","setsumei":"24時間使用可能","holiday":"年中無休"},{"ward":"左京","wardcode":13,"name":"京都大学（吉田食堂）","latitude":35.0238222486809,"longitude":135.779111981391,"url":"","register":"○","establishment":"吉田食堂","setsumei":"24時間使用可能","holiday":"年中無休"},{"ward":"左京","wardcode":13,"name":"京都大学（人間環境学研究科校舎）","latitude":35.0233565899578,"longitude":135.779313147068,"url":"","register":"○","establishment":"人間環境学研究科校舎","setsumei":"24時間使用可能","holiday":"年中無休"},{"ward":"左京","wardcode":13,"name":"京都大学（楽友会館）","latitude":35.0219837598905,"longitude":135.779283642768,"url":"","register":"○","establishment":"楽友会館","setsumei":"24時間使用可能","holiday":"年中無休"},{"ward":"左京","wardcode":13,"name":"京都大学（薬学部本館）","latitude":35.0213643314173,"longitude":135.77552050352,"url":"","register":"○","establishment":"薬学部本館","setsumei":"24時間使用可能","holiday":"年中無休"},{"ward":"左京","wardcode":13,"name":"京都大学（学内共同研究センター　共同研究棟）","latitude":35.0213775107954,"longitude":135.773001909255,"url":"","register":"○","establishment":"学内共同研究センター　共同研究棟","setsumei":"24時間使用可能","holiday":"年中無休"},{"ward":"左京","wardcode":13,"name":"稲盛財団記念館","latitude":35.0211951958767,"longitude":135.772476196289,"url":"","register":"○","establishment":"稲盛財団記念館","setsumei":"24時間使用可能","holiday":"年中無休"},{"ward":"左京","wardcode":13,"name":"京都大学附属病院（北病棟　２階廊下）","latitude":35.0208217785092,"longitude":135.777280032634,"url":"","register":"○","establishment":"北病棟　２階廊下","setsumei":"24時間使用可能","holiday":"年中無休"},{"ward":"左京","wardcode":13,"name":"京都大学附属病院（北病棟　８階廊下）","latitude":35.0208217785092,"longitude":135.777280032634,"url":"","register":"○","establishment":"北病棟　８階廊下","setsumei":"24時間使用可能","holiday":"年中無休"},{"ward":"左京","wardcode":13,"name":"京都大学附属病院（第二臨床研究棟，中央診療施設棟　３階廊下）","latitude":35.0204593423745,"longitude":135.777435600757,"url":"","register":"○","establishment":"第二臨床研究棟，中央診療施設棟　３階廊下","setsumei":"24時間使用可能","holiday":"年中無休"},{"ward":"左京","wardcode":13,"name":"京都大学附属病院（南病棟　５階廊下）","latitude":35.0204791116596,"longitude":135.776826739311,"url":"","register":"○","establishment":"南病棟　５階廊下","setsumei":"24時間使用可能","holiday":"年中無休"},{"ward":"左京","wardcode":13,"name":"京都大学附属病院（南病棟　７階廊下）","latitude":35.0204791116596,"longitude":135.776826739311,"url":"","register":"○","establishment":"南病棟　７階廊下","setsumei":"24時間使用可能","holiday":"年中無休"},{"ward":"左京","wardcode":13,"name":"京都大学附属病院（南病棟　８階廊下）","latitude":35.0204791116596,"longitude":135.776826739311,"url":"","register":"○","establishment":"南病棟　８階廊下","setsumei":"24時間使用可能","holiday":"年中無休"},{"ward":"左京","wardcode":13,"name":"京都大学附属病院（外来病棟）","latitude":35.0196531907869,"longitude":135.777786970138,"url":"","register":"○","establishment":"外来病棟","setsumei":"24時間使用可能","holiday":"年中無休"},{"ward":"左京","wardcode":13,"name":"京都大学附属病院（ＲＩ診療棟）","latitude":35.0201320501815,"longitude":135.776282250881,"url":"","register":"○","establishment":"ＲＩ診療棟","setsumei":"24時間使用可能","holiday":"年中無休"},{"ward":"左京","wardcode":13,"name":"京都大学附属病院（積貞棟）","latitude":35.0196224382529,"longitude":135.776520967483,"url":"","register":"○","establishment":"積貞棟","setsumei":"24時間使用可能","holiday":"年中無休"},{"ward":"左京","wardcode":13,"name":"京都大学（特別高圧受変電設備棟）","latitude":35.0197959702576,"longitude":135.77555000782,"url":"","register":"○","establishment":"特別高圧受変電設備棟","setsumei":"24時間使用可能","holiday":"年中無休"},{"ward":"左京","wardcode":13,"name":"京都大学（医学部人間・健康科学科　南棟）","latitude":35.018877784077,"longitude":135.775394439697,"url":"","register":"○","establishment":"医学部人間・健康科学科　南棟","setsumei":"24時間使用可能","holiday":"年中無休"},{"ward":"左京","wardcode":13,"name":"京都大学（ｉｐｓ細胞研究所）","latitude":35.0198420989564,"longitude":135.77416062355,"url":"","register":"○","establishment":"ｉｐｓ細胞研究所","setsumei":"24時間使用可能","holiday":"年中無休"},{"ward":"左京","wardcode":13,"name":"京都大学（南部総合研究実験棟）","latitude":35.0193324852207,"longitude":135.773956775665,"url":"","register":"○","establishment":"南部総合研究実験棟","setsumei":"24時間使用可能","holiday":"年中無休"},{"ward":"左京","wardcode":13,"name":"京都大学附属病院（精神科病棟）","latitude":35.0202001446383,"longitude":135.772604942321,"url":"","register":"○","establishment":"精神科病棟","setsumei":"24時間使用可能","holiday":"年中無休"},{"ward":"左京","wardcode":13,"name":"京都大学（再生研西館・南西病棟）","latitude":35.0190315480317,"longitude":135.772950947284,"url":"","register":"○","establishment":"再生研西館・南西病棟","setsumei":"24時間使用可能","holiday":"年中無休"},{"ward":"左京","wardcode":13,"name":"株式会社　イシダ","latitude":35.0168744329857,"longitude":135.77813565731,"url":"http://www.ishida.co.jp/","register":"○","establishment":"３階総務人事部フロア内","setsumei":"","holiday":""},{"ward":"左京","wardcode":13,"name":"財団法人　国立京都国際会館","latitude":35.0614593446151,"longitude":135.782572031021,"url":"http://www.icckyoto.or.jp","register":"○","establishment":"正面玄関","setsumei":"","holiday":""},{"ward":"左京","wardcode":13,"name":"国際会館（アネックスホール玄関）","latitude":35.0614681265566,"longitude":135.782078504562,"url":"http://www.icckyoto.or.jp","register":"○","establishment":"アネックスホール玄関","setsumei":"","holiday":""},{"ward":"左京","wardcode":13,"name":"国際会館（医務室前）","latitude":35.0613715251484,"longitude":135.783698558807,"url":"http://www.icckyoto.or.jp","register":"○","establishment":"医務室前","setsumei":"","holiday":""},{"ward":"左京","wardcode":13,"name":"国際会館（イベントホール玄関）","latitude":35.0621092057325,"longitude":135.784127712249,"url":"http://www.icckyoto.or.jp","register":"○","establishment":"イベントホール玄関","setsumei":"","holiday":""},{"ward":"左京","wardcode":13,"name":"国際会館（メインホール前）","latitude":35.0604845432397,"longitude":135.783419609069,"url":"http://www.icckyoto.or.jp","register":"○","establishment":"メインホール前","setsumei":"","holiday":""},{"ward":"左京","wardcode":13,"name":"社会福祉法人　市原寮","latitude":35.0905838485919,"longitude":135.761666893959,"url":"http://www.itihara.or.jp","register":"○","establishment":"事務室","setsumei":"24時間使用可能","holiday":"年中無休"},{"ward":"左京","wardcode":13,"name":"平安神宮","latitude":35.0154597563782,"longitude":135.782126784324,"url":"http://www.heianjingu.or.jp","register":"○","establishment":"衛士室","setsumei":"","holiday":""},{"ward":"左京","wardcode":13,"name":"平安神宮（平安神宮会館）","latitude":35.0151873624204,"longitude":135.783864855766,"url":"http://www.heianjingu.or.jp","register":"○","establishment":"平安神宮会館","setsumei":"","holiday":""},{"ward":"左京","wardcode":13,"name":"京都府立大学","latitude":35.0470271431714,"longitude":135.767251253128,"url":"http://www.kpu.ac.jp","register":"○","establishment":"正門保安室","setsumei":"24時間使用可能","holiday":"年中無休"},{"ward":"左京","wardcode":13,"name":"京都府立大学（体育館）","latitude":35.0465682043144,"longitude":135.764992833137,"url":"http://www.kpu.ac.jp","register":"○","establishment":"第一体育館東側出入口","setsumei":"24時間使用可能","holiday":"年中無休"},{"ward":"左京","wardcode":13,"name":"京阪電気鉄道株式会社京都エリア出町柳駅","latitude":35.0302335724578,"longitude":135.772808790206,"url":"","register":"○","establishment":"改札口内","setsumei":"","holiday":""},{"ward":"左京","wardcode":13,"name":"グランドプリンスホテル京都","latitude":35.0628600523389,"longitude":135.781188011169,"url":"http://www.princehotels.co.jp/kyoto/","register":"○","establishment":"フロントカウンター","setsumei":"24時間使用可能","holiday":"年中無休"},{"ward":"左京","wardcode":13,"name":"京都産業大学　葵寮","latitude":35.0442580997182,"longitude":135.763721466064,"url":"http://www.kyoto-su.ac.jp/sd/","register":"○","establishment":"寮内ロビー","setsumei":"","holiday":""},{"ward":"左京","wardcode":13,"name":"ノートルダム女学院中学高等学校","latitude":35.0192512103226,"longitude":135.796444416046,"url":"http://www.notredame-jogakuin.ed.jp/","register":"○","establishment":"保健室","setsumei":"","holiday":""},{"ward":"左京","wardcode":13,"name":"ノートルダム女学院中学高等学校（職員室前）","latitude":35.0196575840051,"longitude":135.796854794025,"url":"http://www.notredame-jogakuin.ed.jp/","register":"○","establishment":"職員室前","setsumei":"","holiday":""},{"ward":"左京","wardcode":13,"name":"ノートルダム女学院中学高等学校（体育館前）","latitude":35.0185746485764,"longitude":135.796272754669,"url":"http://www.notredame-jogakuin.ed.jp/","register":"○","establishment":"体育館前","setsumei":"","holiday":""},{"ward":"左京","wardcode":13,"name":"白河総合支援学校","latitude":35.0205713682604,"longitude":135.7845890522,"url":"","register":"○","establishment":"","setsumei":"","holiday":""},{"ward":"左京","wardcode":13,"name":"障害者スポーツセンター","latitude":35.0454636662558,"longitude":135.783534944057,"url":"","register":"○","establishment":"事務所","setsumei":"","holiday":""},{"ward":"左京","wardcode":13,"name":"近衛中学校","latitude":35.021729,"longitude":135.779825,"url":"","register":"○","establishment":"","setsumei":"","holiday":""},{"ward":"左京","wardcode":13,"name":"京都会館","latitude":35.014403126363,"longitude":135.78064084053,"url":"http://www.kyoto-ongeibun.jp/","register":"○","establishment":"","setsumei":"","holiday":""},{"ward":"左京","wardcode":13,"name":"京都コンサートホール","latitude":35.0499344279843,"longitude":135.766966938972,"url":"http://www.kyoto-ongeibun.jp/kyotoconcerthall/","register":"○","establishment":"1階事務所","setsumei":"","holiday":""},{"ward":"左京","wardcode":13,"name":"京都コンサートホール（４階ムラタホールクローク）","latitude":35.0499443090629,"longitude":135.766514986753,"url":"http://www.kyoto-ongeibun.jp/kyotoconcerthall/","register":"○","establishment":"４階ムラタホールクローク","setsumei":"","holiday":""},{"ward":"左京","wardcode":13,"name":"京都市国際交流会館","latitude":35.0104906206948,"longitude":135.787577033042,"url":"http://www.kcif.or.jp","register":"○","establishment":"１階ラウンジ","setsumei":"","holiday":""},{"ward":"左京","wardcode":13,"name":"京都市勧業館みやこめっせ","latitude":35.0130784752714,"longitude":135.78129529953,"url":"http://www.miyakomesse.jp/","register":"○","establishment":"１階ロビー総合案内所","setsumei":"","holiday":""},{"ward":"左京","wardcode":13,"name":"京都市美術館","latitude":35.0127445631528,"longitude":135.783349871635,"url":"http://www.city.kyoto.jp/bunshi/kmma/","register":"○","establishment":"本館１階　西ロビー","setsumei":"","holiday":""},{"ward":"左京","wardcode":13,"name":"京都市動物園","latitude":35.0130081780965,"longitude":135.784986019134,"url":"http://www5.city.kyoto.jp/zoo/","register":"○","establishment":"動物図書館玄関","setsumei":"","holiday":""},{"ward":"左京","wardcode":13,"name":"京都市野外活動施設　花背山の家","latitude":35.1723437415552,"longitude":135.785656571388,"url":"http://web.kyoto-inet.or.jp/org/hanasell/","register":"○","establishment":"本館１階事務室","setsumei":"","holiday":""},{"ward":"左京","wardcode":13,"name":"花背山の家","latitude":35.1723437415552,"longitude":135.785656571388,"url":"http://web.kyoto-inet.or.jp/org/hanasell/","register":"○","establishment":"スポーツゾーン管理棟","setsumei":"","holiday":""},{"ward":"左京","wardcode":13,"name":"左京区役所","latitude":35.0483161107631,"longitude":135.778540670871,"url":"http://www.city.kyoto.lg.jp/sakyo/index.html","register":"○","establishment":"１階","setsumei":"","holiday":""},{"ward":"左京","wardcode":13,"name":"左京保健センター","latitude":35.0485444776873,"longitude":135.778417289257,"url":"","register":"○","establishment":"庁内","setsumei":"開庁時間内","holiday":""},{"ward":"左京","wardcode":13,"name":"上高野小学校","latitude":35.06129806,"longitude":135.7952711,"url":"","register":"○","establishment":"","setsumei":"","holiday":""},{"ward":"左京","wardcode":13,"name":"京都市営地下鉄　国際会館駅","latitude":35.0631893688473,"longitude":135.785232782363,"url":"http://www.city.kyoto.jp/kotsu/","register":"○","establishment":"改札口内","setsumei":"","holiday":""},{"ward":"左京","wardcode":13,"name":"京都市営地下鉄　松ヶ崎駅","latitude":35.0516405431681,"longitude":135.777626037597,"url":"http://www.city.kyoto.jp/kotsu/","register":"○","establishment":"改札口内","setsumei":"","holiday":""},{"ward":"左京","wardcode":13,"name":"岡崎公園（管理事務所２階）","latitude":35.014668932704,"longitude":135.784138441085,"url":"","register":"○","establishment":"管理事務所（075-771-0297）","setsumei":"","holiday":""},{"ward":"左京","wardcode":13,"name":"宝が池公園運動施設（球技場）","latitude":35.0545432724236,"longitude":135.774576365947,"url":"","register":"○","establishment":"管理事務所（075-701-6366）","setsumei":"","holiday":""},{"ward":"左京","wardcode":13,"name":"武道センター","latitude":35.01702,"longitude":135.78086,"url":"","register":"○","establishment":"管理事務所（075-751-1255）","setsumei":"","holiday":""},{"ward":"左京","wardcode":13,"name":"岩倉東公園","latitude":35.0688182802626,"longitude":135.786796510219,"url":"","register":"○","establishment":"管理事務所（075-724-0204）","setsumei":"","holiday":""},{"ward":"左京","wardcode":13,"name":"株式会社　影近メンテ","latitude":35.0286104722496,"longitude":135.785672664642,"url":"http://www.kagechika-m.co.jp/","register":"○","establishment":"１階ショールーム","setsumei":"","holiday":""},{"ward":"左京","wardcode":13,"name":"影近設備工業株式会社","latitude":35.0257968757762,"longitude":135.773758292198,"url":"http://www.kagechika-m.co.jp/","register":"○","establishment":"１階玄関","setsumei":"","holiday":""},{"ward":"左京","wardcode":13,"name":"京都中央信用金庫百万遍支店","latitude":35.0325177184248,"longitude":135.780412852764,"url":"http://www.chushin.co.jp/","register":"○","establishment":"営業室内","setsumei":"9:00～15:00","holiday":"土曜日・日曜日・祝日・１２／３１～１／３"},{"ward":"左京","wardcode":13,"name":"岩倉幼稚園","latitude":35.0861043388313,"longitude":135.78935265541,"url":"http://www.kyoshiyoh.com/data/401/index.html","register":"○","establishment":"園玄関","setsumei":"","holiday":""},{"ward":"左京","wardcode":13,"name":"永観堂幼稚園","latitude":35.0134321570156,"longitude":135.794754624366,"url":"http://www.eikando.ed.jp/","register":"○","establishment":"玄関前ボックス内","setsumei":"平日9時～17時","holiday":""},{"ward":"左京","wardcode":13,"name":"鴨東幼稚園","latitude":35.0369782078822,"longitude":135.786646306514,"url":"http://www.oto.ed.jp/","register":"○","establishment":"礼拝堂玄関ホール","setsumei":"平日8時～18時","holiday":""},{"ward":"左京","wardcode":13,"name":"コドモのイエ幼稚園","latitude":35.0245712507798,"longitude":135.789572596549,"url":"http://www.kodomonoie.school-info.jp/","register":"○","establishment":"園内","setsumei":"平日8:30～17:00","holiday":""},{"ward":"左京","wardcode":13,"name":"下鴨幼稚園","latitude":35.0416360957708,"longitude":135.766468048095,"url":"http://www.shimogamo-kindergarten.jp/","register":"○","establishment":"１階廊下　職員用玄関入口付近","setsumei":"","holiday":""},{"ward":"左京","wardcode":13,"name":"学校法人雲母学園　洛北せいか幼稚園","latitude":35.0688534048561,"longitude":135.794403254985,"url":"http://www.kirara-seika.ed.jp","register":"○","establishment":"門","setsumei":"","holiday":""},{"ward":"左京","wardcode":13,"name":"聖光幼稚園","latitude":35.0536584120319,"longitude":135.788950324058,"url":"http://www.seiko-kindergarten.org/","register":"○","establishment":"エントランスホール","setsumei":"","holiday":""},{"ward":"左京","wardcode":13,"name":"聖マリア幼稚園","latitude":35.0169688903348,"longitude":135.784524679183,"url":"http://nskk.org/kyoto/stmaria/kdg/","register":"○","establishment":"玄関","setsumei":"","holiday":""},{"ward":"左京","wardcode":13,"name":"学校法人　ふたば幼稚園","latitude":35.0412166551711,"longitude":135.788534581661,"url":"","register":"○","establishment":"１階出入口","setsumei":"","holiday":""},{"ward":"左京","wardcode":13,"name":"学校法人　マクリン幼稚園","latitude":35.0406830182067,"longitude":135.77162861824,"url":"http://www.ans.co.jp/k/makurin/","register":"○","establishment":"本館１階","setsumei":"","holiday":""},{"ward":"左京","wardcode":13,"name":"学校法人　吉田学園　吉田幼稚園","latitude":35.0246085908809,"longitude":135.784296691417,"url":"http://www.yoshida-kindergarten.jp","register":"○","establishment":"エントランス","setsumei":"","holiday":""},{"ward":"左京","wardcode":13,"name":"ノートルダム学院小学校","latitude":35.0509115510797,"longitude":135.772368907928,"url":"","register":"○","establishment":"事務所横，保健室","setsumei":"","holiday":""},{"ward":"左京","wardcode":13,"name":"京都精華女子中学高等学校","latitude":35.0246041979287,"longitude":135.77250033617,"url":"http://www.k-seika-girl.ed.jp/","register":"○","establishment":"受付","setsumei":"","holiday":""},{"ward":"左京","wardcode":13,"name":"京都精華女子中学高等学校　（中学教員室前）","latitude":35.0249512404232,"longitude":135.773554444313,"url":"http://www.k-seika-girl.ed.jp/","register":"○","establishment":"教員室前","setsumei":"","holiday":""},{"ward":"左京","wardcode":13,"name":"ホテル　平安の森京都","latitude":35.0168612528818,"longitude":135.789121985435,"url":"http://www.heiannomori.co.jp","register":"○","establishment":"フロント前ロビー","setsumei":"24時間使用可能","holiday":"年中無休"},{"ward":"左京","wardcode":13,"name":"カナート洛北","latitude":35.0410453646735,"longitude":135.778715014457,"url":"http://www.izumiya.co.jp/shop/kansai/kyoto/097_info.php","register":"○","establishment":"１階　インフォメーション","setsumei":"","holiday":""},{"ward":"左京","wardcode":13,"name":"総本山永観堂禅林寺","latitude":35.0142449601965,"longitude":135.795218646526,"url":"http://www.eikando.or.jp","register":"○","establishment":"堂内拝観入口","setsumei":"24時間使用可能","holiday":"年中無休"},{"ward":"左京","wardcode":13,"name":"京都国立近代美術館","latitude":35.0123776976086,"longitude":135.782268941402,"url":"http://www.momak.go.jp/","register":"○","establishment":"１階入口受付カウンター","setsumei":"","holiday":""},{"ward":"左京","wardcode":13,"name":"岩倉こひつじ保育園","latitude":35.0665439306528,"longitude":135.791412591934,"url":"http://www.megumikai.kyoto.jp/","register":"○","establishment":"園内","setsumei":"月～土 7:30～18:30","holiday":"休園日，日祝日，年末年始，年度末，夏季"},{"ward":"左京","wardcode":13,"name":"左京消防署（署配置）","latitude":35.0363523045488,"longitude":135.781069993972,"url":"http://www.city.kyoto.lg.jp/shobo/soshiki/25-9-0-0-0_9.html","register":"○","establishment":"２階事務所","setsumei":"24時間使用可能","holiday":"年中無休"},{"ward":"左京","wardcode":13,"name":"京都中央信用金庫岩倉支店","latitude":35.0737794793742,"longitude":135.78706741333,"url":"http://www.chushin.co.jp/","register":"○","establishment":"営業室内","setsumei":"9:00～15:00","holiday":"土曜日・日曜日・祝日・１２／３１～１／３"},{"ward":"左京","wardcode":13,"name":"ワタベウェディング株式会社桜鶴苑","latitude":35.0122788413422,"longitude":135.790747404098,"url":"","register":"○","establishment":"桜鶴苑内","setsumei":"","holiday":""},{"ward":"左京","wardcode":13,"name":"医療法人稲門会　介護老人保健施設　フェアウインドきの","latitude":35.0697820058161,"longitude":135.774200856685,"url":"http://www.toumonkai.net/kaigo/kino.html","register":"○","establishment":"２階サービスステーション内","setsumei":"24時間使用可能","holiday":"年中無休"},{"ward":"左京","wardcode":13,"name":"アピカルイン京都","latitude":35.051737156089,"longitude":135.78889131546,"url":"http://www.apical-inn-kyoto.com","register":"○","establishment":"フロントロビー","setsumei":"24時間使用可能","holiday":"年中無休"},{"ward":"左京","wardcode":13,"name":"社団法人　京都市公認水道協会","latitude":35.0119625004868,"longitude":135.779562592506,"url":"http://www.suikyo.or.jp/","register":"○","establishment":"２Ｆ事務所受付","setsumei":"","holiday":""},{"ward":"左京","wardcode":13,"name":"イオンリテール株式会社　イオン東山二条店","latitude":35.0137924275303,"longitude":135.776451230049,"url":"","register":"○","establishment":"１階食品売場東入口横","setsumei":"","holiday":""},{"ward":"左京","wardcode":13,"name":"エクシブ京都八瀬離宮","latitude":35.0650993783985,"longitude":135.806846022605,"url":"http://reserve.resort.co.jp/hotels/xiv/kyouto/index.html","register":"○","establishment":"ロビー３階","setsumei":"24時間使用可能","holiday":"年中無休"},{"ward":"左京","wardcode":13,"name":"医療法人　陽光会やまぐち医院","latitude":35.0746399752523,"longitude":135.78722834587,"url":"","register":"○","establishment":"診察室","setsumei":"","holiday":""},{"ward":"左京","wardcode":13,"name":"花友はなせ","latitude":35.1760182876013,"longitude":135.784090161323,"url":"http://www.itihara.or.jp","register":"○","establishment":"診療所内","setsumei":"24時間使用可能","holiday":"年中無休"},{"ward":"左京","wardcode":13,"name":"トヨタカローラ京都株式会社　北白川店","latitude":35.0383639627664,"longitude":135.791493058204,"url":"http://www.corolla-kyoto.com/","register":"○","establishment":"ショールーム","setsumei":"","holiday":""},{"ward":"左京","wardcode":13,"name":"特別養護老人ホーム　洛翠園（１階エレベーター前）","latitude":35.0883496113709,"longitude":135.78159302473,"url":"","register":"○","establishment":"１階エレベーター前","setsumei":"24時間使用可能","holiday":"年中無休"},{"ward":"左京","wardcode":13,"name":"特別養護老人ホーム　洛翠園（１階デイサービス）","latitude":35.0883605851807,"longitude":135.78167617321,"url":"","register":"○","establishment":"１階デイサービス","setsumei":"24時間使用可能","holiday":"年中無休"},{"ward":"左京","wardcode":13,"name":"特別養護老人ホーム　洛翠園（２階診察室）","latitude":35.0885098288473,"longitude":135.781635940074,"url":"","register":"○","establishment":"２階診察室","setsumei":"24時間使用可能","holiday":"年中無休"},{"ward":"左京","wardcode":13,"name":"平塚薬局","latitude":35.0174170120858,"longitude":135.772481560707,"url":"http://www.e-classa.net/hiratsuka/index.html","register":"○","establishment":"店舗内","setsumei":"","holiday":""},{"ward":"左京","wardcode":13,"name":"平塚薬局岩倉","latitude":35.0658436113998,"longitude":135.793008506298,"url":"http://www.e-classa.net/hiratsuka/index.html","register":"○","establishment":"店舗内","setsumei":"","holiday":""},{"ward":"左京","wardcode":13,"name":"平塚薬局高野","latitude":35.0407357232472,"longitude":135.784693658351,"url":"http://www.e-classa.net/hiratsuka/index.html","register":"○","establishment":"店舗内","setsumei":"","holiday":""},{"ward":"左京","wardcode":13,"name":"デマッセ ネオ 田中店","latitude":35.0347139524237,"longitude":135.781281888484,"url":"http://www.p-world.co.jp/kyoto/demasse.htm","register":"○","establishment":"","setsumei":"","holiday":""},{"ward":"左京","wardcode":13,"name":"社会福祉法人　岩蔵の郷　サテライト特養　ユニティ長谷","latitude":35.0809134183947,"longitude":135.790615975856,"url":"","register":"○","establishment":"","setsumei":"24時間使用可能","holiday":"年中無休"},{"ward":"左京","wardcode":13,"name":"川端警察署","latitude":35.014928147973,"longitude":135.778084695339,"url":"http://www.pref.kyoto.jp/fukei/site/policemap/kawabata/index.html","register":"○","establishment":"庁舎内","setsumei":"24時間使用可能","holiday":"年中無休"},{"ward":"左京","wardcode":13,"name":"下鴨警察署","latitude":35.0332820145521,"longitude":135.774664878845,"url":"http://www.pref.kyoto.jp/fukei/site/policemap/shimogamo/index.html","register":"○","establishment":"庁舎内","setsumei":"24時間使用可能","holiday":"年中無休"},{"ward":"左京","wardcode":13,"name":"川端警察署　岡崎公園交番","latitude":35.0134299602392,"longitude":135.782285034656,"url":"http://www.pref.kyoto.jp/fukei/site/policemap/kawabata/index.html","register":"○","establishment":"庁舎内","setsumei":"24時間使用可能","holiday":"年中無休"},{"ward":"左京","wardcode":13,"name":"川端警察署　南禅寺交番","latitude":35.0112858784389,"longitude":135.787928402423,"url":"http://www.pref.kyoto.jp/fukei/site/policemap/kawabata/index.html","register":"○","establishment":"庁舎内","setsumei":"24時間使用可能","holiday":"年中無休"},{"ward":"左京","wardcode":13,"name":"川端警察署　銀閣寺交番","latitude":35.0277319201273,"longitude":135.792764425277,"url":"http://www.pref.kyoto.jp/fukei/site/policemap/kawabata/index.html","register":"○","establishment":"庁舎内","setsumei":"24時間使用可能","holiday":"年中無休"},{"ward":"左京","wardcode":13,"name":"下鴨警察署　上高野交番","latitude":35.0607809367813,"longitude":135.791208744049,"url":"http://www.pref.kyoto.jp/fukei/site/policemap/shimogamo/index.html","register":"○","establishment":"庁舎内","setsumei":"24時間使用可能","holiday":"年中無休"},{"ward":"左京","wardcode":13,"name":"下鴨警察署　高野交番","latitude":35.0418227571253,"longitude":135.781000256538,"url":"http://www.pref.kyoto.jp/fukei/site/policemap/shimogamo/index.html","register":"○","establishment":"庁舎内","setsumei":"24時間使用可能","holiday":"年中無休"},{"ward":"左京","wardcode":13,"name":"下鴨警察署　加茂大橋交番","latitude":35.0290387629856,"longitude":135.772647857666,"url":"http://www.pref.kyoto.jp/fukei/site/policemap/shimogamo/index.html","register":"○","establishment":"庁舎内","setsumei":"24時間使用可能","holiday":"年中無休"},{"ward":"左京","wardcode":13,"name":"下鴨中学校","latitude":35.0384122770928,"longitude":135.775268375873,"url":"","register":"○","establishment":"","setsumei":"","holiday":""},{"ward":"左京","wardcode":13,"name":"泉屋博古館","latitude":35.0176608420069,"longitude":135.792858302593,"url":"http://www.sen-oku.or.jp","register":"○","establishment":"1階受付","setsumei":"","holiday":""},{"ward":"左京","wardcode":13,"name":"修学院中学校","latitude":35.042187294541,"longitude":135.788826942443,"url":"","register":"○","establishment":"","setsumei":"","holiday":""},{"ward":"左京","wardcode":13,"name":"高野中学校","latitude":35.0399473401338,"longitude":135.782977044582,"url":"","register":"○","establishment":"","setsumei":"","holiday":""},{"ward":"左京","wardcode":13,"name":"京都市左京合同福祉センター","latitude":35.0381048218012,"longitude":135.777845978736,"url":"","register":"○","establishment":"１階ロービー","setsumei":"24時間使用可能","holiday":"年中無休"},{"ward":"左京","wardcode":13,"name":"洛北中学校","latitude":35.070596443824,"longitude":135.787000358104,"url":"","register":"○","establishment":"","setsumei":"","holiday":""},{"ward":"左京","wardcode":13,"name":"明徳小学校","latitude":35.0754368039047,"longitude":135.786640942096,"url":"","register":"○","establishment":"","setsumei":"","holiday":""},{"ward":"左京","wardcode":13,"name":"市原野小学校","latitude":35.0899386036568,"longitude":135.764448344707,"url":"","register":"○","establishment":"","setsumei":"","holiday":""},{"ward":"左京","wardcode":13,"name":"静原小学校","latitude":35.1094341593649,"longitude":135.796739459037,"url":"","register":"○","establishment":"","setsumei":"","holiday":""},{"ward":"左京","wardcode":13,"name":"鞍馬小学校","latitude":35.1058509608636,"longitude":135.764665603637,"url":"","register":"○","establishment":"","setsumei":"","holiday":""},{"ward":"左京","wardcode":13,"name":"修学院小学校","latitude":35.0529711565269,"longitude":135.794167220592,"url":"","register":"○","establishment":"","setsumei":"","holiday":""},{"ward":"左京","wardcode":13,"name":"川島織物セルコン市原事業所","latitude":35.0863106518878,"longitude":135.758791565895,"url":"http://www.kawashimaselkon.co.jp","register":"○","establishment":"厚生棟２階","setsumei":"","holiday":""},{"ward":"左京","wardcode":13,"name":"京都大原記念病院","latitude":35.1036873611822,"longitude":135.821777880191,"url":"http://www.kyotoohara.jp/","register":"○","establishment":"1階言語療法室前","setsumei":"24時間使用可能","holiday":"年中無休"},{"ward":"左京","wardcode":13,"name":"大原ホーム","latitude":35.1045585131939,"longitude":135.822426974773,"url":"http://www.kyotoohara.jp/","register":"○","establishment":"1階正面玄関南側","setsumei":"24時間使用可能","holiday":"年中無休"},{"ward":"左京","wardcode":13,"name":"博寿苑","latitude":35.1044114932303,"longitude":135.821659862995,"url":"http://www.kyotoohara.jp/","register":"○","establishment":"1階","setsumei":"24時間使用可能","holiday":"年中無休"},{"ward":"左京","wardcode":13,"name":"博寿苑","latitude":35.1044114932303,"longitude":135.821659862995,"url":"http://www.kyotoohara.jp/","register":"○","establishment":"２階","setsumei":"24時間使用可能","holiday":"年中無休"},{"ward":"左京","wardcode":13,"name":"ガーデンミュージアム比叡","latitude":35.0645900468878,"longitude":135.828917920589,"url":"http://www.garden-museum-hiei.co.jp/","register":"○","establishment":"１階インフォメーション","setsumei":"24時間使用可能","holiday":"年中無休"},{"ward":"左京","wardcode":13,"name":"京都ノーザンチャーチ北山教会","latitude":35.0514561000016,"longitude":135.777309536933,"url":"http://www.northern-church.gr.jp/","register":"○","establishment":"1階事務所","setsumei":"","holiday":""},{"ward":"左京","wardcode":13,"name":"北山ル・アンジェ教会","latitude":35.051737156089,"longitude":135.775764584541,"url":"http://www.anges-kyoto.com/","register":"○","establishment":"1階事務所","setsumei":"","holiday":""},{"ward":"左京","wardcode":13,"name":"特別養護老人ホーム静原寮","latitude":35.106976624394,"longitude":135.783534944057,"url":"http://www.kyoto.zaq.ne.jp/shizuhararyo/","register":"○","establishment":"東館１階　事務所","setsumei":"24時間使用可能","holiday":"年中無休"},{"ward":"左京","wardcode":13,"name":"左京まち美化事務所","latitude":35.0396157338217,"longitude":135.777896940708,"url":"","register":"○","establishment":"事務所","setsumei":"24時間使用可能","holiday":"年中無休"},{"ward":"左京","wardcode":13,"name":"東北部クリーンセンター","latitude":35.089126553456,"longitude":135.753035545349,"url":"","register":"○","establishment":"事務所","setsumei":"24時間使用可能","holiday":"年中無休"},{"ward":"左京","wardcode":13,"name":"NTT吉田ビル","latitude":35.0216762427953,"longitude":135.779052972793,"url":"","register":"○","establishment":"駐車場内（AED搭載型自販機）","setsumei":"","holiday":""},{"ward":"左京","wardcode":13,"name":"ARS　LOCUS","latitude":35.0439067472881,"longitude":135.773353278636,"url":"http://www.arslocus.co.jp","register":"○","establishment":"","setsumei":"","holiday":""},{"ward":"左京","wardcode":13,"name":"岡崎幼児園","latitude":35.0147787697827,"longitude":135.779004693031,"url":"http://www12.ocn.ne.jp/~okazaki/","register":"○","establishment":"１F　事務所","setsumei":"","holiday":""},{"ward":"左京","wardcode":13,"name":"市原野保育園","latitude":35.0844296720531,"longitude":135.761876106262,"url":"http://www.ichiharano.com/","register":"○","establishment":"玄関ホール","setsumei":"","holiday":""},{"ward":"左京","wardcode":13,"name":"聖水保育園","latitude":35.0429976158616,"longitude":135.795333981513,"url":"","register":"○","establishment":"事務所","setsumei":"","holiday":""},{"ward":"左京","wardcode":13,"name":"高野保育園","latitude":35.040109848696,"longitude":135.782201886177,"url":"","register":"○","establishment":"給食室入口","setsumei":"","holiday":""},{"ward":"左京","wardcode":13,"name":"一乗寺保育園","latitude":35.0419479297948,"longitude":135.786434412002,"url":"","register":"○","establishment":"事務所","setsumei":"","holiday":""},{"ward":"左京","wardcode":13,"name":"メグミ幼児園","latitude":35.0294714441683,"longitude":135.77440470457,"url":"","register":"○","establishment":"園庭","setsumei":"","holiday":""},{"ward":"左京","wardcode":13,"name":"京都市修学院保育所","latitude":35.0507073442979,"longitude":135.793515443801,"url":"http://www.city.kyoto.lg.jp/hokenfukushi/page/0000085705.html","register":"○","establishment":"玄関内","setsumei":"","holiday":""},{"ward":"左京","wardcode":13,"name":"京都市養正児童館","latitude":35.0323376246186,"longitude":135.777690410614,"url":"","register":"○","establishment":"１階事務室","setsumei":"","holiday":""},{"ward":"左京","wardcode":13,"name":"京都市錦林保育所","latitude":35.0157442313574,"longitude":135.792945474386,"url":"http://www.city.kyoto.lg.jp/hokenfukushi/page/0000085750.html","register":"○","establishment":"玄関内","setsumei":"","holiday":""},{"ward":"左京","wardcode":13,"name":"京都市養正保育所","latitude":35.0324463398296,"longitude":135.776335895061,"url":"http://www.city.kyoto.lg.jp/hokenfukushi/page/0000085795.html","register":"○","establishment":"幼児棟（事務所）","setsumei":"","holiday":""},{"ward":"左京","wardcode":13,"name":"京都市養正乳児保育所","latitude":35.0319906134829,"longitude":135.776153504848,"url":"http://www.city.kyoto.lg.jp/hokenfukushi/page/0000085790.html","register":"○","establishment":"乳児棟(事務所)","setsumei":"","holiday":""},{"ward":"左京","wardcode":13,"name":"京都市吉田児童館","latitude":35.0249666156896,"longitude":135.775863826274,"url":"http://www.kyo-yancha.ne.jp/syousai/yosid","register":"○","establishment":"正面玄関","setsumei":"","holiday":""},{"ward":"左京","wardcode":13,"name":"京都市白川児童館","latitude":35.0203846583653,"longitude":135.791281163692,"url":"","register":"○","establishment":"事務所","setsumei":"","holiday":""},{"ward":"左京","wardcode":13,"name":"村松保育園","latitude":35.0845394153586,"longitude":135.785916745662,"url":"http://muramatsu-hoikuen.com/","register":"○","establishment":"1階職員室前","setsumei":"","holiday":""},{"ward":"左京","wardcode":13,"name":"京都市左京地域体育館","latitude":35.0326319240475,"longitude":135.776842832565,"url":"","register":"○","establishment":"管理事務所（075-701-4816）","setsumei":"","holiday":""},{"ward":"左京","wardcode":13,"name":"宗教法人　三千院","latitude":35.1198866318686,"longitude":135.83431854844,"url":"http://www.sanzenin.or.jp/top.html","register":"○","establishment":"参拝受付","setsumei":"24時間使用可能","holiday":"年中無休"},{"ward":"左京","wardcode":13,"name":"村松児童館","latitude":35.0848598649658,"longitude":135.785792022943,"url":"","register":"○","establishment":"事務所","setsumei":"","holiday":""},{"ward":"左京","wardcode":13,"name":"株式会社　日本シューター　デイサービス暖団　一乗寺","latitude":35.0395762045027,"longitude":135.786425024271,"url":"","register":"○","establishment":"事務所","setsumei":"24時間使用可能","holiday":"年中無休"},{"ward":"左京","wardcode":13,"name":"聖護院保育園","latitude":35.0163801776357,"longitude":135.776464641094,"url":"","register":"○","establishment":"玄関","setsumei":"","holiday":""},{"ward":"左京","wardcode":13,"name":"京都中央農業協同組合　岩倉支店","latitude":35.0755597299461,"longitude":135.785667300224,"url":"http://www.kyo-ja.com/","register":"○","establishment":"1階店舗","setsumei":"","holiday":""},{"ward":"左京","wardcode":13,"name":"京都中央農業協同組合　市原野支店","latitude":35.0892011746226,"longitude":135.763058960437,"url":"http://www.kyo-ja.com/","register":"○","establishment":"1階店舗","setsumei":"","holiday":""},{"ward":"左京","wardcode":13,"name":"京都中央農業協同組合　花背支店","latitude":35.2088516186151,"longitude":135.775702893733,"url":"http://www.kyo-ja.com/","register":"○","establishment":"1階店舗","setsumei":"","holiday":""},{"ward":"左京","wardcode":13,"name":"京都中央農業協同組合　大原支店","latitude":35.1135964401643,"longitude":135.823601782321,"url":"http://www.kyo-ja.com/","register":"○","establishment":"1階","setsumei":"","holiday":""},{"ward":"左京","wardcode":13,"name":"京都中央農業協同組合　コンポステーション","latitude":35.0880401493268,"longitude":135.76139062643,"url":"http://www.kyo-ja.com/","register":"○","establishment":"1階","setsumei":"","holiday":""},{"ward":"左京","wardcode":13,"name":"社会福祉法人　京都府社会福祉事業団　視力障害者福祉センター","latitude":35.0378522683748,"longitude":135.77139660716,"url":"http://www.ksj.or.jp/","register":"○","establishment":"寮舎棟（舎監室）","setsumei":"24時間使用可能","holiday":"年中無休"},{"ward":"左京","wardcode":13,"name":"財団法人　京都踏水会","latitude":35.0167206649747,"longitude":135.775560736656,"url":"http://www.kyoto-tohsuikai.jp/","register":"○","establishment":"受付","setsumei":"","holiday":""},{"ward":"左京","wardcode":13,"name":"大本山百萬遍知恩寺","latitude":35.0305147015601,"longitude":135.780801773071,"url":"","register":"○","establishment":"正面玄関","setsumei":"24時間使用可能","holiday":"年中無休"},{"ward":"左京","wardcode":13,"name":"介護老人福祉施設花友しらかわ","latitude":35.0206087101882,"longitude":135.791739821434,"url":"http://www.itihara.or.jp/","register":"○","establishment":"正面玄関受付","setsumei":"24時間使用可能","holiday":"年中無休"},{"ward":"左京","wardcode":13,"name":"フォルクスワーゲン平安","latitude":35.0418029930021,"longitude":135.780184864997,"url":"","register":"○","establishment":"","setsumei":"","holiday":""},{"ward":"左京","wardcode":13,"name":"鞍馬山鋼索鉄道","latitude":35.1164706375419,"longitude":135.772709548473,"url":"","register":"○","establishment":"山頂　多宝塔駅","setsumei":"","holiday":""},{"ward":"左京","wardcode":13,"name":"鞍馬寺","latitude":35.1178901464762,"longitude":135.770494043827,"url":"","register":"○","establishment":"鞍馬寺境内　本坊寺務所","setsumei":"24時間使用可能","holiday":"年中無休"},{"ward":"左京","wardcode":13,"name":"鞍馬山保育園","latitude":35.1145969356407,"longitude":135.77279806137,"url":"http://www.kuramayama.jp/","register":"○","establishment":"保育園　園舎１階","setsumei":"","holiday":""},{"ward":"左京","wardcode":13,"name":"株式会社　順正","latitude":35.0116395679349,"longitude":135.790095627307,"url":"http://www.to-fu.co.jp/","register":"○","establishment":"","setsumei":"","holiday":""},{"ward":"左京","wardcode":13,"name":"京都トヨペット（株）　岡崎店","latitude":35.0174543554542,"longitude":135.790774226188,"url":"","register":"○","establishment":"店内","setsumei":"","holiday":""},{"ward":"左京","wardcode":13,"name":"社会福祉法人　柊野福祉会　ガーデンハウス下鴨","latitude":35.0414230817039,"longitude":135.772709548473,"url":"","register":"○","establishment":"事務室","setsumei":"24時間使用可能","holiday":"年中無休"},{"ward":"左京","wardcode":13,"name":"明徳幼稚園","latitude":35.0745424,"longitude":135.786797799999,"url":"","register":"○","establishment":"","setsumei":"","holiday":""},{"ward":"左京","wardcode":13,"name":"岩倉南小学校","latitude":35.0670712999999,"longitude":135.784426899999,"url":"","register":"○","establishment":"","setsumei":"","holiday":""},{"ward":"左京","wardcode":13,"name":"岩倉北小学校","latitude":35.0852899,"longitude":135.787835099999,"url":"","register":"○","establishment":"","setsumei":"","holiday":""},{"ward":"左京","wardcode":13,"name":"八瀬小学校","latitude":35.084826942119,"longitude":135.817432701587,"url":"","register":"○","establishment":"","setsumei":"","holiday":""},{"ward":"左京","wardcode":13,"name":"大原小学校・大原中学校","latitude":35.1210932751416,"longitude":135.828453898429,"url":"","register":"○","establishment":"","setsumei":"","holiday":""},{"ward":"左京","wardcode":13,"name":"花背小学校・花背中学校","latitude":35.170990958138,"longitude":135.782534480094,"url":"","register":"○","establishment":"","setsumei":"","holiday":""},{"ward":"左京","wardcode":13,"name":"錦林小学校","latitude":35.0179178,"longitude":135.782241399999,"url":"","register":"○","establishment":"","setsumei":"","holiday":""},{"ward":"左京","wardcode":13,"name":"第三錦林小学校","latitude":35.0192358,"longitude":135.792947799999,"url":"","register":"○","establishment":"","setsumei":"","holiday":""},{"ward":"左京","wardcode":13,"name":"第四錦林小学校","latitude":35.0254435,"longitude":135.774666799999,"url":"","register":"○","establishment":"","setsumei":"","holiday":""},{"ward":"左京","wardcode":13,"name":"北白川小学校","latitude":35.0320546,"longitude":135.792577299999,"url":"","register":"○","establishment":"","setsumei":"","holiday":""},{"ward":"左京","wardcode":13,"name":"養正小学校","latitude":35.0323319,"longitude":135.778833599999,"url":"","register":"○","establishment":"","setsumei":"","holiday":""},{"ward":"左京","wardcode":13,"name":"養徳小学校","latitude":35.0374043,"longitude":135.7831674,"url":"","register":"○","establishment":"","setsumei":"","holiday":""},{"ward":"左京","wardcode":13,"name":"下鴨小学校","latitude":35.0373954,"longitude":135.7684266,"url":"","register":"○","establishment":"","setsumei":"","holiday":""},{"ward":"左京","wardcode":13,"name":"葵小学校","latitude":35.0454998,"longitude":135.773240999999,"url":"","register":"○","establishment":"","setsumei":"","holiday":""},{"ward":"左京","wardcode":13,"name":"修学院第二小学校","latitude":35.0450585,"longitude":135.7887057,"url":"","register":"○","establishment":"","setsumei":"","holiday":""},{"ward":"左京","wardcode":13,"name":"松ヶ崎小学校","latitude":35.0530062,"longitude":135.781907999999,"url":"","register":"○","establishment":"","setsumei":"","holiday":""},{"ward":"左京","wardcode":13,"name":"岡崎中学校","latitude":35.0162670476576,"longitude":135.789478719234,"url":"","register":"○","establishment":"","setsumei":"","holiday":""},{"ward":"左京","wardcode":13,"name":"株式会社三菱東京ＵＦＪ銀行聖護院支店","latitude":35.0171764764512,"longitude":135.778617113828,"url":"http://www.bk.mufg.jp/","register":"○","establishment":"１階ATMコーナー","setsumei":"7:00～24:00","holiday":"毎月第2土曜日の21:00～翌朝7:00"},{"ward":"左京","wardcode":13,"name":"株式会社ユタカファーマシー　一乗寺店","latitude":35.0444282855083,"longitude":135.785415172576,"url":"http://www.d-yutaka.co.jp/","register":"○","establishment":"サービスカウンター","setsumei":"9:00～23:00","holiday":"１月1日（原則年中無休）"},{"ward":"左京","wardcode":13,"name":"株式会社ユタカファーマシー　宝ヶ池店","latitude":35.0684692287925,"longitude":135.782105326652,"url":"http://www.d-yutaka.co.jp/","register":"○","establishment":"サービスカウンター","setsumei":"9:00～21:00","holiday":"１月1日（原則年中無休）"},{"ward":"左京","wardcode":13,"name":"株式会社ユタカファーマシー　三宅八幡店","latitude":35.0664758748134,"longitude":135.793091654777,"url":"http://www.d-yutaka.co.jp/","register":"○","establishment":"サービスカウンター","setsumei":"10:00～20:00","holiday":"１月1日（原則年中無休）"},{"ward":"左京","wardcode":13,"name":"フレスコ修学院店","latitude":35.0504877665436,"longitude":135.790369212627,"url":"http://www.super-fresco.co.jp/","register":"○","establishment":"店内","setsumei":"24時間使用可能","holiday":""},{"ward":"左京","wardcode":13,"name":"フレスコ川端店","latitude":35.0115703679365,"longitude":135.77262237668,"url":"http://www.super-fresco.co.jp/","register":"○","establishment":"店内","setsumei":"24時間使用可能","holiday":""},{"ward":"左京","wardcode":13,"name":"京滋信用組合　左京支店","latitude":35.0285626,"longitude":135.776834,"url":"http://www.keiji-shinkumi.net/","register":"○","establishment":"店舗１階カウンター","setsumei":"営業時間内　9時～15時","holiday":""},{"ward":"左京","wardcode":13,"name":"宝が池公園運動施設（フットサル・テニスコート）","latitude":35.05434785743,"longitude":135.776258111,"url":"","register":"○","establishment":"管理事務所（075-712-3300）","setsumei":"","holiday":""},{"ward":"左京","wardcode":13,"name":"医療法人三幸会　北山病院","latitude":35.0797237402096,"longitude":135.781043171882,"url":"http://www.sankokai.jp/","register":"○","establishment":"院内","setsumei":"","holiday":""},{"ward":"左京","wardcode":13,"name":"医療法人三幸会　北山病院","latitude":35.0797237402096,"longitude":135.781043171882,"url":"http://www.sankokai.jp/","register":"○","establishment":"院内","setsumei":"","holiday":""},{"ward":"左京","wardcode":13,"name":"医療法人三幸会　北山病院","latitude":35.0797237402096,"longitude":135.781043171882,"url":"http://www.sankokai.jp/","register":"○","establishment":"院内","setsumei":"","holiday":""},{"ward":"左京","wardcode":13,"name":"医療法人三幸会　第二北山病院","latitude":35.0804963745113,"longitude":135.783478617668,"url":"http://www.sankokai.jp/","register":"○","establishment":"患者待合室","setsumei":"","holiday":""},{"ward":"左京","wardcode":13,"name":"介護老人保健施設　紫雲苑","latitude":35.0801056683074,"longitude":135.781134366989,"url":"http://www.sankokai.jp/","register":"○","establishment":"施設内","setsumei":"","holiday":""},{"ward":"左京","wardcode":13,"name":"医療法人三幸会　ケアサポートセンター岩倉長谷","latitude":35.0814787,"longitude":135.7918597,"url":"http://www.sankokai.jp/","register":"○","establishment":"事務室","setsumei":"","holiday":""},{"ward":"左京","wardcode":13,"name":"医療法人三幸会　ケアサポートセンター市原野","latitude":35.0853185885825,"longitude":135.760162174701,"url":"http://www.sankokai.jp/","register":"○","establishment":"事務室","setsumei":"","holiday":""},{"ward":"左京","wardcode":13,"name":"医療法人三幸会　ケアサポートセンター宝ヶ池","latitude":35.064748664477,"longitude":135.791962444782,"url":"http://www.sankokai.jp/","register":"○","establishment":"事務室","setsumei":"","holiday":""},{"ward":"左京","wardcode":13,"name":"日本キリスト教団　京都西田町教会","latitude":35.0275309500022,"longitude":135.790587812662,"url":"","register":"○","establishment":"玄関横","setsumei":"","holiday":""},{"ward":"左京","wardcode":13,"name":"京都信用金庫　銀閣寺支店","latitude":35.0269346259034,"longitude":135.7917894423,"url":"http://www.kyoto-shinkin.co.jp/","register":"○","establishment":"１階ロビー","setsumei":"9:00～15:00","holiday":"土・日・祝日及び12月31日～1月3日"},{"ward":"左京","wardcode":13,"name":"一般財団法人　川越病院","latitude":35.0241912593702,"longitude":135.793088972568,"url":"http://business2.plala.or.jp/kawagoe/","register":"○","establishment":"２階Ａ１病棟ナースステーション","setsumei":"平日9:00～18:30　日・祝9:00～17:00","holiday":""},{"ward":"左京","wardcode":13,"name":"株式会社　高石造園土木","latitude":35.0203484146304,"longitude":135.77865332365,"url":"http://www.takaishizouen.com/","register":"○","establishment":"本社","setsumei":"平日8：30～17：00　※使用不能日あり","holiday":"土・日・祝日"},{"ward":"左京","wardcode":13,"name":"岩倉こひつじ保育園","latitude":35.0665388,"longitude":135.7913015,"url":"http://www.megumikai.kyoto.jp/","register":"○","establishment":"園内","setsumei":"月～土 7:30～18:30","holiday":"休園日，日祝日，年末年始，年度末，夏季"},{"ward":"中京","wardcode":14,"name":"京都全日空ホテル","latitude":35.0126237393529,"longitude":135.752834379673,"url":"http://www.ana-hkyoto.com","register":"○","establishment":"1階フロント","setsumei":"24時間使用可能","holiday":"年中無休"},{"ward":"中京","wardcode":14,"name":"京都ホテルオークラ","latitude":35.0120119288261,"longitude":135.769276320934,"url":"http://okura.kyotohotel.co.jp/","register":"○","establishment":"１階防災センター","setsumei":"24時間使用可能","holiday":"年中無休"},{"ward":"中京","wardcode":14,"name":"京都ホテルオークラ","latitude":35.0118581516724,"longitude":135.769485533237,"url":"http://okura.kyotohotel.co.jp/","register":"○","establishment":"３階宴会場","setsumei":"24時間使用可能","holiday":"年中無休"},{"ward":"中京","wardcode":14,"name":"京都ホテルオークラ","latitude":35.0118581516724,"longitude":135.769254863262,"url":"http://okura.kyotohotel.co.jp/","register":"○","establishment":"６階フィットネスクラブ","setsumei":"24時間使用可能","holiday":"年中無休"},{"ward":"中京","wardcode":14,"name":"ウェルネスクラブ　オーク２１","latitude":35.0062681558732,"longitude":135.760132670402,"url":"http://www.welloak21.com","register":"○","establishment":"１階トレーニング室","setsumei":"","holiday":""},{"ward":"中京","wardcode":14,"name":"ウェルネスクラブ　オーク２１","latitude":35.0062681558732,"longitude":135.760132670402,"url":"http://www.welloak21.com","register":"○","establishment":"５階スタジオ","setsumei":"","holiday":""},{"ward":"中京","wardcode":14,"name":"社団法人京都府歯科医師会","latitude":35.0116835044115,"longitude":135.742105543613,"url":"http://www.kyoto-dental-8020.or.jp","register":"○","establishment":"会館内エントランス","setsumei":"","holiday":""},{"ward":"中京","wardcode":14,"name":"財団法人　京都健康管理研究会　中央診療所","latitude":35.0083991877341,"longitude":135.762796103954,"url":"http://www.chuo-c.jp/","register":"○","establishment":"２階診察室","setsumei":"","holiday":""},{"ward":"中京","wardcode":14,"name":"京都ロイヤルホテル＆スパ","latitude":35.0099545862508,"longitude":135.769364833831,"url":"http://www.ishinhotels.com/kyoto-royal/jp/","register":"○","establishment":"１階警備員室","setsumei":"24時間使用可能","holiday":"年中無休"},{"ward":"中京","wardcode":14,"name":"京都ロイヤルホテル＆スパ","latitude":35.0099545862508,"longitude":135.769364833831,"url":"http://www.ishinhotels.com/kyoto-royal/jp/","register":"○","establishment":"２階宴会場","setsumei":"24時間使用可能","holiday":"年中無休"},{"ward":"中京","wardcode":14,"name":"洛陽総合高等学校","latitude":35.0178168049086,"longitude":135.728195607662,"url":"http://www.rakuyo.ed.jp","register":"○","establishment":"１階受付","setsumei":"","holiday":""},{"ward":"中京","wardcode":14,"name":"日本写真印刷株式会社","latitude":35.0037679673142,"longitude":135.740531086921,"url":"http://www.nissha.co.jp","register":"○","establishment":"南側守衛室","setsumei":"","holiday":""},{"ward":"中京","wardcode":14,"name":"日本写真印刷株式会社　西門守衛室","latitude":35.005424515551,"longitude":135.739485025405,"url":"http://www.nissha.co.jp","register":"○","establishment":"西側守衛室","setsumei":"","holiday":""},{"ward":"中京","wardcode":14,"name":"株式会社ミラノ工務店","latitude":35.0146162108538,"longitude":135.769756436347,"url":"http://www.milano.co.jp","register":"○","establishment":"１階受付","setsumei":"","holiday":""},{"ward":"中京","wardcode":14,"name":"京（みやこ）あんしんこども館","latitude":35.0177926416616,"longitude":135.755894780158,"url":"http://www.anshinkodomokan.jp/","register":"○","establishment":"２階受付前","setsumei":"","holiday":""},{"ward":"中京","wardcode":14,"name":"ホテルハーヴェスト京都","latitude":35.0170194139884,"longitude":135.759314596652,"url":"http://www.hotel-harvest.com","register":"○","establishment":"１階フロント","setsumei":"24時間使用可能","holiday":"年中無休"},{"ward":"中京","wardcode":14,"name":"西ノ京中学校","latitude":35.01268,"longitude":135.7382119,"url":"","register":"○","establishment":"","setsumei":"","holiday":""},{"ward":"中京","wardcode":14,"name":"京都市立病院","latitude":34.9974182874238,"longitude":135.735311508178,"url":"http://www.city.kyoto.lg.jp/city-hosp/","register":"○","establishment":"","setsumei":"24時間使用可能","holiday":"年中無休"},{"ward":"中京","wardcode":14,"name":"松原中学校","latitude":34.999866,"longitude":135.747827,"url":"","register":"○","establishment":"","setsumei":"","holiday":""},{"ward":"中京","wardcode":14,"name":"銅駝美術工芸高等学校","latitude":35.014838,"longitude":135.770161,"url":"","register":"○","establishment":"","setsumei":"","holiday":""},{"ward":"中京","wardcode":14,"name":"堀川高等学校","latitude":35.005315,"longitude":135.7526811,"url":"","register":"○","establishment":"","setsumei":"","holiday":""},{"ward":"中京","wardcode":14,"name":"元離宮二条城事務所","latitude":35.0136540311178,"longitude":135.750980973243,"url":"","register":"○","establishment":"元離宮二条城事務所","setsumei":"","holiday":""},{"ward":"中京","wardcode":14,"name":"ウィングス京都","latitude":35.006725124082,"longitude":135.761304795742,"url":"http://www.wings-kyoto.jp","register":"○","establishment":"正面受付カウンター内","setsumei":"","holiday":""},{"ward":"中京","wardcode":14,"name":"京都市営地下鉄　烏丸御池駅","latitude":35.0103324469619,"longitude":135.759633779525,"url":"http://www.city.kyoto.jp/kotsu/","register":"○","establishment":"改札口内","setsumei":"","holiday":""},{"ward":"中京","wardcode":14,"name":"中京保健センター","latitude":35.0100380672558,"longitude":135.75142621994,"url":"","register":"○","establishment":"庁内","setsumei":"開庁時間内","holiday":""},{"ward":"中京","wardcode":14,"name":"京都府京都文化博物館","latitude":35.0093284759976,"longitude":135.762409865856,"url":"http://www.bunpaku.or.jp","register":"○","establishment":"本館１階エントランス","setsumei":"","holiday":""},{"ward":"中京","wardcode":14,"name":"御所南小学校","latitude":35.0159,"longitude":135.76448,"url":"","register":"○","establishment":"","setsumei":"","holiday":""},{"ward":"中京","wardcode":14,"name":"立命館法科大学院","latitude":35.009097802591,"longitude":135.742156505584,"url":"","register":"○","establishment":"１階正面玄関北側","setsumei":"","holiday":""},{"ward":"中京","wardcode":14,"name":"京都国際ホテル","latitude":35.0134299602392,"longitude":135.75289607048,"url":"http://www.kyoto-kokusai.com","register":"○","establishment":"１階フロント","setsumei":"24時間使用可能","holiday":"年中無休"},