{"bicycleshop":[{"店名":"ヤマハユーショップ青石","住所":"〒613-0906　京都府京都市伏見区淀新町１１ ","電話":"075-631-2278","URL":null,"EMAIL":null,"latitude":34.9019582,"longitude":135.7187767},{"店名":"サイクルパドックタナカ","住所":"〒613-0905　京都府京都市伏見区淀下津町５７ ","電話":"075-631-2112","URL":null,"EMAIL":null,"latitude":34.9027609,"longitude":135.7198292},{"店名":"まつもとモータース","住所":"〒612-8271　京都府京都市伏見区納所岸ノ下２４－８ ","電話":"075-631-7144","URL":null,"EMAIL":null,"latitude":34.9143791,"longitude":135.7254123},{"店名":"サイクルショップナカイ向島店","住所":"〒612-8135　京都府京都市伏見区向島渡シ場町１４－７ ","電話":"075-201-9305","URL":null,"EMAIL":null,"latitude":34.9178655,"longitude":135.7887798},{"店名":"株式会社ピーコック／向島本店","住所":"〒612-8141　京都府京都市伏見区向島二ノ丸町６８－３９ ","電話":"075-621-2848","URL":null,"EMAIL":null,"latitude":34.922559,"longitude":135.7722948},{"店名":"山本シティーサイクル","住所":"〒612-8295　京都府京都市伏見区横大路鍬ノ本１－８ ","電話":"075-612-3136","URL":null,"EMAIL":null,"latitude":34.9267251,"longitude":135.7394953},{"店名":"ハシモトモーターサイクル","住所":"〒612-8485　京都府京都市伏見区羽束師志水町１６５－２３９ ","電話":"075-933-1303","URL":null,"EMAIL":null,"latitude":34.9286274,"longitude":135.7252349},{"店名":"松本自転車商会","住所":"〒612-8046　京都府京都市伏見区塩屋町２３８ ","電話":"075-601-0908","URL":null,"EMAIL":null,"latitude":34.9308717,"longitude":135.7600154},{"店名":"田中留商会","住所":"〒612-8353　京都府京都市伏見区東町２０５ ","電話":"075-611-4627","URL":null,"EMAIL":null,"latitude":34.9351156,"longitude":135.7600542},{"店名":"コンズサイクル／ＭＯＭＯテラス","住所":"〒612-8002　京都府京都市伏見区桃山町山ノ下３２－１Ｆ ","電話":"075-603-0099","URL":null,"EMAIL":null,"latitude":34.9370526,"longitude":135.79504},{"店名":"サイクルオートヨシザキ","住所":"〒612-8495　京都府京都市伏見区久我森の宮町９－８０ ","電話":"075-935-4100","URL":null,"EMAIL":null,"latitude":34.9381707,"longitude":135.7308208},{"店名":"自転車出張修理るーきー","住所":"〒612-8494　京都府京都市伏見区久我東町２－６０ ","電話":"075-935-2365","URL":"http:\/\/www.rooky.jp","EMAIL":"info@rooky.jp","latitude":34.9389289,"longitude":135.7326179},{"店名":"サイクルベースあさひ京都南店","住所":"〒612-8471　京都府京都市伏見区下鳥羽長田町１８９ ","電話":"075-604-1350","URL":null,"EMAIL":null,"latitude":34.9389484,"longitude":135.7446002},{"店名":"ヤブネ自転車商会","住所":"〒612-8332　京都府京都市伏見区樽屋町９９９ ","電話":"075-601-4624","URL":null,"EMAIL":null,"latitude":34.9412844,"longitude":135.757774},{"店名":"ヤスヒロオート","住所":"〒601-1431　京都府京都市伏見区石田大受町３１－１９１ ","電話":"075-571-1558","URL":null,"EMAIL":null,"latitude":34.9418358,"longitude":135.8063974},{"店名":"遊輪館ＣＹＣＬＥ雅","住所":"〒612-0071　京都府京都市伏見区桃山井伊掃部東町２８－２ ","電話":"075-611-9955","URL":null,"EMAIL":null,"latitude":34.942052,"longitude":135.7669917},{"店名":"サイクルベースあさひ伏見醍醐店","住所":"〒601-1431　京都府京都市伏見区石田大受町６８－４ ","電話":"075-575-5560","URL":null,"EMAIL":null,"latitude":34.942133,"longitude":135.805453},{"店名":"ウエダモータースｕｍセカンド","住所":"〒612-8081　京都府京都市伏見区新町１３丁目２９７ ","電話":"075-601-4060","URL":null,"EMAIL":null,"latitude":34.9424373,"longitude":135.7631347},{"店名":"パンクワークスジャパン","住所":"〒601-1462　京都府京都市伏見区小栗栖森本町１０－３ ","電話":"075-748-7462","URL":"http:\/\/ameblo.jp\/punk-works-japan\/","EMAIL":null,"latitude":34.9440966,"longitude":135.8013396},{"店名":"コンズサイクル／伏見店","住所":"〒612-0087　京都府京都市伏見区深草紺屋町４ ","電話":"075-646-1644","URL":null,"EMAIL":null,"latitude":34.9453648,"longitude":135.7628737},{"店名":"ＢａｓｅＲｏｃｋｅｔＰｕｎｃｈ","住所":"〒601-1362　京都府京都市伏見区醍醐池田町１０ ","電話":"075-574-7734","URL":"http:\/\/www.baserocketpunch.com","EMAIL":null,"latitude":34.9461939,"longitude":135.8097471},{"店名":"ナガイサイクル","住所":"〒610-1127　京都府京都市西京区大原野上里鳥見町６－１ ","電話":"075-331-1414","URL":null,"EMAIL":null,"latitude":34.9471189,"longitude":135.6886443},{"店名":"サイクロード・フクイ","住所":"〒612-8492　京都府京都市伏見区久我本町１２－１１７ ","電話":"075-921-3676","URL":null,"EMAIL":null,"latitude":34.9476612,"longitude":135.7254355},{"店名":"キタグチモータース","住所":"〒612-8422　京都府京都市伏見区竹田七瀬川町２２２ ","電話":"F兼 075-641-7026","URL":null,"EMAIL":null,"latitude":34.9514724,"longitude":135.7588937},{"店名":"三滝モータース","住所":"〒612-0868　京都府京都市伏見区深草直違橋南１丁目５０８ ","電話":"075-641-4269","URL":null,"EMAIL":null,"latitude":34.9527254,"longitude":135.7708982},{"店名":"イワイサイクルセンター","住所":"〒601-8205　京都府京都市南区久世殿城町１６２ ","電話":"075-921-8679","URL":null,"EMAIL":null,"latitude":34.9560879,"longitude":135.7165532},{"店名":"村井モータース","住所":"〒612-0889　京都府京都市伏見区深草直違橋６丁目２８８ ","電話":"075-641-3608","URL":null,"EMAIL":null,"latitude":34.9596498,"longitude":135.7713761},{"店名":"うちばやしサイクルオート","住所":"〒601-8206　京都府京都市南区久世大薮町１１３－２ ","電話":"075-921-0820","URL":null,"EMAIL":null,"latitude":34.959807,"longitude":135.7197225},{"店名":"田中自転車商会","住所":"〒601-8136　京都府京都市南区上鳥羽岩ノ本町２９ ","電話":"075-671-2625","URL":null,"EMAIL":null,"latitude":34.9605546,"longitude":135.7427732},{"店名":"じてんしゃ出張修理サイクルピット１ＢＯＸ","住所":"〒610-1112　京都府京都市西京区大枝北福西町４丁目１－２ ","電話":"075-333-3595","URL":null,"EMAIL":null,"latitude":34.9623369,"longitude":135.679937},{"店名":"アゲイン","住所":"〒612-8411　京都府京都市伏見区竹田久保町６２－１ ","電話":"075-645-7158","URL":null,"EMAIL":null,"latitude":34.962391,"longitude":135.7613021},{"店名":"サイクリー京都南インター店","住所":"〒601-8131　京都府京都市南区上鳥羽鴨田１８－４ ","電話":"075-691-0196","URL":null,"EMAIL":null,"latitude":34.9635321,"longitude":135.7455369},{"店名":"古川サイクルオート","住所":"〒601-8367　京都府京都市南区吉祥院石原町２２－６ ","電話":"075-681-6548","URL":null,"EMAIL":null,"latitude":34.9648538,"longitude":135.7302522},{"店名":"サイクル工房ワークス","住所":"〒610-1111　京都府京都市西京区大枝東長町１－４１８ ","電話":"075-874-2461","URL":null,"EMAIL":null,"latitude":34.965095,"longitude":135.6781511},{"店名":"ノグチサイクルショップ","住所":"〒607-8186　京都府京都市山科区大宅早稲ノ内町１６１ ","電話":"075-592-7613","URL":null,"EMAIL":null,"latitude":34.9669616,"longitude":135.8164049},{"店名":"宇野自転車店","住所":"〒612-0881　京都府京都市伏見区深草稲荷御前町８９ ","電話":"075-641-3206","URL":null,"EMAIL":null,"latitude":34.9672964,"longitude":135.7708236},{"店名":"有限会社櫻井モータース商会有限会社櫻井モータース商会クルマ選びの総合コンサルタント！","住所":"〒601-8114　京都府京都市南区上鳥羽南鉾立町６－５ ","電話":"075-681-3901","URL":null,"EMAIL":null,"latitude":34.9673946,"longitude":135.7535978},{"店名":"有限会社石原商会","住所":"〒601-8188　京都府京都市南区上鳥羽南中ノ坪町３３ ","電話":"代 075-681-7241","URL":null,"EMAIL":null,"latitude":34.9676066,"longitude":135.7404153},{"店名":"ＢｌａｎｋｙＤｏｇ","住所":"〒601-8121　京都府京都市南区上鳥羽大物町４７－１ ","電話":"075-691-2198","URL":null,"EMAIL":null,"latitude":34.9676763,"longitude":135.7502311},{"店名":"橋本モータース","住所":"〒607-8212　京都府京都市山科区勧修寺西栗栖野町１９３ ","電話":"075-591-1160","URL":null,"EMAIL":null,"latitude":34.9702472,"longitude":135.8072893},{"店名":"株式会社タケナカ洛西店","住所":"〒610-1105　京都府京都市西京区大枝塚原町３－１５０ ","電話":"代 075-331-0570","URL":null,"EMAIL":null,"latitude":34.9718889,"longitude":135.6714321},{"店名":"ケーヨーＤ２西野山店","住所":"〒607-8307　京都府京都市山科区西野山射庭ノ上町３０１ ","電話":"代 075-592-8029","URL":"http:\/\/www.keiyo.co.jp\/","EMAIL":null,"latitude":34.9722967,"longitude":135.799568},{"店名":"コンズサイクル山科店","住所":"〒607-8162　京都府京都市山科区椥辻草海道町３８－４２ ","電話":"075-583-5114","URL":null,"EMAIL":null,"latitude":34.972736,"longitude":135.8151912},{"店名":"サイクルどりーむ／桂店","住所":"〒615-8034　京都府京都市西京区下津林東芝ノ宮町２ ","電話":"075-391-7123","URL":"http:\/\/www.c-dream.jp","EMAIL":"info@c-dream.jp","latitude":34.9731666,"longitude":135.7129956},{"店名":"カドカメ商会","住所":"〒607-8168　京都府京都市山科区椥辻池尻町３－５ ","電話":"075-581-3421","URL":null,"EMAIL":null,"latitude":34.9737553,"longitude":135.8144718},{"店名":"野口商会椥辻","住所":"〒607-8167　京都府京都市山科区椥辻封シ川町２２－１４ ","電話":"075-593-2611","URL":null,"EMAIL":null,"latitude":34.9738482,"longitude":135.8109763},{"店名":"城戸商会","住所":"〒607-8181　京都府京都市山科区大宅打明町３－７ ","電話":"075-581-1746","URL":null,"EMAIL":null,"latitude":34.9743749,"longitude":135.8224264},{"店名":"吉祥院サイクルセンター","住所":"〒601-8352　京都府京都市南区吉祥院西浦町７９ ","電話":"075-691-7052","URL":null,"EMAIL":null,"latitude":34.9745667,"longitude":135.7301857},{"店名":"内林モーターサイクル","住所":"〒615-8106　京都府京都市西京区川島滑樋町２１－１ ","電話":"075-381-3453","URL":null,"EMAIL":null,"latitude":34.976358,"longitude":135.7026937},{"店名":"加藤モータース","住所":"〒601-8431　京都府京都市南区西九条島町４－９ ","電話":"075-691-3362","URL":null,"EMAIL":null,"latitude":34.9765089,"longitude":135.7533892},{"店名":"ピーコック樫原店","住所":"〒615-8171　京都府京都市西京区樫原久保町３０－５ ","電話":"075-392-5150","URL":null,"EMAIL":null,"latitude":34.9767333,"longitude":135.6937741},{"店名":"有限会社キムラオートレーシング","住所":"〒601-8042　京都府京都市南区東九条西御霊町１９ ","電話":"075-691-6471","URL":null,"EMAIL":null,"latitude":34.9781506,"longitude":135.7614523},{"店名":"バイコロ技研","住所":"〒615-8235　京都府京都市西京区御陵内町３－６－１０１ ","電話":"075-391-9106","URL":null,"EMAIL":null,"latitude":34.9797604,"longitude":135.6909115},{"店名":"サイクルベースあさひ九条店","住所":"〒601-8047　京都府京都市南区東九条下殿田町４３ ","電話":"075-693-9785","URL":"http:\/\/www.cb-asahi.jp\/","EMAIL":null,"latitude":34.9797698,"longitude":135.7576721},{"店名":"株式会社東寺軽車工業","住所":"〒601-8424　京都府京都市南区西九条川原城町２９ ","電話":"075-691-2412","URL":null,"EMAIL":null,"latitude":34.9799307,"longitude":135.7511949},{"店名":"株式会社東寺軽車工業","住所":"〒601-8424　京都府京都市南区西九条川原城町２９ ","電話":"075-681-8082","URL":null,"EMAIL":null,"latitude":34.9799307,"longitude":135.7511949},{"店名":"サイクルベースあさひ山科店","住所":"〒607-8345　京都府京都市山科区西野離宮町１１－３ ","電話":"075-582-9486","URL":null,"EMAIL":null,"latitude":34.9814891,"longitude":135.8120697},{"店名":"さかぐちサイクル","住所":"〒601-8462　京都府京都市南区唐橋井園町５０ ","電話":"075-691-7979","URL":null,"EMAIL":null,"latitude":34.9820413,"longitude":135.7406348},{"店名":"サイクルショップ山口","住所":"〒615-8085　京都府京都市西京区桂千代原町７１－４ ","電話":"075-381-9086","URL":null,"EMAIL":null,"latitude":34.9832157,"longitude":135.6968137},{"店名":"サクラ自転車山科店","住所":"〒607-8076　京都府京都市山科区音羽役出町１－２６ ","電話":"075-581-3210","URL":null,"EMAIL":null,"latitude":34.9851207,"longitude":135.8173048},{"店名":"ＹＯＵＳＨＯＰ塩谷","住所":"〒607-8087　京都府京都市山科区竹鼻サイカシ町６－５ ","電話":"075-581-2212","URL":null,"EMAIL":null,"latitude":34.9852484,"longitude":135.8151745},{"店名":"株式会社エイリン","住所":"〒615-8012　京都府京都市西京区桂後水町１－１ ","電話":"075-381-5205","URL":null,"EMAIL":null,"latitude":34.9871098,"longitude":135.7087654},{"店名":"ケーヨーデイツー七条店","住所":"〒600-8865　京都府京都市下京区七条御所ノ内西町４５ ","電話":"代 075-313-1330","URL":null,"EMAIL":null,"latitude":34.988096,"longitude":135.7276221},{"店名":"瀧モーター商会","住所":"〒605-0981　京都府京都市東山区本町７丁目２９ ","電話":"075-561-5439","URL":null,"EMAIL":null,"latitude":34.9882081,"longitude":135.769771},{"店名":"松野自転車商会","住所":"〒615-0813　京都府京都市右京区西京極佃田町１５ ","電話":"075-313-3588","URL":null,"EMAIL":null,"latitude":34.988332,"longitude":135.725675},{"店名":"ソニック","住所":"〒607-8412　京都府京都市山科区御陵四丁野町７５－２ ","電話":"075-591-7774","URL":null,"EMAIL":null,"latitude":34.9885091,"longitude":135.8134108},{"店名":"自転車屋ライブ","住所":"〒600-8885　京都府京都市下京区西七条南月読町６２ ","電話":"075-311-1127","URL":null,"EMAIL":null,"latitude":34.9889515,"longitude":135.7290497},{"店名":"トーヨーサイクル","住所":"〒615-8281　京都府京都市西京区松尾木ノ曽町５９－９ ","電話":"075-391-1600","URL":null,"EMAIL":null,"latitude":34.9900512,"longitude":135.6930835},{"店名":"東サイクルショップ","住所":"〒615-0852　京都府京都市右京区西京極西川町３－５ ","電話":"075-313-1167","URL":null,"EMAIL":null,"latitude":34.9909983,"longitude":135.7188312},{"店名":"藤ノ井モータース","住所":"〒600-8894　京都府京都市下京区西七条市部町８８ ","電話":"075-312-8529","URL":null,"EMAIL":null,"latitude":34.9912153,"longitude":135.7348603},{"店名":"赤岩オートサイクルショップ","住所":"〒607-8029　京都府京都市山科区四ノ宮大将軍町１４－１ ","電話":"075-581-5313","URL":null,"EMAIL":null,"latitude":34.9912451,"longitude":135.8239541},{"店名":"サイクルベースあさひ桂店","住所":"〒615-8301　京都府京都市西京区桂徳大寺北町２ ","電話":"075-382-2571","URL":null,"EMAIL":null,"latitude":34.9913566,"longitude":135.7043214},{"店名":"赤岩輪業","住所":"〒607-8409　京都府京都市山科区御陵天徳町２９－２３ ","電話":"075-581-5858","URL":null,"EMAIL":null,"latitude":34.9915337,"longitude":135.8138719},{"店名":"株式会社上野亀商店","住所":"〒605-0909　京都府京都市東山区問屋町通正面上る鍵屋町４９９ ","電話":"075-561-6291","URL":null,"EMAIL":null,"latitude":34.991947,"longitude":135.768579},{"店名":"大島自工","住所":"〒605-0981　京都府京都市東山区本町４丁目１４４ ","電話":"075-561-8041","URL":null,"EMAIL":null,"latitude":34.9919688,"longitude":135.7699682},{"店名":"臼井モータース","住所":"〒605-0981　京都府京都市東山区本町４丁目１１４－２ ","電話":"075-561-9369","URL":null,"EMAIL":null,"latitude":34.9926743,"longitude":135.7698238},{"店名":"自転車サクラ西京極店","住所":"〒615-0801　京都府京都市右京区西京極豆田町６－１Ｆ ","電話":"075-321-7774","URL":null,"EMAIL":null,"latitude":34.9928843,"longitude":135.7229641},{"店名":"棚橋商会","住所":"〒600-8128　京都府京都市下京区大工町４９５ ","電話":"075-351-7707","URL":null,"EMAIL":null,"latitude":34.992977,"longitude":135.7647159},{"店名":"ヨシノモータースヨシノモータース★中古自転車色々　★各サイズ有ります。アフターサービス万全","住所":"〒600-8119　京都府京都市下京区本塩竈町５８４ ","電話":"F兼 075-361-1574","URL":null,"EMAIL":null,"latitude":34.9939325,"longitude":135.7647937},{"店名":"みんなのじてんしゃ","住所":"〒615-0864　京都府京都市右京区西京極新明町２ ","電話":"075-323-1031","URL":"http:\/\/newshop.jp\/minnano\/","EMAIL":null,"latitude":34.9948119,"longitude":135.7122318},{"店名":"ＣｙｃｌｅＧａｒｄｅｎ","住所":"〒605-0846　京都府京都市東山区五条橋東２丁目９ ","電話":"075-532-4757","URL":"http:\/\/cyclegarden.jp","EMAIL":"info@cyclegarden.jp","latitude":34.9957795,"longitude":135.7707515},{"店名":"サイクルショップ栄輪丹波口店","住所":"〒600-8811　京都府京都市下京区中堂寺坊城町１７－２ ","電話":"075-353-7787","URL":null,"EMAIL":null,"latitude":34.9958902,"longitude":135.7428207},{"店名":"アシスト＆サイクル轍","住所":"〒600-8322　京都府京都市下京区西洞院五条下小柳５１８ ","電話":"075-353-9292","URL":null,"EMAIL":null,"latitude":34.9959961,"longitude":135.7549835},{"店名":"京都五条サイクル","住所":"〒600-8029　京都府京都市下京区西橋詰町７９５－４ ","電話":"075-746-4855","URL":null,"EMAIL":null,"latitude":34.9960804,"longitude":135.7669361},{"店名":"Ｍｏｋｕ２プラス４","住所":"〒615-0883　京都府京都市右京区西京極南大入町７０ ","電話":"075-326-3027","URL":"http:\/\/www.2plus4.net\/","EMAIL":"2plus4@juppo.co.jp","latitude":34.996395,"longitude":135.7150982},{"店名":"スタイル","住所":"〒600-8086　京都府京都市下京区松原東洞院東入本燈籠３ ","電話":"075-344-7717","URL":null,"EMAIL":null,"latitude":34.998813,"longitude":135.76145},{"店名":"木畑商会","住所":"〒615-0022　京都府京都市右京区西院平町３６ ","電話":"075-312-2928","URL":null,"EMAIL":null,"latitude":34.999234,"longitude":135.7323466},{"店名":"コンズサイクル西大路店","住所":"〒615-0022　京都府京都市右京区西院平町３１ ","電話":"075-312-6680","URL":"http:\/\/www.konscycle.com","EMAIL":"nishioji@konscycle.com","latitude":34.9998089,"longitude":135.7323911},{"店名":"羽根田モーターサイクル","住所":"〒605-0812　京都府京都市東山区東大路松原上る４丁目毘沙門町４０－５ ","電話":"075-561-0030","URL":null,"EMAIL":null,"latitude":35.0006818,"longitude":135.7771843},{"店名":"自転車のきゅうべえ西院店","住所":"〒615-0022　京都府京都市右京区西院平町１１ ","電話":"075-754-6742","URL":null,"EMAIL":null,"latitude":35.0008866,"longitude":135.7322661},{"店名":"有限会社西村輪業","住所":"〒600-8394　京都府京都市下京区仏光寺通西堀川西入晒屋町６４５","電話":"075-811-7919","URL":null,"EMAIL":null,"latitude":35.001118,"longitude":135.751375},{"店名":"キシモト","住所":"〒615-0923　京都府京都市右京区梅津中倉町１８ ","電話":"075-881-3077","URL":null,"EMAIL":null,"latitude":35.002164,"longitude":135.6930502},{"店名":"協伸自動車工業有限会社本社","住所":"〒615-0051　京都府京都市右京区西院安塚町３５ ","電話":"F専 075-315-2172","URL":null,"EMAIL":null,"latitude":35.0026311,"longitude":135.7219562},{"店名":"ムラタサイクル","住所":"〒604-8824　京都府京都市中京区壬生高樋町１８－２２ ","電話":"075-316-2317","URL":null,"EMAIL":null,"latitude":35.0030478,"longitude":135.7407931},{"店名":"サイクルどりーむ／四条店 ","住所":"〒615-0057　京都府京都市右京区西院東貝川町３－２ ","電話":null,"URL":null,"EMAIL":null,"latitude":35.0033805,"longitude":135.7174785},{"店名":"サイクルショップエイリン四条店","住所":"〒615-0061　京都府京都市右京区西院乾町６６ ","電話":"075-315-6801","URL":null,"EMAIL":null,"latitude":35.0036973,"longitude":135.7268443},{"店名":"たけなか梅津店","住所":"〒615-0933　京都府京都市右京区梅津後藤町２４－２ ","電話":"075-871-6500","URL":null,"EMAIL":null,"latitude":35.0037666,"longitude":135.7030742},{"店名":"ワイズロード京都店","住所":"〒604-8041　京都府京都市中京区裏寺町５９５ ","電話":"075-254-7827","URL":null,"EMAIL":null,"latitude":35.0061813,"longitude":135.7679461},{"店名":"辻森商会","住所":"〒604-8135　京都府京都市中京区三文字町２２６ ","電話":"075-221-5732","URL":null,"EMAIL":null,"latitude":35.0074145,"longitude":135.7612717},{"店名":"じてんしゃ工房ピュア","住所":"〒604-8805　京都府京都市中京区壬生馬場町５－６ ","電話":"075-813-1558","URL":null,"EMAIL":null,"latitude":35.0083919,"longitude":135.7454203},{"店名":"自転車Ｆｉｌｌｅｔ","住所":"〒604-8166　京都府京都市中京区御倉町６４－１Ｆ ","電話":"075-255-7077","URL":null,"EMAIL":null,"latitude":35.0084727,"longitude":135.7581914},{"店名":"自転車サクラ京都三条店","住所":"〒604-8375　京都府京都市中京区西ノ京池ノ内町８－１ ","電話":"075-812-6300","URL":null,"EMAIL":null,"latitude":35.008627,"longitude":135.7448249},{"店名":"有限会社山田モーター商会","住所":"〒604-8412　京都府京都市中京区西ノ京南聖町１ ","電話":"075-841-3113","URL":null,"EMAIL":"yamadamt@qg7.so-net.ne.jp","latitude":35.0086363,"longitude":135.7441704},{"店名":"荒井モーター商会","住所":"〒616-8135　京都府京都市右京区太秦小手角町１７－１ ","電話":"075-872-7506","URL":null,"EMAIL":null,"latitude":35.0087662,"longitude":135.7083208},{"店名":"有限会社丸安商会","住所":"〒604-8414　京都府京都市中京区西ノ京小倉町４－１６ ","電話":"075-841-4291","URL":null,"EMAIL":null,"latitude":35.008775,"longitude":135.7397125},{"店名":"サイクルベースあさひ二条店","住所":"〒604-8412　京都府京都市中京区西ノ京南聖町１３ ","電話":"075-803-0577","URL":null,"EMAIL":null,"latitude":35.0098139,"longitude":135.7429316},{"店名":"竹内自転車店","住所":"〒604-8423　京都府京都市中京区西ノ京西月光町４１－２ ","電話":"075-821-4024","URL":null,"EMAIL":null,"latitude":35.0102859,"longitude":135.7360739},{"店名":"ペダル西大路御池店","住所":"〒604-8432　京都府京都市中京区西ノ京南原町１－１ ","電話":"075-822-1182","URL":null,"EMAIL":null,"latitude":35.0105997,"longitude":135.7330491},{"店名":"渡辺商会","住所":"〒604-8303　京都府京都市中京区最上３９４－５","電話":"075-811-6308","URL":null,"EMAIL":null,"latitude":35.0110446,"longitude":135.7507531},{"店名":"サイクルショップエイリン二条駅前店","住所":"〒604-8421　京都府京都市中京区西ノ京永本町１４－４３ ","電話":"075-813-5544","URL":null,"EMAIL":null,"latitude":35.0111026,"longitude":135.7392152},{"店名":"ハムハムハグサイクルセンター","住所":"〒604-0023　京都府京都市中京区西横町１６７－１－１Ｆ ","電話":"075-251-2211","URL":"http:\/\/cyclecenter.wix.com\/humhumhug\/","EMAIL":null,"latitude":35.0111152,"longitude":135.7567076},{"店名":"自転車のきゅうべえ烏丸御池店","住所":"〒604-0033　京都府京都市中京区橋之町７３８ ","電話":"075-746-2952","URL":null,"EMAIL":null,"latitude":35.0111225,"longitude":135.7559832},{"店名":"塩田自転車店","住所":"〒604-8421　京都府京都市中京区西ノ京永本町２３ ","電話":"075-811-1042","URL":null,"EMAIL":null,"latitude":35.0111748,"longitude":135.7384375},{"店名":"サイクルショップエイリン御池店","住所":"〒604-0042　京都府京都市中京区西洞院通押小路下る押西洞院町５９０－５ ","電話":"075-256-5800","URL":null,"EMAIL":null,"latitude":35.011187,"longitude":135.754968},{"店名":"ウィニングベル","住所":"〒616-8105　京都府京都市右京区太秦森ケ前町１４－１０１ ","電話":"075-873-2334","URL":null,"EMAIL":null,"latitude":35.0116659,"longitude":135.7128453},{"店名":"木上自転車店","住所":"〒616-8103　京都府京都市右京区太秦上刑部町１７－９ ","電話":"075-861-3297","URL":null,"EMAIL":null,"latitude":35.0124598,"longitude":135.7137347},{"店名":"ディオハウス西ノ京店","住所":"〒604-8425　京都府京都市中京区西ノ京銅駝町４９ ","電話":"075-821-2101","URL":"http:\/\/www.ayahadio.com\/nk\/","EMAIL":null,"latitude":35.0127662,"longitude":135.7356155},{"店名":"中西商会","住所":"〒604-8421　京都府京都市中京区上ノ押小路七本松西入","電話":"075-821-0033","URL":null,"EMAIL":null,"latitude":35.0135214,"longitude":135.7390698},{"店名":"一条アルチメイトファクトリー京都店","住所":"〒606-8385　京都府京都市左京区川端通二条下る孫橋町３２－１ ","電話":"075-771-6311","URL":null,"EMAIL":null,"latitude":35.013614,"longitude":135.772537},{"店名":"柴崎商会","住所":"〒604-8383　京都府京都市中京区西ノ京小堀町２－５ ","電話":"075-841-4520","URL":null,"EMAIL":null,"latitude":35.0142043,"longitude":135.7427522},{"店名":"フナツ商会","住所":"〒616-8163　京都府京都市右京区太秦西蜂岡町６ ","電話":"075-861-1435","URL":"http:\/\/www.funatu.jp","EMAIL":null,"latitude":35.0151323,"longitude":135.7030433},{"店名":"松下商会","住所":"〒604-8417　京都府京都市中京区旧二条七本松西入","電話":"075-841-1771","URL":null,"EMAIL":null,"latitude":35.0159105,"longitude":135.7384679},{"店名":"スポーツサイクルヤマネ","住所":"〒604-0075　京都府京都市中京区竹屋町堀川東入５０３ ","電話":"075-231-3347","URL":"http:\/\/www.jin.ne.jp\/yamane","EMAIL":"yamane@jin.ne.jp","latitude":35.0162916,"longitude":135.7530123},{"店名":"丸新自転車商会","住所":"〒604-0005　京都府京都市中京区丸太町通新町東入玉植町２２４－６ ","電話":"075-231-6756","URL":null,"EMAIL":null,"latitude":35.0172569,"longitude":135.7569658},{"店名":"サイクルショップエイリン丸太町店スポーツ車専門店","住所":"〒602-0878　京都府京都市上京区高島町３３８－２ ","電話":"075-231-3598","URL":null,"EMAIL":null,"latitude":35.0172664,"longitude":135.7687875},{"店名":"キヨセサイクルショップ","住所":"〒606-8322　京都府京都市左京区岡崎入江町４４－３ ","電話":"075-771-2930","URL":null,"EMAIL":null,"latitude":35.0174735,"longitude":135.7838898},{"店名":"竹内自転車商会","住所":"〒606-8395　京都府京都市左京区丸太町通川端東入東丸太町２６ ","電話":"075-771-7261","URL":null,"EMAIL":null,"latitude":35.017697,"longitude":135.774934},{"店名":"サイクルショップエイリン熊野店","住所":"〒606-8392　京都府京都市左京区聖護院山王町１１－１ ","電話":"075-761-3331","URL":null,"EMAIL":null,"latitude":35.0180497,"longitude":135.7785868},{"店名":"羽賀モーターサイクル","住所":"〒616-8341　京都府京都市右京区嵯峨甲塚町１２－２ ","電話":"代 075-881-1950","URL":null,"EMAIL":null,"latitude":35.0183764,"longitude":135.6897583},{"店名":"羽賀モーターサイクル","住所":"〒616-8341　京都府京都市右京区嵯峨甲塚町１２－２ ","電話":"075-861-0045","URL":null,"EMAIL":null,"latitude":35.0183764,"longitude":135.6897583},{"店名":"コンズサイクル常盤店","住所":"〒616-8216　京都府京都市右京区常盤一ノ井町４ ","電話":"075-882-8800","URL":null,"EMAIL":null,"latitude":35.0189212,"longitude":135.711876},{"店名":"サイクルショップケークラフト","住所":"〒616-8055　京都府京都市右京区花園車道町９－６ ","電話":"075-464-1033","URL":"http:\/\/www.13k-craft.com","EMAIL":"info@13k-craft.com","latitude":35.0194708,"longitude":135.7216471},{"店名":"石田自転車店","住所":"〒616-8224　京都府京都市右京区常盤窪町２－１９ ","電話":"075-861-3017","URL":null,"EMAIL":null,"latitude":35.0195624,"longitude":135.7053375},{"店名":"伊藤自転車店","住所":"〒616-8176　京都府京都市右京区太秦乾町１－２６ ","電話":"075-871-4471","URL":null,"EMAIL":null,"latitude":35.0196735,"longitude":135.6982075},{"店名":"清水自転車京都店","住所":"〒616-8224　京都府京都市右京区常盤窪町１５－２０ ","電話":"075-872-8646","URL":null,"EMAIL":null,"latitude":35.0204818,"longitude":135.7063012},{"店名":"ＹＯＵＳＨＯＰイケダ","住所":"〒604-8467　京都府京都市中京区西ノ京大炊御門町８－４ ","電話":"075-461-8829","URL":null,"EMAIL":null,"latitude":35.0209541,"longitude":135.7285964},{"店名":"池田モータース商会","住所":"〒604-8467　京都府京都市中京区西ノ京大炊御門町８－４ ","電話":"075-461-8829","URL":null,"EMAIL":null,"latitude":35.0209541,"longitude":135.7285964},{"店名":"ピーコック","住所":"〒616-8355　京都府京都市右京区嵯峨新宮町５４－２４ ","電話":"075-861-2848","URL":null,"EMAIL":null,"latitude":35.0210011,"longitude":135.6843529},{"店名":"タケウチ商会","住所":"〒602-0856　京都府京都市上京区河原町荒神口角荒神１１６ ","電話":"075-221-3443","URL":null,"EMAIL":null,"latitude":35.0213131,"longitude":135.7695295},{"店名":"宮田商店","住所":"〒606-8315　京都府京都市左京区吉田近衛町４－３ ","電話":"075-771-2158","URL":null,"EMAIL":null,"latitude":35.0217021,"longitude":135.7819198},{"店名":"ＢＢハウス・マルニ","住所":"〒606-8413　京都府京都市左京区浄土寺下馬場町１００ ","電話":"075-771-6644","URL":null,"EMAIL":"bbhousemaruni@nifty.com","latitude":35.0230076,"longitude":135.7920967},{"店名":"自転車のきゅうべえ千本中立売店","住所":"〒602-8275　京都府京都市上京区革堂前之町１０１ ","電話":"075-406-1960","URL":null,"EMAIL":null,"latitude":35.0233571,"longitude":135.7422729},{"店名":"神楽坂モータース","住所":"〒606-8306　京都府京都市左京区吉田中阿達町３７ ","電話":"075-771-5004","URL":null,"EMAIL":null,"latitude":35.0249518,"longitude":135.7763174},{"店名":"自転車のきゅうべえ白梅町店","住所":"〒603-8331　京都府京都市北区大将軍西町１８０－１ ","電話":"075-467-9598","URL":"http:\/\/city.qbei.co.jp","EMAIL":"hakubaicho@qbei.co.jp","latitude":35.0251039,"longitude":135.7312294},{"店名":"自転車屋トリップバイク","住所":"〒606-8302　京都府京都市左京区吉田牛ノ宮町１９－７ ","電話":"075-708-2606","URL":null,"EMAIL":null,"latitude":35.0251296,"longitude":135.7768535},{"店名":"サイクルサービスミズタニ","住所":"〒602-8376　京都府京都市上京区大東町９５ ","電話":"075-467-1838","URL":null,"EMAIL":null,"latitude":35.025897,"longitude":135.7352394},{"店名":"松山自転車商会","住所":"〒616-8015　京都府京都市右京区谷口園町２４ ","電話":"075-461-6791","URL":null,"EMAIL":null,"latitude":35.0260924,"longitude":135.7197332},{"店名":"清水自転車衣笠店","住所":"〒603-8344　京都府京都市北区等持院南町７５ ","電話":"075-467-0112","URL":null,"EMAIL":null,"latitude":35.0261258,"longitude":135.72423},{"店名":"サイクルショップ・キタ","住所":"〒602-8455　京都府京都市上京区千本通一条上る泰童片原町６５６ ","電話":"075-461-3696","URL":null,"EMAIL":"kita@kyoto-senbon.or.jp","latitude":35.0271907,"longitude":135.7422334},{"店名":"サイクルショップ栄輪","住所":"〒606-8203　京都府京都市左京区田中関田町２８－４ ","電話":"075-752-0292","URL":null,"EMAIL":null,"latitude":35.028498,"longitude":135.7747409},{"店名":"サクラ自転車百万遍店","住所":"〒606-8203　京都府京都市左京区田中関田町２－７－１Ｆ ","電話":"075-751-1566","URL":null,"EMAIL":null,"latitude":35.0285543,"longitude":135.7771396},{"店名":"サイクルショップエイリン同志社前店","住所":"〒602-0033　京都府京都市上京区今出川通室町東入今出川町３１３ ","電話":"075-432-7874","URL":null,"EMAIL":null,"latitude":35.0292708,"longitude":135.7582327},{"店名":"コンズサイクル上七軒店","住所":"〒602-8325　京都府京都市上京区今出川通七本松西入毘沙門町４８４ ","電話":"075-467-8155","URL":null,"EMAIL":null,"latitude":35.029593,"longitude":135.739276},{"店名":"サイクルベースあさひ西陣店","住所":"〒602-8442　京都府京都市上京区大宮通今出川下る薬師町２２６－２ ","電話":"075-417-1077","URL":null,"EMAIL":null,"latitude":35.029626,"longitude":135.748543},{"店名":"桜井モータース","住所":"〒602-8435　京都府京都市上京区元伊佐町２８０ ","電話":"075-441-5591","URL":null,"EMAIL":null,"latitude":35.0299123,"longitude":135.7502331},{"店名":"タケダモータース／出町店","住所":"〒602-0822　京都府京都市上京区河原町通今出川上る青龍町２４７ ","電話":"075-231-1091","URL":null,"EMAIL":null,"latitude":35.030279,"longitude":135.7700362},{"店名":"有限会社コセキサイクリングセンター","住所":"〒602-8325　京都府京都市上京区七本松今出川上毘沙門４９６－１７ ","電話":"075-463-3428","URL":null,"EMAIL":null,"latitude":35.0304812,"longitude":135.7388668},{"店名":"有限会社アイバ・サイクル","住所":"〒606-8206　京都府京都市左京区川端御蔭橋下 ","電話":"075-781-2632","URL":null,"EMAIL":null,"latitude":35.033956,"longitude":135.7749717},{"店名":"木代商会","住所":"〒602-8418　京都府京都市上京区妙蓮寺前町３４１ ","電話":"075-441-4490","URL":null,"EMAIL":null,"latitude":35.0340564,"longitude":135.7494497},{"店名":"あおぞらオート","住所":"〒602-8307　京都府京都市上京区閻魔前町１０－１ ","電話":"075-441-6527","URL":null,"EMAIL":null,"latitude":35.035731,"longitude":135.7409199},{"店名":"矢沢商会","住所":"〒603-8311　京都府京都市北区紫野上柏野町１７ ","電話":"075-462-0847","URL":null,"EMAIL":null,"latitude":35.0360031,"longitude":135.7389506},{"店名":"荒川自転車店","住所":"〒602-0012　京都府京都市上京区烏丸鞍馬口下 ","電話":"075-441-6554","URL":"http:\/\/bmx-arakawa.com","EMAIL":null,"latitude":35.0372018,"longitude":135.7594697},{"店名":"シンクサイクルスタジオ","住所":"〒603-8362　京都府京都市北区衣笠馬場町４６－５ ","電話":"075-461-1596","URL":null,"EMAIL":null,"latitude":35.0374472,"longitude":135.7309569},{"店名":"サイクルショップエイリン烏丸鞍馬口店","住所":"〒603-8152　京都府京都市北区小山町２２８－４ ","電話":"075-415-7177","URL":null,"EMAIL":null,"latitude":35.0378228,"longitude":135.7591211},{"店名":"松本自転車店","住所":"〒606-8233　京都府京都市左京区田中北春菜町２６ ","電話":"075-781-9609","URL":null,"EMAIL":null,"latitude":35.0378534,"longitude":135.7848334},{"店名":"ジャイアントストア京都紫明通","住所":"〒603-8156　京都府京都市北区小山中溝町１４－１３ ","電話":"075-417-0620","URL":null,"EMAIL":null,"latitude":35.0388477,"longitude":135.7562407},{"店名":"サイクルベースあさひ高野店","住所":"〒606-8107　京都府京都市左京区高野東開町１－８ ","電話":"075-706-8417","URL":null,"EMAIL":null,"latitude":35.0390532,"longitude":135.7818725},{"店名":"サイクルショップエイリン紫野店","住所":"〒603-8235　京都府京都市北区紫野下御輿町５－５ ","電話":"075-431-5718","URL":null,"EMAIL":null,"latitude":35.0406248,"longitude":135.7388756},{"店名":"自転車のきゅうべえ／下鴨店","住所":"〒606-0816　京都府京都市左京区下鴨松ノ木町７１－２ ","電話":"075-722-0766","URL":"http:\/\/www.qbei.jp","EMAIL":null,"latitude":35.0407586,"longitude":135.7713092},{"店名":"コンズサイクルカナート洛北店","住所":"〒606-8103　京都府京都市左京区高野西開町３６－１Ｆ ","電話":"075-723-3666","URL":"http:\/\/www.konscycle.com","EMAIL":null,"latitude":35.041078,"longitude":135.7789448},{"店名":"シバタモーターサイクルシバタモーターサイクル値引き＆大特典ありのお店！どんな特典かは来てのお楽しみ！！","住所":"〒601-8437　京都府京都市南区九条大宮下 ","電話":"075-691-7000","URL":null,"EMAIL":null,"latitude":35.0413236,"longitude":135.7154455},{"店名":"トムスクラフト","住所":"〒603-8175　京都府京都市北区紫野下鳥田町１－３ ","電話":"075-492-4950","URL":null,"EMAIL":null,"latitude":35.0424527,"longitude":135.75148},{"店名":"サイクルショップエイリン北大路店","住所":"〒603-8141　京都府京都市北区小山西上総町２０ ","電話":"075-493-0950","URL":null,"EMAIL":null,"latitude":35.0433944,"longitude":135.7562963},{"店名":"林自転車店","住所":"〒606-8184　京都府京都市左京区一乗寺払殿町５４ ","電話":"075-781-5628","URL":"http:\/\/homepage3.nifty.com\/fj5\/","EMAIL":"fj5@nifty.com","latitude":35.043886,"longitude":135.7871664},{"店名":"サイクルベースあさひ北大路店","住所":"〒606-0812　京都府京都市左京区下鴨上川原町３８ ","電話":"075-708-1530","URL":null,"EMAIL":null,"latitude":35.044011,"longitude":135.7651346},{"店名":"根本自転車店","住所":"〒603-8212　京都府京都市北区紫野石龍町２３－１ ","電話":"075-491-1526","URL":null,"EMAIL":null,"latitude":35.0440723,"longitude":135.7502384},{"店名":"中田商会","住所":"〒606-8106　京都府京都市左京区高野玉岡町６８ ","電話":"075-781-3941","URL":null,"EMAIL":null,"latitude":35.0444054,"longitude":135.7839416},{"店名":"中村商会","住所":"〒603-8206　京都府京都市北区紫竹西南町２ ","電話":"075-491-4593","URL":null,"EMAIL":null,"latitude":35.0455523,"longitude":135.7468193},{"店名":"自転車サクラ北山店","住所":"〒603-8115　京都府京都市北区紫竹下本町４７－７ ","電話":"075-491-2345","URL":null,"EMAIL":null,"latitude":35.0497574,"longitude":135.7517828},{"店名":"自転車のきゅうべえ／修学院店","住所":"〒606-8004　京都府京都市左京区山端川端町６－６ ","電話":"075-781-7801","URL":null,"EMAIL":null,"latitude":35.0511879,"longitude":135.7896771},{"店名":"玉田サイクルショップ北山本店","住所":"〒603-8052　京都府京都市北区上賀茂松本町８２ ","電話":"075-791-9500","URL":null,"EMAIL":null,"latitude":35.0532127,"longitude":135.7653289},{"店名":"有限会社南星商会上賀茂店有限会社南星商会上賀茂店京都市北区バイク・原付・自転車、新車・中古車取扱い","住所":"〒603-8023　京都府京都市北区上賀茂東上之段町３９－２ ","電話":"075-701-5705","URL":null,"EMAIL":null,"latitude":35.0690246,"longitude":135.752043},{"店名":"タケダモータース／岩倉店","住所":"〒606-0014　京都府京都市左京区岩倉西河原町１９５－２ ","電話":"075-791-5167","URL":null,"EMAIL":null,"latitude":35.073238,"longitude":135.7841021},{"店名":"高山自転車商会","住所":"〒601-0251　京都府京都市右京区京北周山町上代８－２ ","電話":"075-852-0608","URL":null,"EMAIL":null,"latitude":35.1565298,"longitude":135.6312915}]}