{"convini":[{"name":"ローソン 八坂神社前店","latitude":35.0034967,"longitude":135.776967099999,"address":"京都市東山区 四条通大和大路東入祇園町南側543","worldmeshcd":2052353680,"setumei":""},
{"name":"セブン-イレブン京都牛ケ瀬店","latitude":34.968903,"longitude":135.714559,"address":"京都市 西京区下津林南中島町110","worldmeshcd":2052354601,"setumei":""},
{"name":"京都クラフトマート 新・都ホテル店","latitude":34.9837809999999,"longitude":135.756071,"address":"京都市南区西九条院町１７ 新・都ホテル B1F","worldmeshcd":2052354631,"setumei":""},
{"name":"ミニストップ京都木屋町店","latitude":35.0072389999999,"longitude":135.770174,"address":"京都市中京区北車屋町２６７−３","worldmeshcd":2052353589,"setumei":""},
{"name":"ローソン 京都駅前店","latitude":34.9869641,"longitude":135.7573173,"address":"京都市下京区 三哲通西洞院東入東塩小路町８４３−２","worldmeshcd":2052353589,"setumei":""},
{"name":"ファミリーマート阪急桂駅前店","latitude":34.9800184,"longitude":135.702405499999,"address":"京都市西京区桂南巽町１２８−３","worldmeshcd":2052354602,"setumei":""},
{"name":"ローソン 三条大橋店","latitude":35.008865,"longitude":135.7711761,"address":"京都市中京区 三条通河原町東入中島町１１０","worldmeshcd":2052354641,"setumei":""},
{"name":"セブン-イレブンリサーチパーク９号館店","latitude":34.9957680999999,"longitude":135.7371458,"address":"京都市下京区中堂寺粟田町９１","worldmeshcd":2052354558,"setumei":""},
{"name":"ローソン 東山三条神宮道店","latitude":35.009568,"longitude":135.783300999999,"address":"京都市東山区 三条通白川橋東入ル夷町１６３","worldmeshcd":2052354514,"setumei":""},
{"name":"セブン-イレブン京都駅八条口店","latitude":34.9845254,"longitude":135.755542399999,"address":"京都市下京区東塩小路釜殿町３１−１","worldmeshcd":2052354513,"setumei":""},
{"name":"ファミリーマート京都烏丸松原店","latitude":34.9988194,"longitude":135.7595237,"address":"京都市下京区 松原通烏丸西入玉津島町３１６－２","worldmeshcd":2052353645,"setumei":""},
{"name":"ローソン 烏丸三条店","latitude":35.009332,"longitude":135.759396,"address":"京都市中京区場之町５９９","worldmeshcd":2052354547,"setumei":""},
{"name":"アンスリー出町柳店","latitude":35.0298937999999,"longitude":135.772637,"address":"京都市左京区田中下柳町１２","worldmeshcd":2052354633,"setumei":""},
{"name":"ファミリーマート四条大宮店","latitude":35.0034233,"longitude":135.747487399999,"address":"京都市中京区壬生賀陽御所町３−２８","worldmeshcd":2052354548,"setumei":""},
{"name":"ファミリーマート四条花見小路店","latitude":35.0036955,"longitude":135.7745314,"address":"京都市東山区祇園町南側５７３−４","worldmeshcd":2052353692,"setumei":""},
{"name":"ファミリーマート近鉄京都駅３番ホーム前店","latitude":34.984773,"longitude":135.7578653,"address":"京都市下京区 東塩小路釜殿町３１－１","worldmeshcd":2052351418,"setumei":""},
{"name":"キヨスク京都上りホーム(2号)","latitude":34.9847749,"longitude":135.7598053,"address":"京都市下京区東塩小路高倉町８−３","worldmeshcd":2052354670,"setumei":""},
{"name":"ローソン 竹田街道針小路店","latitude":34.9830413,"longitude":135.7609912,"address":"京都市南区東九条西山王町１１","worldmeshcd":2052353680,"setumei":""},
{"name":"ミニストップ 京都水族館前","latitude":34.988027,"longitude":135.748980999999,"address":"京都市下京区 大宮通木津屋橋上る上之町439番地1","worldmeshcd":2052354519,"setumei":""},
{"name":"セブン-イレブンおみやげ街道ＪＲ京都駅西口店","latitude":34.9870029,"longitude":135.7604314,"address":"京都市 下京区烏丸通塩小路下ル東塩小路町","worldmeshcd":2052353692,"setumei":""}]}
