{"ishibumi":[{"id":"GA001","name":"三井寺観音道【道標】","address":"滋賀県大津市横木一丁目","latitude":34.991417,"longitude":135.82925},{"id":"GA002","name":"牛尾山【道標】","address":"滋賀県大津市横木一丁目","latitude":34.991111,"longitude":135.832861},{"id":"GA003","name":"東海道／逢坂関【道標】","address":"滋賀県大津市横木一丁目(閑栖寺前)","latitude":34.991167,"longitude":135.835417},{"id":"GA004","name":"柳緑花紅【道標】","address":"滋賀県大津市追分町","latitude":34.990972,"longitude":135.836306},{"id":"GA005","name":"蓮如上人／是より十町【道標】","address":"滋賀県大津市追分町","latitude":34.990972,"longitude":135.836306},{"id":"GA006","name":"旧藤尾小学校跡地","address":"滋賀県大津市横木一丁目","latitude":34.991194,"longitude":135.834083},{"id":"GA007","name":"山崎院跡","address":"京都府乙訓郡大山崎町大山崎上ノ田","latitude":34.893778,"longitude":135.682083},{"id":"GA008","name":"西川耕蔵招魂碑","address":"滋賀県大津市園城寺町(三井寺内)","latitude":35.009722,"longitude":135.854611},{"id":"GA009","name":"甲子烈士無名氏墓","address":"京都府乙訓郡大山崎町大山崎白味才(安養院内)","latitude":34.898333,"longitude":135.684222},{"id":"GA010","name":"是より東　山城国【道標】","address":"京都府乙訓郡大山崎町大山崎西谷","latitude":34.891472,"longitude":135.678889},{"id":"GA011","name":"寺戸大塚古墳","address":"京都府向日市寺戸町芝山","latitude":34.955833,"longitude":135.688889},{"id":"GA012","name":"長岡宮大極殿遺址","address":"京都府向日市鶏冠井町大極殿(大極殿公園内)","latitude":34.943139,"longitude":135.703389},{"id":"GA013","name":"淀川渡船所","address":"京都府久世郡久御山町西一口","latitude":34.902778,"longitude":135.732222},{"id":"GA014","name":"安養寺","address":"京都府久世郡久御山町東一口","latitude":34.903778,"longitude":135.739917},{"id":"GA015","name":"巨椋池干拓碑","address":"京都府宇治市槇島町一ノ坪(巨椋池土地改良区事務所内)","latitude":34.904361,"longitude":135.783861},{"id":"GA016","name":"柳緑花紅【道標】","address":"滋賀県近江八幡市安土町下豊浦(滋賀県立安土城考古博物館内)","latitude":35.149222,"longitude":136.1475},{"id":"GA017","name":"柳緑花紅【道標】","address":"滋賀県大津市追分町(摂取院内)","latitude":34.990806,"longitude":135.840417},{"id":"GA018","name":"粟生・善峰・柳谷方面／京都・嵐山方面","address":"京都府向日市向日町南山","latitude":34.942889,"longitude":135.700111},{"id":"GA019","name":"向日町道路元標","address":"京都府向日市寺戸町中之段","latitude":34.9455,"longitude":135.700806},{"id":"GA020","name":"大原野神社右一里【道標】","address":"京都府向日市寺戸町梅ノ木","latitude":34.951639,"longitude":135.70425},{"id":"GA021","name":"淳和天皇御陵・桓武天皇皇后御陵【道標】","address":"京都府向日市寺戸町梅ノ木","latitude":34.951639,"longitude":135.70425},{"id":"GA022","name":"宝菩提院観世音西三町【道標】","address":"京都府向日市寺戸町梅ノ木","latitude":34.951639,"longitude":135.70425},{"id":"GA023","name":"灰方地蔵・岩蔵観世音道【道標】","address":"京都府向日市寺戸町梅ノ木","latitude":34.951639,"longitude":135.70425},{"id":"GA024","name":"桓武天皇皇后御陵【道標】","address":"京都府向日市寺戸町古城","latitude":34.951889,"longitude":135.695194},{"id":"GA025","name":"土御門天皇御陵【道標】","address":"京都府長岡京市梅が丘一丁目","latitude":34.919306,"longitude":135.688611},{"id":"GA026","name":"参陵道【道標】","address":"京都府長岡京市金ヶ原芝","latitude":34.918194,"longitude":135.674361},{"id":"GA027","name":"御陵道改修奉仕記念碑","address":"京都府長岡京市金ヶ原芝","latitude":34.918194,"longitude":135.674361},{"id":"GA028","name":"土御門天皇御陵【道標】","address":"京都府長岡京市金ヶ原金原寺","latitude":34.917889,"longitude":135.672278},{"id":"GA029","name":"弘文天皇御陵参拝道【道標】","address":"滋賀県大津市御陵町","latitude":35.019861,"longitude":135.854944},{"id":"GA030","name":"莵道稚郎子皇子御墓【道標】","address":"京都府宇治市宇治東内","latitude":34.893861,"longitude":135.807306},{"id":"GA031","name":"宇治村道路元標","address":"京都府宇治市五ヶ庄西浦","latitude":34.9155,"longitude":135.801028},{"id":"GA032","name":"残念さん山本文之助墓","address":"兵庫県尼崎市杭瀬南新町四丁目(杭瀬東墓地内)","latitude":34.718417,"longitude":135.429111},{"id":"GA033","name":"聖武天皇・元明天皇・元正天皇陵【道標】","address":"奈良県奈良市中筋町","latitude":34.684472,"longitude":135.827583},{"id":"GA034","name":"元明天皇・元正天皇陵【道標】","address":"奈良県奈良市法蓮町","latitude":34.691639,"longitude":135.828583},{"id":"GA035","name":"孝元天皇御陵【道標】","address":"奈良県橿原市石川町","latitude":34.483028,"longitude":135.796139},{"id":"GA036","name":"天武天皇・持統天皇・欽明天皇・孝元天皇御陵【道標】","address":"奈良県橿原市貝瀬町(近鉄岡寺駅前)","latitude":34.474417,"longitude":135.796222},{"id":"GA037","name":"垂仁天皇・安康天皇陵【道標】","address":"奈良県奈良市尼辻西町","latitude":34.681667,"longitude":135.782},{"id":"GA038","name":"聖武天皇皇太子那富山墓【道標】","address":"奈良県奈良市法蓮佐保山三丁目","latitude":34.700194,"longitude":135.827944},{"id":"GA039","name":"応神天皇皇后仲姫命御陵参拝道【道標】","address":"大阪府藤井寺市道明寺六丁目","latitude":34.566194,"longitude":135.612833},{"id":"GA040","name":"允恭天皇御陵参拝道【道標】","address":"大阪府藤井寺市市林五丁目","latitude":34.573028,"longitude":135.614889},{"id":"GA041","name":"崇神天皇・景行天皇・継体天皇皇后衾田陵【道標】","address":"奈良県天理市柳本町(JR柳本駅前)","latitude":34.559472,"longitude":135.838806},{"id":"GA042","name":"崇神天皇・景行天皇陵他【道標】","address":"奈良県天理市柳本町","latitude":34.559,"longitude":135.845361},{"id":"GA043","name":"仁徳天皇皇后磐之媛命陵【道標】","address":"奈良県奈良市法華寺町","latitude":34.691583,"longitude":135.806556},{"id":"GA044","name":"仲哀天皇御陵参拝道【道標】","address":"大阪府藤井寺市藤井寺二丁目","latitude":34.56925,"longitude":135.595833},{"id":"GA045","name":"仁賢天皇・清寧天皇・日本武尊御陵参拝道【道標】","address":"大阪府羽曳野市白鳥一丁目","latitude":34.552389,"longitude":135.607083},{"id":"GA046","name":"反正天皇・履中天皇・仁徳天皇御陵道【道標】","address":"大阪府堺市堺区三国ヶ丘御幸通【道標】","latitude":34.573944,"longitude":135.483889},{"id":"GA047","name":"顕宗天皇陵・武烈天皇陵【道標】","address":"奈良県香芝市下田西一丁目","latitude":34.542917,"longitude":135.705556},{"id":"GA048","name":"孝霊天皇御陵・武烈天皇御陵【道標】","address":"奈良県北葛城郡王寺町本町二丁目","latitude":34.587306,"longitude":135.70575},{"id":"GA049","name":"成務天皇陵・称徳天皇陵・神功皇后陵・狭木之寺間陵【道標】","address":"奈良県奈良市二条町(西大寺橋東詰)","latitude":34.694222,"longitude":135.786056},{"id":"GA050","name":"八幡町道路元標","address":"京都府八幡市八幡山柴","latitude":34.881333,"longitude":135.703722},{"id":"GA051","name":"宇治町道路元標","address":"京都府宇治市宇治妙楽","latitude":34.892194,"longitude":135.805556},{"id":"GA052","name":"新神足村道路元標","address":"京都府長岡京市開田二丁目","latitude":34.926194,"longitude":135.698833},{"id":"GA053","name":"元明天皇・元正天皇御陵【道標】","address":"奈良県奈良市奈良阪町","latitude":34.706528,"longitude":135.832583},{"id":"GA054","name":"槇島村道路元標","address":"京都府宇治市槇島町門口","latitude":34.900722,"longitude":135.799389},{"id":"GA055","name":"大津市道路元標","address":"滋賀県大津市京町一丁目","latitude":35.007917,"longitude":135.861944},{"id":"GA056","name":"戊辰役東軍戦死者埋骨地","address":"京都府八幡市八幡苗田(番賀共同墓地内)","latitude":34.874222,"longitude":135.711472},{"id":"GA057","name":"戊辰史蹟念仏寺","address":"京都府八幡市八幡山路(念仏寺内)","latitude":34.881222,"longitude":135.705611},{"id":"GA058","name":"崇道天皇八嶋陵・円照寺宮墓【道標】","address":"奈良県奈良市山町","latitude":34.642722,"longitude":135.838139},{"id":"HI001","name":"粟田焼発祥地","address":"東山区三条通神宮道通東入南側(粟田神社参道)","latitude":35.009417,"longitude":135.783694},{"id":"HI002","name":"和気亀亭宅跡","address":"東山区五条通東大路西入北側","latitude":34.994472,"longitude":135.775278},{"id":"HI003","name":"仁阿弥高橋道八宅","address":"東山区五条通東大路西入南側","latitude":34.9945,"longitude":135.775278},{"id":"HI004","name":"清水焼発祥地五条坂","address":"東山区五条通東大路西入北側(若宮八幡宮前)","latitude":34.994639,"longitude":135.774639},{"id":"HI005","name":"御陵衛士屯所跡","address":"東山区下河原町(月真院前)","latitude":35.001083,"longitude":135.780056},{"id":"HI006","name":"翠紅館跡","address":"東山区桝屋町","latitude":34.999083,"longitude":135.78125},{"id":"HI007","name":"ＢＢＳ運動発祥地","address":"東山区妙法院前側町(京都女子高校前)","latitude":34.98925,"longitude":135.777333},{"id":"HI008","name":"今熊野猿楽","address":"東山今熊野椥ノ森町(新熊野神社内)","latitude":34.984722,"longitude":135.773694},{"id":"HI009","name":"法住寺殿蹟","address":"東山区三十三間堂廻り(法住寺門前)","latitude":34.987472,"longitude":135.772222},{"id":"HI010","name":"法住寺殿址","address":"東山区三十三間堂廻り(三十三間堂内)","latitude":34.988444,"longitude":135.771917},{"id":"HI011","name":"六道の辻","address":"東山区松原通東大路西入轆轤町(六道珍皇寺前)","latitude":34.997694,"longitude":135.775333},{"id":"HI012","name":"小野篁卿旧跡","address":"東山区松原通東大路西入轆轤町(六道珍皇寺前)","latitude":34.997667,"longitude":135.775361},{"id":"HI013","name":"六道の辻","address":"東山区松原通大和大路東入一筋目西南角(西福寺前)","latitude":34.99775,"longitude":135.773583},{"id":"HI014","name":"愛宕念仏寺元地","address":"東山区松原通大和大路東入北側","latitude":34.998139,"longitude":135.773},{"id":"HI015","name":"たばこ製造工場発祥地","address":"東山区上新シ町(社団法人関西厚生協会前)","latitude":34.993694,"longitude":135.773306},{"id":"HI016","name":"粟田口","address":"東山区神宮道通三条下る東側(粟田小学校前)","latitude":35.009167,"longitude":135.782556},{"id":"HI017","name":"明治天皇御小休所下京第二十七区小学校阯","address":"東山区正面通本町東入南側","latitude":34.991583,"longitude":135.770444},{"id":"HI018","name":"明保野亭跡","address":"東山区清水二丁目(産寧坂東側)","latitude":34.993833,"longitude":135.780861},{"id":"HI019","name":"月下氷人石","address":"東山区祇園町北側(八坂神社南楼門外)","latitude":35.002833,"longitude":135.778333},{"id":"HI020","name":"乾山記念碑","address":"東山区清水一丁目(清水寺内)","latitude":34.993833,"longitude":135.784889},{"id":"HI021","name":"仁清記念碑","address":"東山区清水一丁目(清水寺内)","latitude":34.993806,"longitude":135.784889},{"id":"HI022","name":"阿国歌舞伎発祥地","address":"東山区川端通四条下る(南座西側)","latitude":35.003472,"longitude":135.771917},{"id":"HI023","name":"奥田頴川宅蹟","address":"東山区大黒町通五条上る東側","latitude":34.996667,"longitude":135.771222},{"id":"HI024","name":"青木聾米宅蹟","address":"東山区川端通四条上る東側(白川畔)","latitude":35.005194,"longitude":135.772472},{"id":"HI025","name":"松永貞徳柿園址","address":"東山区本町通泉涌寺道上る東側(一橋小学校内)","latitude":34.983972,"longitude":135.770667},{"id":"HI026","name":"七卿西竄紀念碑","address":"東山区東山通七条(妙法院内)","latitude":34.990972,"longitude":135.774833},{"id":"HI027","name":"明治天皇妙法院行在所","address":"東山区東山通七条(妙法院内)","latitude":34.990111,"longitude":135.774833},{"id":"HI028","name":"鳥羽伏見戦防長殉難者墓","address":"東山区本町十五丁目","latitude":34.974083,"longitude":135.776194},{"id":"HI029","name":"小川亭跡","address":"東山区縄手通若松下る西側","latitude":35.007444,"longitude":135.772917},{"id":"HI030","name":"竹内栖鳳邸跡","address":"東山区八坂上町(高台寺南門前)","latitude":34.999083,"longitude":135.779667},{"id":"HI031","name":"刃物発祥地","address":"東山区祇園町北側(八坂神社内)","latitude":35.004,"longitude":135.778722},{"id":"HI032","name":"竹久夢二寓居の跡","address":"東山区桝屋町","latitude":34.998167,"longitude":135.780667},{"id":"HI033","name":"平氏六波羅第・六波羅探題府址","address":"東山区六原通松原下る西側(六波羅蜜寺内)","latitude":34.996944,"longitude":135.773472},{"id":"HI034","name":"大雅堂旧跡","address":"東山区鷲尾町(円山音楽堂内)","latitude":35.002111,"longitude":135.780611},{"id":"HI035","name":"西行法師蔡華園院旧蹟","address":"東山区鷲尾町(西行庵内)","latitude":35.001806,"longitude":135.780944},{"id":"HI036","name":"明智光秀首塚碑","address":"東山区三条通白川橋下る東入","latitude":35.008389,"longitude":135.780417},{"id":"HI037","name":"瓜生石","address":"東山区林下町(知恩院黒門前)","latitude":35.006361,"longitude":135.781806},{"id":"HI038","name":"大谷本願寺故地","address":"東山区林下町(元大谷崇泰院前)","latitude":35.006111,"longitude":135.781833},{"id":"HI039","name":"歌の中山清閑寺","address":"東山区清閑寺山ノ内山町","latitude":34.989917,"longitude":135.787083},{"id":"HI040","name":"佐藤継信・忠信塚","address":"東山区渋谷通東大路東入北側","latitude":34.9925,"longitude":135.775556},{"id":"HI041","name":"三条小鍛冶宗近古跡","address":"東山区粟田口鍛冶町(仏光寺本廟内)","latitude":35.008444,"longitude":135.785972},{"id":"HI042","name":"小松谷御坊旧跡","address":"東山区上馬町(正林寺前)","latitude":34.991167,"longitude":135.779861},{"id":"HI043","name":"療病院址","address":"東山区粟田口三条坊町(青蓮院内)","latitude":35.007639,"longitude":135.783139},{"id":"HI044","name":"青蓮院旧仮御所","address":"東山区粟田口三条坊町(青蓮院前)","latitude":35.007444,"longitude":135.782611},{"id":"HI045","name":"蓮如上人御誕生地","address":"東山区林下町(元大谷崇泰院前)","latitude":35.006111,"longitude":135.781972},{"id":"HI046","name":"月照・信海両上人遺蹟","address":"東山区清水一丁目(清水寺北総門前)","latitude":34.995056,"longitude":135.784306},{"id":"HI048","name":"真清水蔵六宅跡","address":"東山区五条通大和大路東入北側","latitude":34.99525,"longitude":135.772444},{"id":"HI049","name":"孝明天皇御胞衣埋納所","address":"東山区五条通東大路西入北側(若宮八幡宮内)","latitude":34.995139,"longitude":135.774806},{"id":"HI050","name":"円光大師旧跡","address":"東山区上馬町(正林寺門前)","latitude":34.991111,"longitude":135.779778},{"id":"HI051","name":"戊辰役殉難士菩提所","address":"東山区本町十五丁目(退耕庵前)","latitude":34.979806,"longitude":135.771639},{"id":"HI052","name":"親鸞上人旧御廟所・本願寺発祥地・蓮如上人御誕生地","address":"東山区林下町(元大谷崇泰院前)","latitude":35.006139,"longitude":135.781917},{"id":"HI053","name":"北政所化粧御殿跡","address":"東山区下河原町(円徳院前)","latitude":35.000083,"longitude":135.779833},{"id":"HI054","name":"佛教大学建学地","address":"東山区林下町(知恩院山門前)","latitude":35.004722,"longitude":135.781389},{"id":"HI055","name":"元和キリシタン殉教の地","address":"東山区川端通正面上る西側","latitude":34.991944,"longitude":135.767639},{"id":"HI056","name":"三条通白川橋【道標】","address":"東山区三条通白川橋東詰","latitude":35.009278,"longitude":135.780833},{"id":"HI057","name":"平清の道【道標】","address":"東山区三条通神宮道西北角","latitude":35.009528,"longitude":135.782528},{"id":"HI058","name":"尊勝院庚申堂参道【道標】","address":"東山区粟田口三条坊町","latitude":35.008694,"longitude":135.782639},{"id":"HI059","name":"三条通・大津道【道標】","address":"東山区三条通岡崎道東北角","latitude":35.009556,"longitude":135.784278},{"id":"HI060","name":"三条大橋／大津路【道標】","address":"東山区三条通岡崎道東入北側(民家内)","latitude":35.009056,"longitude":135.785194},{"id":"HI061","name":"祇園・東大谷・知恩院【道標】","address":"東山区金園町(金剛寺前)","latitude":34.998444,"longitude":135.778722},{"id":"HI062","name":"今熊野観音【道標】","address":"東山区泉涌寺山内町(今熊野観音寺前)","latitude":34.979278,"longitude":135.780583},{"id":"HI063","name":"京大仏・今熊野【道標】","address":"東山区泉涌寺山内町(今熊野観音寺内)","latitude":34.979472,"longitude":135.780611},{"id":"HI064","name":"大仏・清水【道標】","address":"東山区泉涌寺山内町(善能寺前)","latitude":34.978639,"longitude":135.780222},{"id":"HI066","name":"洛陽新熊野大権現道【道標】","address":"東山区今熊野椥ノ森町(新熊野神社内)","latitude":34.984444,"longitude":135.77375},{"id":"HI067","name":"今熊野観音寺近道【道標】","address":"東山区泉涌寺山内町(今熊野観音寺内)","latitude":34.979472,"longitude":135.780611},{"id":"HI068","name":"高台寺・清水寺・円山公園・知恩院【道標】","address":"東山区鷲尾町","latitude":35.002028,"longitude":135.780583},{"id":"HI069","name":"高台寺・清水寺・円山公園・知恩院【道標】","address":"東山区鷲尾町","latitude":35.001889,"longitude":135.780222},{"id":"HI070","name":"渋谷街道【道標】","address":"東山区清閑寺山ノ内町","latitude":34.989028,"longitude":135.786694},{"id":"HI071","name":"清閑寺／山科・醍醐・大津道【道標】","address":"東山区清閑寺山ノ内町","latitude":34.989917,"longitude":135.787083},{"id":"HI073","name":"高台寺・清水【道標】","address":"東山区鷲尾町","latitude":35.001806,"longitude":135.780833},{"id":"HI074","name":"東梅宮並明智光秀墳【道標】","address":"東山区三条通白川橋下る東側","latitude":35.008472,"longitude":135.780306},{"id":"HI075","name":"門前白川道【道標】","address":"東山区東大路通白川西入北側","latitude":35.006528,"longitude":135.777528},{"id":"HI076","name":"豊国神社へ是より一町【道標】","address":"東山区茶屋町","latitude":34.989333,"longitude":135.77125},{"id":"HI077","name":"東山聖天参道【道標】","address":"東山区妙法院前側町","latitude":34.989444,"longitude":135.774694},{"id":"HI081","name":"道元禅師荼毘御遺跡塔","address":"東山区鷲尾町","latitude":35.001778,"longitude":135.780806},{"id":"HI082","name":"法然上人御遺跡青龍寺","address":"東山区八坂上町","latitude":34.99925,"longitude":135.779083},{"id":"HI083","name":"大谷道【道標】","address":"東山区五条坂東大路東入","latitude":34.99425,"longitude":135.776361},{"id":"HI084","name":"大谷・鳥部野【道標】","address":"東山区五条坂東大路東入","latitude":34.99425,"longitude":135.776361},{"id":"HI085","name":"清水寺道【道標】","address":"東山区五条坂東大路東入","latitude":34.99425,"longitude":135.776361},{"id":"HI086","name":"豊国廟参道【道標】","address":"東山区妙法院前側町","latitude":34.989333,"longitude":135.775056},{"id":"HI087","name":"成就院【道標】","address":"東山区松原通東大路東入","latitude":34.997361,"longitude":135.77775},{"id":"HI088","name":"東大谷参道【道標】","address":"東山区東大路四条下る東側","latitude":35.002667,"longitude":135.777333},{"id":"HI089","name":"鳥戸野陵・中尾陵参道【道標】","address":"東山区今熊野池田町","latitude":34.985306,"longitude":135.774222},{"id":"HI090","name":"泉山御陵参道【道標】","address":"東山区泉涌寺雀ヶ森町","latitude":34.982528,"longitude":135.77375},{"id":"HI091","name":"稲荷・東福寺道【道標】","address":"東山区泉涌寺雀ヶ森町","latitude":34.9825,"longitude":135.773778},{"id":"HI092","name":"仲恭天皇九条陵・崇徳天皇中宮皇嘉門院月輪南陵参道【道標】","address":"東山区本町十二丁目(JR・京阪東福寺駅東口前)","latitude":34.981194,"longitude":135.770333},{"id":"HI093","name":"延喜式八坂墓","address":"東山区八坂上町(法観寺内)","latitude":34.998417,"longitude":135.779139},{"id":"HI094","name":"伏水街道一之橋旧趾","address":"東山区本町十一丁目(宝樹寺前)","latitude":34.98275,"longitude":135.770333},{"id":"HI095","name":"高山彦九郎先生皇居望拝趾","address":"東山区三条大橋東詰南側","latitude":35.008944,"longitude":135.772528},{"id":"HI096","name":"西山国師御終焉地","address":"東山区本町十九丁目(遣迎院前)","latitude":34.974194,"longitude":135.770833},{"id":"HI097","name":"双林寺道【道標】","address":"東山区鷲尾町","latitude":35.002028,"longitude":135.780611},{"id":"HI098","name":"是より東　山城国【道標】","address":"東山区茶屋町(京都国立博物館内)","latitude":34.989556,"longitude":135.772278},{"id":"HI099","name":"六条天皇陵参道【道標】","address":"東山区清閑寺山ノ内町","latitude":34.989611,"longitude":135.786972},{"id":"HI100","name":"清水道【道標】","address":"東山区祇園町南側","latitude":35.002583,"longitude":135.778417},{"id":"HI101","name":"茶わん坂【道標】","address":"東山区白糸町","latitude":34.995222,"longitude":135.778111},{"id":"HI102","name":"西大谷・清水【道標】","address":"東山区上馬町","latitude":34.991694,"longitude":135.778083},{"id":"HI103","name":"後白河天皇陵参道【道標】","address":"東山区三十三間堂廻り(法住寺前)","latitude":34.987667,"longitude":135.772361},{"id":"HI104","name":"那須与市墓参道【道標】","address":"東山区泉涌寺山内町(即成院内)","latitude":34.981556,"longitude":135.777083},{"id":"HI105","name":"駅伝の碑","address":"東山区三条通川端角(三条大橋東詰北側)","latitude":35.009194,"longitude":135.772056},{"id":"HI107","name":"法観寺境内","address":"東山区八坂上町(法観寺前)","latitude":34.998583,"longitude":135.778861},{"id":"HI108","name":"北政所御殿跡","address":"東山区下河原町","latitude":35.001333,"longitude":135.78},{"id":"HI109","name":"子安塔跡","address":"東山区清水一丁目","latitude":34.995361,"longitude":135.782833},{"id":"HI110","name":"関西統一学舎碑","address":"東山区下河原町(高台寺内)","latitude":35.000583,"longitude":135.781806},{"id":"HI111","name":"歌舞練場碑","address":"東山区祇園町南側(弥栄会館前)","latitude":35.0015,"longitude":135.775},{"id":"HI112","name":"高台寺台所坂・ねねの道【道標】","address":"東山区下河原町(高台寺前)","latitude":35.000472,"longitude":135.779889},{"id":"HI113","name":"開山国阿上人参詣道【道標】","address":"東山区桝屋町","latitude":34.998583,"longitude":135.780806},{"id":"HI114","name":"徳川家康公正室旭姫墓【道標】","address":"東山区本町十五丁目(東福寺南明院前)","latitude":34.973,"longitude":135.773278},{"id":"HI115","name":"防長藩士墓所【道標】","address":"東山区本町十五丁目(東福寺勅使門前)","latitude":34.975,"longitude":135.773417},{"id":"HI116","name":"仲恭天皇九条陵参道【道標】","address":"東山区本町十五丁目(東福寺勅使門前)","latitude":34.975,"longitude":135.773417},{"id":"HI117","name":"旧鹿児島藩士招魂碑【道標】","address":"東山区本町十五丁目(東福寺本坊南側)","latitude":34.976361,"longitude":135.774417},{"id":"HI118","name":"鳥戸野陵・泉山御陵参道【道標】","address":"東山区今熊野宝蔵町","latitude":34.984389,"longitude":135.776389},{"id":"HI119","name":"鳥戸野陵参道【道標】","address":"東山区今熊野泉山町","latitude":34.981639,"longitude":135.778917},{"id":"HI120","name":"孝明天皇陵・英照皇太后陵・後堀河天皇陵参道【道標】","address":"東山区泉涌寺山内町(泉涌寺内)","latitude":34.978444,"longitude":135.780361},{"id":"HI121","name":"泉山御陵参道【道標】","address":"東山区泉涌寺山内町","latitude":34.979333,"longitude":135.779083},{"id":"HI122","name":"三国幽民翁碑【道標】","address":"東山区清水三丁目","latitude":34.996861,"longitude":135.781},{"id":"HI123","name":"芳文翁之墓境内にあり【道標】","address":"東山区清水三丁目","latitude":34.996861,"longitude":135.781},{"id":"HI124","name":"菊池契月之墓此寺にあり【道標】","address":"東山区清水三丁目","latitude":34.996861,"longitude":135.781},{"id":"HI125","name":"頼山陽先生墓碑【道標】","address":"東山区円山町","latitude":35.003111,"longitude":135.780694},{"id":"HI126","name":"京都霊山護国神社南へ三町【道標】","address":"東山区円山町","latitude":35.003111,"longitude":135.780694},{"id":"HI127","name":"後宇多天皇菩提所","address":"東山区本町十五丁目(桂昌院前)","latitude":34.975389,"longitude":135.772278},{"id":"HI128","name":"見真大師御荼毘所道【道標】","address":"東山区今熊野総山町(延仁寺前)","latitude":34.982861,"longitude":135.784},{"id":"HI129","name":"親鸞聖人御荼毘所","address":"東山区今熊野総山町(延仁寺前)","latitude":34.982694,"longitude":135.783833},{"id":"HI130","name":"北座跡","address":"東山区川端通四条上る東側","latitude":35.004361,"longitude":135.772222},{"id":"HI131","name":"大仏殿石垣","address":"東山区茶屋町","latitude":34.992083,"longitude":135.771444},{"id":"HI132","name":"清水ちかみち【道標】","address":"東山区白糸町","latitude":34.995222,"longitude":135.778111},{"id":"HI133","name":"合槌稲荷大明神参道【道標】","address":"東山区中之町","latitude":35.009444,"longitude":135.784333},{"id":"HI134","name":"出世恵美須神社参道【道標】","address":"東山区中之町","latitude":35.009167,"longitude":135.784167},{"id":"HI135","name":"青蓮院宮御墓参道【道標】","address":"東山区粟田口三条坊町","latitude":35.008667,"longitude":135.7835},{"id":"HI136","name":"五条三位俊成卿墓道【道標】","address":"東山区本町十五丁目(正覚庵前)","latitude":34.975056,"longitude":135.773278},{"id":"HI137","name":"庚申堂登口【道標】","address":"東山区粟田口鍛冶町(粟田神社前)","latitude":35.008556,"longitude":135.784361},{"id":"HI138","name":"三十三間堂・大谷【道標】","address":"東山区茶屋町(方広寺内)","latitude":34.991833,"longitude":135.772111},{"id":"HI139","name":"水内杏平漆庵地","address":"東山区正面通大和大路西入北側","latitude":34.991833,"longitude":135.77075},{"id":"HI140","name":"耳塚修営供養碑","address":"東山区正面通大和大路西入南側","latitude":34.991528,"longitude":135.770389},{"id":"HI141","name":"豊太閤三百年祭記念碑","address":"東山区今熊野北日吉町(豊国廟内)","latitude":34.988361,"longitude":135.781861},{"id":"HI142","name":"坂本龍馬お龍「結婚式場」跡","address":"東山区三条通白川橋東入南側","latitude":35.009222,"longitude":135.781333},{"id":"HI143","name":"霊山表忠碑","address":"東山区清閑寺霊山町(京都霊山護国神社内)","latitude":34.999028,"longitude":135.783167},{"id":"HI144","name":"坂本龍馬忠魂碑","address":"東山区清閑寺霊山町(京都霊山護国神社内)","latitude":34.99925,"longitude":135.794444},{"id":"HI145","name":"木戸孝允神道碑","address":"東山区清閑寺霊山町(京都霊山護国神社内)","latitude":34.999194,"longitude":135.783},{"id":"HI146","name":"土佐志士寓居跡","address":"東山区新瓦町東組(三十三間堂南大門東)","latitude":34.986861,"longitude":135.772722},{"id":"HI147","name":"池田屋事変殉難志士墓所跡","address":"東山区若松町","latitude":35.008611,"longitude":135.773639},{"id":"HI148","name":"井上世外詩碑","address":"東山区粟田口高台寺山町","latitude":34.998722,"longitude":135.788389},{"id":"HI149","name":"幕末志士葬送の道","address":"東山区桝屋町(霊明神社神道墓地前)","latitude":34.998667,"longitude":135.781972},{"id":"HI150","name":"佐藤継信・忠信墓","address":"東山区渋谷通東大路東入北側","latitude":34.992639,"longitude":135.775639},{"id":"HI151","name":"佐藤政養招魂碑","address":"東山区渋谷通東大路東入北側","latitude":34.992639,"longitude":135.775722},{"id":"HI152","name":"佐藤文褒翁碑","address":"東山区渋谷通東大路東入北側","latitude":34.992639,"longitude":135.77575},{"id":"HI153","name":"明治天皇御小休所下京第二十七区小学校趾","address":"東山区正面通本町東入南側","latitude":34.991583,"longitude":135.7705},{"id":"HI154","name":"六条天皇御陵・高倉天皇御陵参道【道標】","address":"東山区清閑寺山ノ内町","latitude":34.990028,"longitude":135.788139},{"id":"HI155","name":"六条天皇陵・高倉天皇陵／天智天皇陵・僧正遍照墓参道","address":"東山区清閑寺山ノ内町","latitude":34.989333,"longitude":135.787139},{"id":"HI156","name":"大西郷・月照謀議旧趾","address":"東山区清閑寺山ノ内町(清閑寺内)","latitude":34.989944,"longitude":135.788306},{"id":"HI157","name":"石崎先生堂射碑","address":"東山区三十三間堂廻り(三十三間堂内)","latitude":34.988083,"longitude":135.771194},{"id":"HI158","name":"百僧供養碑","address":"東山区三十三間堂廻り(三十三間堂内)","latitude":34.988111,"longitude":135.771167},{"id":"HI159","name":"漏世公子及寿芳夫人遷墓碑","address":"東山区今熊野北日吉町(太閤坦)","latitude":34.988861,"longitude":135.781972},{"id":"HI160","name":"伊藤春畝詩碑","address":"東山区清閑寺清水上山町","latitude":34.999111,"longitude":135.784833},{"id":"HI161","name":"清水山登り口【道標】","address":"東山区清水一丁目(清水寺内)","latitude":34.995,"longitude":135.785},{"id":"HI162","name":"四条天皇外二十四御方御陵参道【道標】","address":"東山区泉涌寺山内町(泉涌寺内)","latitude":34.978,"longitude":135.78},{"id":"HI163","name":"九条陵・月輪南陵参道【道標】","address":"東山区本町十五丁目","latitude":34.975056,"longitude":135.775361},{"id":"HI164","name":"山科・岩間寺・醍醐・大津三井寺【道標】","address":"東山区泉涌寺山内町(今熊野観音寺内)","latitude":34.979472,"longitude":135.780611},{"id":"HI165","name":"楊貴妃観世音・善能寺【道標】","address":"東山区泉涌寺山内町(今熊野観音寺内)","latitude":34.979472,"longitude":135.780611},{"id":"HI166","name":"花園天皇陵参道【道標】","address":"東山区粟田口三条坊町","latitude":35.007,"longitude":135.782528},{"id":"HI167","name":"戸田忠至碑","address":"東山区今熊野泉山町(泉涌寺内)","latitude":34.976778,"longitude":135.782361},{"id":"HI168","name":"前田正名碑","address":"東山区林下町(知恩院内)","latitude":35.005083,"longitude":135.782111},{"id":"HI169","name":"日本赤十字社京都支部病院開院紀念碑","address":"東山区本町十五丁目(京都第一赤十字病院内)","latitude":34.980639,"longitude":135.771583},{"id":"HI170","name":"いなり・東寺【道標】","address":"東山区本町十三丁目","latitude":34.98075,"longitude":135.7705},{"id":"HI171","name":"維新戦役忠魂碑","address":"東山区本町十五丁目(東福寺内)","latitude":34.975556,"longitude":135.774083},{"id":"HI172","name":"維新戦役防長藩士墓","address":"東山区本町十五丁目","latitude":34.975,"longitude":135.775333},{"id":"HI173","name":"防長藩士崇忠碑","address":"東山区本町十五丁目","latitude":34.974222,"longitude":135.776361},{"id":"HI174","name":"建仁寺領新家地境界石","address":"東山区本町通五条上る東側","latitude":34.995944,"longitude":135.770278},{"id":"HI175","name":"清水寺・将軍塚・伊藤博文詩碑・高台寺【道標】","address":"東山区清閑寺清水上山町","latitude":34.997833,"longitude":135.786611},{"id":"HI176","name":"清水寺・将軍塚【道標】","address":"東山区清閑寺清水上山町","latitude":34.997417,"longitude":135.786833},{"id":"HI177","name":"清水寺・将軍塚・稚児ヶ池・山科街道【道標】","address":"東山区粟田口高台寺山町","latitude":34.997167,"longitude":135.787639},{"id":"HI178","name":"清水寺奥之院道【道標】","address":"東山区清閑寺下山町(清水寺内)","latitude":34.993028,"longitude":135.785333},{"id":"HI179","name":"清水寺測点標石","address":"東山区清水一丁目(清水寺内)","latitude":34.995472,"longitude":135.783278},{"id":"HI180","name":"京都霊山護国神社近道【道標】","address":"東山区清水二丁目","latitude":34.996222,"longitude":135.780806},{"id":"HI181","name":"清水寺・清閑寺方面他【道標】","address":"東山区清水二丁目","latitude":34.996222,"longitude":135.780806},{"id":"HI182","name":"忠僕重助碑","address":"東山区清水一丁目(清水寺内)","latitude":34.995278,"longitude":135.78425},{"id":"HI183","name":"青蓮院・都ホテル【道標】","address":"東山区粟田口粟田山北町","latitude":35.006556,"longitude":135.786889},{"id":"HI184","name":"将軍塚・円山公園【道標】","address":"東山区粟田口高台寺山町","latitude":35.001,"longitude":135.786278},{"id":"HI185","name":"蛍が窟・知恩院【道標】","address":"東山区粟田口粟田山南町","latitude":35.002806,"longitude":135.784917},{"id":"HI186","name":"将軍塚道【道標】","address":"東山区円山町","latitude":35.003389,"longitude":135.783972},{"id":"HI187","name":"淡海槐堂先生旌褒碑","address":"東山区清閑寺霊山町(京都霊山護国神社内)","latitude":34.999778,"longitude":135.783306},{"id":"HI188","name":"玉松操碑","address":"東山区清閑寺霊山町(京都霊山護国神社内)","latitude":34.999806,"longitude":135.783528},{"id":"HI189","name":"清水寺・山県有朋紀念樹・高台寺【道標】","address":"東山区粟田口高台寺山町","latitude":34.999556,"longitude":135.788861},{"id":"HI190","name":"山県有朋紀念樹・高台寺・大日如来・将軍塚等【道標】","address":"東山区粟田口高台寺山町","latitude":34.997389,"longitude":135.787694},{"id":"HI191","name":"二天門碑","address":"東山区五条橋東六丁目(大谷本廟内)","latitude":34.993722,"longitude":135.777944},{"id":"HI192","name":"伊藤公の詩碑此山上にあり【道標】","address":"東山区清閑寺霊山町(京都霊山護国神社内)","latitude":34.999639,"longitude":135.783861},{"id":"HI193","name":"元三大師【道標】","address":"東山区粟田口三条坊町","latitude":35.0085,"longitude":135.784028},{"id":"HI194","name":"琵琶湖疏水工事殉職者碑","address":"東山区東小物座町","latitude":35.008444,"longitude":135.790611},{"id":"HI195","name":"博労尼講詰所趾碑","address":"東山区五条橋東六丁目(大谷本廟内)","latitude":34.993806,"longitude":135.777361},{"id":"HU001","name":"戊辰戦役東軍戦死者埋骨所","address":"伏見区榎町(悟真寺内)","latitude":34.942528,"longitude":135.758806},{"id":"HU002","name":"戊辰戦役東軍戦死者碑","address":"伏見区榎町(悟真寺内)","latitude":34.942611,"longitude":135.758778},{"id":"HU003","name":"魚市場遺跡碑","address":"伏見区横大路草津町(羽束師橋東詰南)","latitude":34.928806,"longitude":135.734583},{"id":"HU004","name":"戊辰役東軍戦死者埋骨地","address":"伏見区横大路富ノ森町","latitude":34.914306,"longitude":135.723444},{"id":"HU005","name":"戊辰東軍戦死碑","address":"伏見区下鳥羽三町(法伝寺内)","latitude":34.935222,"longitude":135.740972},{"id":"HU006","name":"戊辰役東軍戦死者埋骨地","address":"伏見区下鳥羽東柳長町(悲願寺共同墓地内)","latitude":34.937667,"longitude":135.743917},{"id":"HU007","name":"明治維新伏見の戦跡","address":"伏見区御香宮門前町(御香宮境内)","latitude":34.93425,"longitude":135.767556},{"id":"HU008","name":"明智薮","address":"伏見区小栗栖小坂町","latitude":34.947167,"longitude":135.802194},{"id":"HU009","name":"法琳寺跡","address":"伏見区小栗栖北谷町","latitude":34.950056,"longitude":135.804111},{"id":"HU010","name":"深草弥生遺跡","address":"伏見区深草西浦町五丁目(ＮＴＴ深草別館前)","latitude":34.959528,"longitude":135.767472},{"id":"HU011","name":"京都歩兵聯隊跡","address":"伏見区深草鳥居崎町(藤森神社内)","latitude":34.951556,"longitude":135.771472},{"id":"HU012","name":"道元禅師入越足跡夢街道慕古の旅発願碑","address":"伏見区西大文字町(宝福寺内)","latitude":34.9345,"longitude":135.754639},{"id":"HU013","name":"石田杜","address":"伏見区石田森東町(天穂日命神社参道)","latitude":34.939556,"longitude":135.802778},{"id":"HU016","name":"醍醐寺境内栢杜遺跡","address":"伏見区醍醐柏森町","latitude":34.942139,"longitude":135.817278},{"id":"HU017","name":"頼政道跡","address":"伏見区醍醐伽藍町(長尾天満宮内)","latitude":34.951917,"longitude":135.822056},{"id":"HU018","name":"太田垣蓮月仮寓跡","address":"伏見区醍醐落保町","latitude":34.949056,"longitude":135.818167},{"id":"HU019","name":"式内真幡寸神社跡","address":"伏見区竹田真幡木町(若宮八幡宮前)","latitude":34.955556,"longitude":135.753},{"id":"HU020","name":"明治天皇御小休所安楽寿院","address":"伏見区竹田中内畑町(安楽寿院内)","latitude":34.95225,"longitude":135.754611},{"id":"HU021","name":"鳥羽離宮田中殿跡","address":"伏見区竹田田中殿町(田中殿公園内)","latitude":34.950444,"longitude":135.746861},{"id":"HU023","name":"西行寺址","address":"伏見区竹田内畑町(地蔵堂前)","latitude":34.953028,"longitude":135.751333},{"id":"HU024","name":"鳥羽伏見戦跡碑","address":"伏見区中島御所ノ内町(鳥羽離宮跡公園内)","latitude":34.949917,"longitude":135.74375},{"id":"HU025","name":"鳥羽伏見戦跡","address":"伏見区中島秋ノ山町(小枝橋東詰)","latitude":34.950528,"longitude":135.743167},{"id":"HU026","name":"明治天皇行在所真幡寸神社","address":"伏見区中島鳥羽離宮町(城南宮内)","latitude":34.950278,"longitude":135.748056},{"id":"HU027","name":"伏見城石垣","address":"伏見区桃山町伊庭(桃山東小学校内)","latitude":34.935667,"longitude":135.786444},{"id":"HU028","name":"維新戦跡","address":"伏見区桃陵町(桃陵中学校内)","latitude":34.928333,"longitude":135.749472},{"id":"HU029","name":"大石良雄遊興地よろづや","address":"伏見区撞木町","latitude":34.946028,"longitude":135.765361},{"id":"HU030","name":"長明方丈石","address":"伏見区日野船尾","latitude":34.933694,"longitude":135.824417},{"id":"HU031","name":"親鸞聖人ご誕生地","address":"伏見区日野西大道町(日野誕生院内)","latitude":34.933556,"longitude":135.815583},{"id":"HU032","name":"戊辰役東軍戦死者埋骨地","address":"伏見区納所下野","latitude":34.90975,"longitude":135.728639},{"id":"HU033","name":"唐人雁木旧趾","address":"伏見区納所町","latitude":34.907667,"longitude":135.718306},{"id":"HU034","name":"戊辰役戦場址","address":"伏見区納所町(納所会館前)","latitude":34.909194,"longitude":135.719139},{"id":"HU035","name":"淀小橋旧趾","address":"伏見区納所町八番","latitude":34.90775,"longitude":135.719833},{"id":"HU036","name":"戊辰役東軍戦死者碑","address":"伏見区納所北城堀(妙教寺内)","latitude":34.909944,"longitude":135.718917},{"id":"HU037","name":"我国に於ける電気鉄道事業発祥の地","address":"伏見区下油掛町","latitude":34.931222,"longitude":135.758639},{"id":"HU038","name":"伏見奉行所跡","address":"伏見区西奉行町(桃陵団地内)","latitude":34.931056,"longitude":135.765861},{"id":"HU040","name":"寺田屋","address":"伏見区南浜町","latitude":34.93025,"longitude":135.759667},{"id":"HU041","name":"伏見銀座跡","address":"伏見区銀座町一丁目","latitude":34.93325,"longitude":135.764},{"id":"HU042","name":"戊辰役東軍戦死者埋骨地","address":"伏見区淀下津町(大専寺内)","latitude":34.902472,"longitude":135.720278},{"id":"HU043","name":"戊辰役東軍戦死者碑","address":"伏見区淀新町(長円寺内)","latitude":34.899667,"longitude":135.71825},{"id":"HU044","name":"戊辰役東軍戦死者埋骨地","address":"伏見区淀新町(東運寺内)","latitude":34.899278,"longitude":135.718806},{"id":"HU045","name":"戊辰役東軍戦死者埋骨地","address":"伏見区淀新町(文相寺内)","latitude":34.902,"longitude":135.719611},{"id":"HU046","name":"天皇御駐輦趾","address":"伏見区淀池上町(明親小学校内)","latitude":34.903361,"longitude":135.721139},{"id":"HU047","name":"淀川瀬水車旧趾","address":"伏見区淀本町","latitude":34.905694,"longitude":135.716528},{"id":"HU048","name":"淀城址","address":"伏見区淀本町(淀城跡公園内)","latitude":34.905028,"longitude":135.717111},{"id":"HU049","name":"明治天皇御駐蹕址","address":"伏見区淀本町(淀城跡公園内)","latitude":34.905417,"longitude":135.717083},{"id":"HU050","name":"唐人雁木旧趾","address":"伏見区淀本町(淀城跡公園内)","latitude":34.905,"longitude":135.718056},{"id":"HU051","name":"撞木町廓碑","address":"伏見区橦木町","latitude":34.945889,"longitude":135.764972},{"id":"HU052","name":"明治天皇御小休所旧伏見第二小学校","address":"伏見区下板橋町(伏見板橋小学校内)","latitude":34.938139,"longitude":135.760972},{"id":"HU053","name":"伏見工兵第十六大隊跡","address":"伏見区西奉行町(桃陵団地入口)","latitude":34.930972,"longitude":135.765806},{"id":"HU055","name":"愚庵終焉地","address":"伏見区桃山町泰長老","latitude":34.930528,"longitude":135.774194},{"id":"HU056","name":"両替商旧跡","address":"伏見区両替町三丁目","latitude":34.930833,"longitude":135.763861},{"id":"HU057","name":"明治天皇御駐輦所観月橋","address":"伏見区豊後橋町(観月橋北詰堤防上)","latitude":34.927861,"longitude":135.768028},{"id":"HU058","name":"白河法皇・鳥羽法皇院政地","address":"伏見区竹田浄菩提院町","latitude":34.952222,"longitude":135.753944},{"id":"HU059","name":"鳥羽伏見の戦勃発の地小枝橋","address":"伏見区中島御所ノ内町(鳥羽離宮跡公園内)","latitude":34.949889,"longitude":135.743944},{"id":"HU060","name":"今出川菊亭右大臣鳥羽殿跡","address":"伏見区下鳥羽長田町(常高寺前)","latitude":34.940278,"longitude":135.74325},{"id":"HU061","name":"鳥羽伏見の戦跡","address":"伏見区下鳥羽三町","latitude":34.933944,"longitude":135.7405},{"id":"HU062","name":"円光大師御旧跡","address":"伏見区下鳥羽三町(一念寺前)","latitude":34.932528,"longitude":135.739472},{"id":"HU063","name":"元政上人旧跡【道標】","address":"伏見区深草直違橋七丁目","latitude":34.961333,"longitude":135.771139},{"id":"HU064","name":"一本松","address":"伏見区深草直違橋九丁目","latitude":34.963,"longitude":135.771139},{"id":"HU065","name":"山王権現大宮社の跡","address":"伏見区竹田桶ノ井町(竹田小学校内)","latitude":34.9545,"longitude":135.757},{"id":"HU066","name":"蓮如上人由緒地","address":"伏見区深草瓦町(善福寺前)","latitude":34.958194,"longitude":135.778444},{"id":"HU067","name":"日観亭旧跡","address":"伏見区深草真宗院山町(真宗院墓地内)","latitude":34.960278,"longitude":135.778361},{"id":"HU068","name":"元政上人旧跡","address":"伏見区深草坊町(瑞光寺内)","latitude":34.961833,"longitude":135.774389},{"id":"HU069","name":"了性院・本久院・深信院廃寺跡","address":"伏見区深草宝塔寺山町(宝塔寺内)","latitude":34.962667,"longitude":135.774861},{"id":"HU070","name":"騎兵第二十聯隊跡","address":"伏見区深草西伊達町","latitude":34.956417,"longitude":135.774333},{"id":"HU071","name":"京都陸軍病院跡","address":"伏見区深草向畑町(京都医療センター内)","latitude":34.937972,"longitude":135.771139},{"id":"HU072","name":"親鸞・玉日姫・九条関白旧蹟","address":"伏見区深草直違橋二丁目(西岸寺内)","latitude":34.954472,"longitude":135.770833},{"id":"HU073","name":"冠石","address":"伏見区竹田浄菩提院町(鳥羽天皇安楽寿院陵南)","latitude":34.952361,"longitude":135.753917},{"id":"HU074","name":"戊辰役東軍戦死者埋骨地","address":"伏見区淀新町(長円寺内)","latitude":34.899694,"longitude":135.718111},{"id":"HU075","name":"戊辰役東軍戦死者埋骨地","address":"伏見区淀新町(長円寺内)","latitude":34.899194,"longitude":135.70125},{"id":"HU076","name":"淀小橋旧趾","address":"伏見区淀本町(淀城跡公園内)","latitude":34.905,"longitude":135.718056},{"id":"HU077","name":"京道【道標】","address":"伏見区表町(伏見土木事務所内)","latitude":34.929417,"longitude":135.758278},{"id":"HU078","name":"京橋舟乗場【道標】","address":"伏見区表町(伏見土木事務所内)","latitude":34.929444,"longitude":135.758583},{"id":"HU079","name":"京大仏街道・大津道【道標】","address":"伏見区下板橋町(伏見板橋小学校内)","latitude":34.938167,"longitude":135.761028},{"id":"HU080","name":"舟乗場／京都・大津道【道標】","address":"伏見区下板橋町(伏見中学校内)","latitude":34.938056,"longitude":135.760444},{"id":"HU081","name":"舟乗場／京・大津道【道標】","address":"伏見区下板橋町(伏見青年の家前)","latitude":34.937611,"longitude":135.760944},{"id":"HU082","name":"大阪舟乗場【道標】","address":"伏見区丹後町(伏見南浜小学校内)","latitude":34.929833,"longitude":135.762583},{"id":"HU083","name":"京橋舟乗場／大津道【道標】","address":"伏見区桃陵町(桃陵中学校内)","latitude":34.928361,"longitude":135.766139},{"id":"HU084","name":"京街道／大和街道【道標】","address":"伏見区豊後橋町(京阪観月橋駅前)","latitude":34.927778,"longitude":135.768083},{"id":"HU085","name":"大坂舟乗場／京・大津道【道標】","address":"伏見区御香宮門前町(御香宮内)","latitude":34.933583,"longitude":135.767583},{"id":"HU086","name":"大岩・小栗栖道【道標】","address":"伏見区表町(伏見土木事務所内)","latitude":34.929472,"longitude":135.775278},{"id":"HU087","name":"桃山御陵・乃木神社十五町【道標】","address":"伏見区南新地(京阪中書島駅前)","latitude":34.926917,"longitude":135.75975},{"id":"HU089","name":"子安地蔵尊【道標】","address":"伏見区桃山羽柴長吉西町(聖恩寺前)","latitude":34.935222,"longitude":135.765167},{"id":"HU090","name":"桓武天皇御陵東五町【道標】","address":"伏見区桃山筒井伊賀西町(京阪丹波橋駅前)","latitude":34.939694,"longitude":135.765528},{"id":"HU091","name":"大仏・知恩院・大谷道【道標】","address":"伏見区深草大亀谷西寺町(西福寺内)","latitude":34.948444,"longitude":135.774694},{"id":"HU092","name":"舟乗場／京・大津道【道標】","address":"伏見区深草直違橋三丁目(深草小学校内)","latitude":34.956222,"longitude":135.7715},{"id":"HU093","name":"京道／大坂舟乗場【道標】","address":"伏見区深草直違橋三丁目(深草小学校内)","latitude":34.956167,"longitude":135.771583},{"id":"HU094","name":"浄土深草流開祖円空上人旧跡真宗律院【道標】","address":"伏見区深草直違橋六丁目","latitude":34.959583,"longitude":135.771194},{"id":"HU095","name":"ぬりこべ地蔵【道標】","address":"伏見区深草直違橋十丁目","latitude":34.964528,"longitude":135.771139},{"id":"HU096","name":"大岩【道標】","address":"伏見区深草大亀谷古御香町","latitude":34.943806,"longitude":135.784167},{"id":"HU097","name":"北向不動明王是より右二町半【道標】","address":"伏見区竹田中内畑町","latitude":34.954167,"longitude":135.752917},{"id":"HU098","name":"城南宮参詣道【道標】","address":"伏見区竹田浄菩提院町","latitude":34.950194,"longitude":135.752028},{"id":"HU099","name":"京道／城南離宮【道標】","address":"伏見区中島秋ノ山町","latitude":34.950583,"longitude":135.743111},{"id":"HU102","name":"稲荷参詣道【道標】","address":"伏見区深草下川原町","latitude":34.969167,"longitude":135.762972},{"id":"HU103","name":"城南離宮【道標】","address":"伏見区竹田桶ノ井町(竹田小学校内)","latitude":34.9545,"longitude":135.756806},{"id":"HU104","name":"京竹田街道・八幡柳谷道【道標】","address":"伏見区住吉町(伏見住吉小学校内)","latitude":34.943583,"longitude":135.762806},{"id":"HU105","name":"羽束師川・丹波道・善峯・向日町【道標】","address":"伏見区羽束師志水町(羽束師神社内)","latitude":34.929083,"longitude":135.722722},{"id":"HU106","name":"一言寺観世音【道標】","address":"伏見区醍醐槙ノ内町","latitude":34.94425,"longitude":135.814472},{"id":"HU107","name":"一言寺観世音【道標】","address":"伏見区醍醐柏森町(一言寺前)","latitude":34.94375,"longitude":135.816833},{"id":"HU108","name":"日野法界寺【道標】","address":"伏見区石田内里町","latitude":34.9385,"longitude":135.807306},{"id":"HU109","name":"五条三位俊成卿・兆殿司墓道【道標】","address":"伏見区深草願成町","latitude":34.971556,"longitude":135.773972},{"id":"HU110","name":"五条三位俊成卿・兆殿司墓道【道標】","address":"伏見区深草願成町","latitude":34.971333,"longitude":135.773556},{"id":"HU111","name":"日野薬師是より六町【道標】","address":"伏見区日野西大道町","latitude":34.935972,"longitude":135.814056},{"id":"HU112","name":"下鳥羽小学校旧校地","address":"伏見区下鳥羽北ノ口町","latitude":34.940444,"longitude":135.743528},{"id":"HU113","name":"常盤御前就捕処","address":"伏見区西奉行町","latitude":34.930139,"longitude":135.765861},{"id":"HU114","name":"淀城故址","address":"伏見区淀本町(淀城跡公園内)","latitude":34.905,"longitude":135.718056},{"id":"HU115","name":"南天塚跡","address":"伏見区竹田西桶ノ井町","latitude":34.954333,"longitude":135.755028},{"id":"HU116","name":"御幸ノ森跡","address":"伏見区竹田桶ノ井町","latitude":34.955361,"longitude":135.756472},{"id":"HU117","name":"猿塚の跡","address":"伏見区竹田三ツ杭町","latitude":34.955222,"longitude":135.75875},{"id":"HU118","name":"一口村安養寺／淀川渡場径【道標】","address":"伏見区淀本町","latitude":34.904972,"longitude":135.718833},{"id":"HU120","name":"城南宮参詣道【道標】","address":"伏見区竹田桶ノ井町(地下鉄近鉄竹田駅西口)","latitude":34.95675,"longitude":135.755556},{"id":"HU122","name":"深草十二帝陵【道標】","address":"伏見区深草直違橋町六丁目","latitude":34.959583,"longitude":135.771194},{"id":"HU123","name":"荷田春満旧宅","address":"伏見区深草藪之内町(伏見稲荷大社内東丸神社前)","latitude":34.966972,"longitude":135.772806},{"id":"HU124","name":"古淀城薬師堂址","address":"伏見区納所薬師堂","latitude":34.909889,"longitude":135.754194},{"id":"HU126","name":"納所村道路元標","address":"伏見区納所町","latitude":34.908083,"longitude":135.71825},{"id":"HU127","name":"七面天女【道標】","address":"伏見区深草ケナサ町(京阪深草駅東側)","latitude":34.963083,"longitude":135.770306},{"id":"HU130","name":"明治天皇御駐輦所製工場阯","address":"伏見区向島中島町","latitude":34.925306,"longitude":135.768},{"id":"HU131","name":"淀古城址・戊辰戦争砲弾跡","address":"伏見区納所北城堀町(妙教寺内)","latitude":34.910111,"longitude":135.719028},{"id":"HU132","name":"薬師如来東半町【道標】","address":"伏見区醍醐赤間南裏町","latitude":34.953472,"longitude":135.820611},{"id":"HU135","name":"城南宮参詣道【道標】","address":"伏見区竹田七瀬川町","latitude":34.950472,"longitude":135.758611},{"id":"HU136","name":"北向不動尊【道標】","address":"伏見区竹田七瀬川町","latitude":34.9505,"longitude":135.758333},{"id":"HU137","name":"鳥羽天皇陵・近衛天皇陵・白河天皇陵【道標】","address":"伏見区竹田七瀬川町","latitude":34.9505,"longitude":135.758333},{"id":"HU138","name":"北向不動明王・城南宮道【道標】","address":"伏見区竹田七瀬川町","latitude":34.9505,"longitude":135.758333},{"id":"HU139","name":"淀町道路元標","address":"伏見区淀川顔町","latitude":34.899667,"longitude":135.716667},{"id":"HU140","name":"恋塚寺碑","address":"伏見区下鳥羽城ノ越町","latitude":34.941167,"longitude":135.743722},{"id":"HU141","name":"角倉了以水利紀功碑","address":"伏見区三栖半町(伏見みなと公園内)","latitude":34.930028,"longitude":135.755639},{"id":"HU142","name":"桃山天満宮碑","address":"伏見区御香宮門前町(御香宮桃山天満宮内)","latitude":34.933556,"longitude":135.767528},{"id":"HU143","name":"伏見義民碑","address":"伏見区御香宮門前町(御香宮内)","latitude":34.933083,"longitude":135.76725},{"id":"HU144","name":"薩摩藩義士碑","address":"伏見区鷹匠町(大黒寺内)","latitude":34.936694,"longitude":135.760861},{"id":"HU145","name":"伏見義民小林勘次碑","address":"伏見区下板橋町(玄忠寺内)","latitude":34.937778,"longitude":135.762444},{"id":"HU146","name":"伏見義民焼塩屋権兵衛碑","address":"伏見区深草鳥居崎町(藤森神社内)","latitude":34.949389,"longitude":135.771389},{"id":"HU147","name":"蒙古塚","address":"伏見区深草鳥居崎町(藤森神社内)","latitude":34.949889,"longitude":135.771528},{"id":"HU148","name":"伏見義民丸屋九兵衛碑","address":"伏見区中之町(源光院内)","latitude":34.942833,"longitude":135.762556},{"id":"HU149","name":"伏見義民伏見屋清左衛門碑","address":"伏見区新町八丁目(真西寺内)","latitude":34.937417,"longitude":135.763139},{"id":"HU150","name":"薩摩島津伏見屋敷跡","address":"伏見区東境町","latitude":34.937583,"longitude":135.758944},{"id":"HU151","name":"京道／伏見道【道標】","address":"伏見区桃山西町(大善寺前)","latitude":34.934056,"longitude":135.791111},{"id":"HU152","name":"醍醐一言寺是より十七丁【道標】","address":"伏見区桃山町西尾(六地蔵小橋西詰)","latitude":34.932694,"longitude":135.7945},{"id":"HU153","name":"近藤勇遭難の地","address":"伏見区越後屋敷町","latitude":34.948694,"longitude":135.7655},{"id":"HU154","name":"坂本龍馬避難の材木小屋跡","address":"伏見区過書町(大手橋西詰北側)","latitude":34.932889,"longitude":135.756028},{"id":"HU155","name":"伏見長州藩邸跡","address":"伏見区表町(伏見土木事務所)","latitude":34.929444,"longitude":135.758667},{"id":"HU156","name":"伏見口の戦い激戦地跡","address":"伏見区南浜町(京橋北詰東側)","latitude":34.930194,"longitude":135.758861},{"id":"HU157","name":"伏見土佐藩邸跡","address":"伏見区南浜町","latitude":34.930583,"longitude":135.761444},{"id":"HU158","name":"会津藩駐屯地跡","address":"伏見区大坂町(東本願寺伏見別院前)","latitude":34.931639,"longitude":135.761833},{"id":"HU159","name":"坂本龍馬忠魂碑","address":"伏見区南浜町(寺田屋東隣)","latitude":34.928944,"longitude":135.759639},{"id":"HU160","name":"寺田屋恩賜紀念碑","address":"伏見区南浜町(寺田屋東隣)","latitude":34.930361,"longitude":135.759639},{"id":"HU161","name":"淀川渡船場道【道標】","address":"伏見区淀下津町(大淀中学校内)","latitude":34.902333,"longitude":135.723444},{"id":"HU162","name":"稲荷新道碑","address":"伏見区深草下川原町","latitude":34.969028,"longitude":135.763},{"id":"HU163","name":"桓武天皇御陵参道【道標】","address":"伏見区桃山町治部小丸","latitude":34.935056,"longitude":135.77525},{"id":"HU164","name":"淀小橋増築碑","address":"伏見区淀本町(京阪淀駅前広場)","latitude":34.906361,"longitude":135.719694},{"id":"HU165","name":"田辺治之助君記念碑","address":"伏見区淀本町(淀城跡公園内)","latitude":34.905139,"longitude":135.717111},{"id":"HU166","name":"薩藩九烈士遺蹟表","address":"伏見区南浜町(寺田屋東隣)","latitude":34.930361,"longitude":135.759583},{"id":"HU167","name":"御大典記念埋立工事竣工記念碑","address":"伏見区東柳町(蓬莱橋南詰)","latitude":34.929861,"longitude":135.759944},{"id":"HU168","name":"八科峠【道標】","address":"伏見区深草大亀谷敦賀町","latitude":34.942861,"longitude":135.784639},{"id":"HU169","name":"仁明天皇・深草十二帝御陵【道標】","address":"伏見区深草極楽町(極楽橋西詰)","latitude":34.956083,"longitude":135.77025},{"id":"HU170","name":"近衛天皇・鳥羽天皇・白河天皇御陵【道標】","address":"伏見区竹田浄菩提院町","latitude":34.952278,"longitude":135.756139},{"id":"HU171","name":"仁明天皇陵・宇多天皇皇后陵","address":"伏見区深草谷口町","latitude":34.954611,"longitude":135.780278},{"id":"HU172","name":"深草毘沙門天・桓武天皇陵","address":"伏見区深草谷口町","latitude":34.954556,"longitude":135.78025},{"id":"HU173","name":"朱雀天皇御陵【道標】","address":"伏見区醍醐新町裏町","latitude":34.953806,"longitude":135.8175},{"id":"HU174","name":"醍醐村道路元標","address":"伏見区醍醐東大路町","latitude":34.950417,"longitude":135.817639},{"id":"HU175","name":"弘法大師独鈷水","address":"伏見区醍醐上ノ山町","latitude":34.955722,"longitude":135.815889},{"id":"HU176","name":"向島村道路元標","address":"伏見区向島橋詰町","latitude":34.926306,"longitude":135.769139},{"id":"HU177","name":"横大路村道路元標","address":"伏見区横大路草津町","latitude":34.930639,"longitude":135.736806},{"id":"HU178","name":"柳谷道舟乗場【道標】","address":"伏見区横大路草津町","latitude":34.929,"longitude":135.734778},{"id":"HU179","name":"大円広慧国師碑","address":"伏見区深草大亀谷古御香町(仏国寺内)","latitude":34.943333,"longitude":135.785556},{"id":"HU180","name":"戊辰役東軍戦死者埋骨地","address":"伏見区淀池上町(光明寺跡)","latitude":34.905111,"longitude":135.721417},{"id":"HU181","name":"戊辰役東軍戦死者埋骨地","address":"伏見区榎町(悟真寺内)","latitude":34.942972,"longitude":135.758778},{"id":"HU182","name":"戊辰役東軍戦死者埋骨地","address":"伏見区榎町(悟真寺内)","latitude":34.942917,"longitude":135.758944},{"id":"HU183","name":"戊辰役東軍戦死者慰霊碑","address":"伏見区納所下野","latitude":34.90975,"longitude":135.728639},{"id":"KA001","name":"花の御所","address":"上京区烏丸通今出川上る西側(大聖寺内)","latitude":35.030778,"longitude":135.759111},{"id":"KA002","name":"黒田如水邸趾","address":"上京区一条通猪熊西入南側","latitude":35.026444,"longitude":135.750444},{"id":"KA003","name":"春日潜庵先生邸宅趾","address":"上京区烏丸通一条上る三筋目西入南側","latitude":35.0275,"longitude":135.758722},{"id":"KA004","name":"土御門内裏跡","address":"上京区烏丸通下長者町上る西側(京都ガーデンパレス前)","latitude":35.022889,"longitude":135.759194},{"id":"KA006","name":"薩摩藩邸跡","address":"上京区烏丸通今出川上る東側(同志社大学西門前)","latitude":35.030028,"longitude":135.759417},{"id":"KA007","name":"日本聖公会初代監督シ・エム・ウイリアムス師旧邸","address":"上京区烏丸通出水下る西側","latitude":35.02075,"longitude":135.759139},{"id":"KA008","name":"藤井右門邸跡","address":"上京区烏丸通上立売上る西側","latitude":35.032167,"longitude":135.759333},{"id":"KA009","name":"菅家邸址","address":"上京区烏丸通椹木町上る西側(菅原院天満宮前)","latitude":35.019361,"longitude":135.759139},{"id":"KA010","name":"水戸藩邸跡","address":"上京区下長者町通烏丸西入北側","latitude":35.022472,"longitude":135.759028},{"id":"KA011","name":"京都慶応義塾跡碑","address":"上京区下立売通釜座上る(京都府庁内)","latitude":35.020361,"longitude":135.755278},{"id":"KA012","name":"旧二条城跡","address":"上京区下立売通室町西南角","latitude":35.019972,"longitude":135.757861},{"id":"KA013","name":"平安宮内裏承明門跡","address":"上京区下立売通浄福寺西入南側","latitude":35.020194,"longitude":135.744417},{"id":"KA014","name":"明治天皇御駐輦所合薬会社阯","address":"上京区下立売通新町西入南側","latitude":35.019778,"longitude":135.75575},{"id":"KA015","name":"明治天皇行幸所京都府庁","address":"上京区下立売通新町釜座上る(京都府庁内)","latitude":35.019889,"longitude":135.755694},{"id":"KA016","name":"京都守護職屋敷址","address":"上京区下立売通釜座上る(京都府庁内)","latitude":35.020056,"longitude":135.755667},{"id":"KA017","name":"木村長門守重成公旧館地","address":"上京区下立売通千本西入北側(弘誓寺前)","latitude":35.020139,"longitude":135.740472},{"id":"KA018","name":"平安宮内裏内郭回廊跡","address":"上京区下立売通土屋町西入南側","latitude":35.020028,"longitude":135.743472},{"id":"KA019","name":"鯖街道口","address":"上京区河原町今出川上る(出町橋西詰)","latitude":35.030333,"longitude":135.770556},{"id":"KA020","name":"療病院碑","address":"上京区河原町通広小路(京都府立医科大学内)","latitude":35.023056,"longitude":135.769806},{"id":"KA021","name":"日本最初盲唖院創建地","address":"上京区釜座通丸太町上る東側(京あんしんこども館前)","latitude":35.017861,"longitude":135.755722},{"id":"KA022","name":"女紅場址","address":"上京区丸太町通河原町東入南側(丸太町橋西詰)","latitude":35.017472,"longitude":135.770889},{"id":"KA023","name":"奇縁氷人石","address":"上京区馬喰町(北野天満宮松向軒内)","latitude":35.0285,"longitude":135.735306},{"id":"KA024","name":"大極殿遺址碑","address":"上京区千本通丸太町上る西側(内野児童公園内)","latitude":35.019139,"longitude":135.742222},{"id":"KA025","name":"所司代屋敷址","address":"上京区丸太町通大宮東入南側","latitude":35.017278,"longitude":135.749361},{"id":"KA026","name":"平安宮主水司跡","address":"上京区丸太町通日暮西入南側","latitude":35.017667,"longitude":135.747472},{"id":"KA027","name":"狩野元信邸跡","address":"上京区元誓願寺通小川東入北側","latitude":35.028639,"longitude":135.754778},{"id":"KA028","name":"五辻殿址","address":"上京区五辻通千本東入北側","latitude":35.031028,"longitude":135.743806},{"id":"KA029","name":"緒方光琳宅蹟","address":"上京区上御霊前通烏丸東入上る西側","latitude":35.037111,"longitude":135.760639},{"id":"KA030","name":"応仁の乱勃発地","address":"上京区御霊前通烏丸東入(上御霊神社前)","latitude":35.036444,"longitude":135.760722},{"id":"KA031","name":"立命館学園発祥地","address":"上京区広小路通河原町西入(京都府立医科大学図書館内)","latitude":35.023389,"longitude":135.768667},{"id":"KA032","name":"法成寺址","address":"上京区荒神口通寺町東入北側","latitude":35.021389,"longitude":135.76775},{"id":"KA033","name":"京都市電北野線記念碑","address":"上京区今出川通御前東南角","latitude":35.028,"longitude":135.73625},{"id":"KA034","name":"豊公遺跡湯たく山茶くれん寺浄土院","address":"上京区今出川通千本西入北側(浄土院門前)","latitude":35.029611,"longitude":135.741667},{"id":"KA035","name":"禁裏道場蹟","address":"上京区今出川通千本東入北側(嘉楽中学校前)","latitude":35.029889,"longitude":135.743556},{"id":"KA036","name":"新島襄先生旧邸","address":"上京区寺町通丸太町上る東側","latitude":35.018694,"longitude":135.76725},{"id":"KA037","name":"山口仏教会館址","address":"上京区寺町通丸太町上る東側(京都市歴史資料館前)","latitude":35.018722,"longitude":135.76725},{"id":"KA038","name":"明治天皇行幸所京都府尋常中学校阯","address":"上京区寺町通丸太町上る東側(鴨沂高校前)","latitude":35.020583,"longitude":135.767389},{"id":"KA039","name":"紫式部邸宅址","address":"上京区寺町通広小路上る東側(廬山寺内)","latitude":35.024222,"longitude":135.768278},{"id":"KA040","name":"富岡鉄斎邸跡","address":"上京区室町通一条下る東側","latitude":35.025833,"longitude":135.757889},{"id":"KA041","name":"足利将軍室町第址","address":"上京区室町通今出川東北角","latitude":35.028639,"longitude":135.757639},{"id":"KA042","name":"清和院并土御門内裏址","address":"上京区室町通中長者町下る東側","latitude":35.023306,"longitude":135.758139},{"id":"KA043","name":"茶屋四郎次郎邸址","address":"上京区小川通下長者町東南角","latitude":35.022472,"longitude":135.754194},{"id":"KA044","name":"千利休居士遺蹟不審庵","address":"上京区小川通寺之内上る東側","latitude":35.034139,"longitude":135.753333},{"id":"KA045","name":"千利休居士・千宗旦居士遺蹟今日庵","address":"上京区小川通寺之内上る東側","latitude":35.034667,"longitude":135.753333},{"id":"KA046","name":"賀茂斎院跡","address":"上京区上御霊前通智恵光院東入(櫟谷七野神社内)","latitude":35.036056,"longitude":135.747306},{"id":"KA047","name":"皆川淇園弘道館址","address":"上京区上長者町通室町西入北側","latitude":35.023806,"longitude":135.757361},{"id":"KA048","name":"佐賀鍋島藩屋敷跡","address":"上京区上長者町通智恵光院東入北側","latitude":35.023639,"longitude":135.73475},{"id":"KA050","name":"嶋村俊一邸跡","address":"上京区新烏丸通下切通し上る西側","latitude":35.019389,"longitude":135.768278},{"id":"KA051","name":"持明院仙洞御所跡","address":"上京区新町通上立売上る西側(光照院門跡・恵聖院前)","latitude":35.032694,"longitude":135.755778},{"id":"KA052","name":"聚楽第址","address":"上京区中立売通裏門西入南側","latitude":35.024861,"longitude":135.746},{"id":"KA053","name":"小篠長兵衛旧宅跡","address":"上京区西洞院通下立売下る東側","latitude":35.019333,"longitude":135.755083},{"id":"KA054","name":"大久保利通旧邸","address":"上京区石薬師寺通寺町東入南側","latitude":35.027611,"longitude":135.768083},{"id":"KA056","name":"禁門変長州藩殉難者塔","address":"上京区相国寺門前町(相国寺総墓地内)","latitude":35.032889,"longitude":135.760611},{"id":"KA057","name":"名和長年戦死地","address":"上京区大宮通中立売上る東側(名和児童公園前)","latitude":35.025583,"longitude":135.749056},{"id":"KA058","name":"唐津小笠原藩邸跡","address":"上京区中立売通浄福寺東入南側","latitude":35.024972,"longitude":135.746028},{"id":"KA059","name":"富士谷成章宅址","address":"上京区中立売通西洞院西入南側(京都府上京府税事務所前)","latitude":35.024833,"longitude":135.754722},{"id":"KA060","name":"日本盲唖教育発祥地","address":"上京区猪熊通下立売下る西側","latitude":35.017056,"longitude":135.750389},{"id":"KA061","name":"京都所司代跡","address":"上京区猪熊通丸太町下る西側(旧待賢小学校前)","latitude":35.017056,"longitude":135.750694},{"id":"KA062","name":"明治天皇行幸所京都府中学阯","address":"上京区猪熊通丸太町下る西側(旧待賢小学校前)","latitude":35.017056,"longitude":135.750694},{"id":"KA063","name":"天明大火横死者供養碑","address":"上京区寺町通広小路上る(清浄華院内)","latitude":35.025389,"longitude":135.768167},{"id":"KA064","name":"西陣碑","address":"上京区堀川通今出川下る西側(西陣織会館前)","latitude":35.028639,"longitude":135.751389},{"id":"KA065","name":"頼山陽山紫水明処","address":"上京区東三本木通丸太町上る東側","latitude":35.018028,"longitude":135.770306},{"id":"KA066","name":"伊藤仁斎古義堂阯","address":"上京区東堀川通下立売上る東側","latitude":35.020667,"longitude":135.752083},{"id":"KA067","name":"北野大茶湯址","address":"上京区馬喰町(北野天満宮境内)","latitude":35.029861,"longitude":135.735611},{"id":"KA068","name":"鵺池碑","address":"上京区主税町(二条公園内)","latitude":35.017111,"longitude":135.74575},{"id":"KA069","name":"千宗守居士遺蹟官休庵","address":"上京区武者小路通小川東入北側","latitude":35.027778,"longitude":135.755028},{"id":"KA070","name":"天満宮旧蹟","address":"上京区北町(安楽寺天満宮内)","latitude":35.022417,"longitude":135.733944},{"id":"KA071","name":"村雲御所跡","address":"上京区堀川通今出川下る西側(西陣織会館前)","latitude":35.0285,"longitude":135.751667},{"id":"KA072","name":"西陣舟橋","address":"上京区堀川通今出川西北角","latitude":35.029694,"longitude":135.751639},{"id":"KA073","name":"孝学堂址","address":"上京区堀川通上御霊前上る東側(水火天満宮内)","latitude":35.036167,"longitude":135.751583},{"id":"KA074","name":"山名宗全旧蹟","address":"上京区堀川通上立売下る一筋目西入北側","latitude":35.031472,"longitude":135.750778},{"id":"KA075","name":"板倉勝重・重宗屋敷跡","address":"上京区堀川通竹屋町西北角(ひまわり幼稚園内)","latitude":35.015861,"longitude":135.751417},{"id":"KA076","name":"楽焼家元楽吉左衛門宅","address":"上京区油小路通一条下る西側","latitude":35.026,"longitude":135.753389},{"id":"KA077","name":"本阿弥光悦京屋敷跡","address":"上京区油小路通五辻下る東側","latitude":35.030667,"longitude":135.753639},{"id":"KA078","name":"慶長天主堂跡","address":"上京区油小路通元誓願寺西南角","latitude":35.028528,"longitude":135.753333},{"id":"KA079","name":"山名宗全邸址","address":"上京区堀川通上立売下る一筋目北西角","latitude":35.0315,"longitude":135.751778},{"id":"KA080","name":"斯波氏武衛陣・足利義輝邸遺址","address":"上京区椹木町通室町上る東側(平安女学院内)","latitude":35.019194,"longitude":135.757972},{"id":"KA081","name":"山崎闇斎邸址","address":"上京区葭屋町通下立売上る東側","latitude":35.020583,"longitude":135.751083},{"id":"KA082","name":"皇后陛下行啓紀念碑","address":"上京区玄武町(同志社女子大学内)","latitude":35.029361,"longitude":135.764},{"id":"KA083","name":"立命館草創の地","address":"上京区東三本木通丸太町上る東側","latitude":35.018861,"longitude":135.770333},{"id":"KA084","name":"花御所八幡宮跡","address":"上京区上御霊前通烏丸東入(上御霊神社内)","latitude":35.036472,"longitude":135.760722},{"id":"KA085","name":"西陣碑","address":"上京区今出川通大宮東入北側(京都市考古資料館前)","latitude":35.029583,"longitude":135.74975},{"id":"KA086","name":"小野小町双紙洗水遺跡","address":"上京区一条通堀川東入北側","latitude":35.026222,"longitude":135.752556},{"id":"KA087","name":"上田秋成翁終焉地","address":"上京区寺町通広小路上る(梨木神社内)","latitude":35.023472,"longitude":135.767139},{"id":"KA088","name":"名和長年公遺蹟","address":"上京区大宮通中立売上る東側(名和児童公園前)","latitude":35.025611,"longitude":135.748972},{"id":"KA089","name":"贈正三位名和君遺蹟碑","address":"上京区大宮通中立売上る東側(名和児童公園内)","latitude":35.025667,"longitude":135.74925},{"id":"KA090","name":"贈従一位名和長年公殉節所","address":"上京区大宮通中立売上る東側(名和児童公園内)","latitude":35.025639,"longitude":135.749139},{"id":"KA091","name":"尾形光琳菩提所・興善院旧跡","address":"上京区寺之内通小川東入北側(泉妙院前)","latitude":35.033583,"longitude":135.755028},{"id":"KA092","name":"文子天満宮旧址","address":"上京区北町","latitude":35.021611,"longitude":135.734389},{"id":"KA093","name":"元阿弥陀寺跡","address":"上京区行衛町(京和幼稚園前)","latitude":35.019917,"longitude":135.733389},{"id":"KA094","name":"親鸞上人御草庵清水庵地","address":"上京区中立売通松屋町西入北側(勝福寺前)","latitude":35.024583,"longitude":135.748028},{"id":"KA095","name":"聚楽城鵲橋旧跡","address":"上京区松屋町通出水上る東側(松永稲荷前)","latitude":35.02175,"longitude":135.748056},{"id":"KA096","name":"安倍晴明公居館趾","address":"上京区葭屋町通今出川下る西側(晴明神社前)","latitude":35.027806,"longitude":135.750528},{"id":"KA097","name":"光格天皇御胞塚","address":"上京区荒神口通河原町西入(清荒神内)","latitude":35.021222,"longitude":135.7685},{"id":"KA098","name":"大原口【道標】","address":"上京区今出川通寺町東北角","latitude":35.029194,"longitude":135.767889},{"id":"KA099","name":"上賀茂・天満宮【道標】","address":"上京区今出川通新町東入北側(上京区役所前)","latitude":35.029306,"longitude":135.756639},{"id":"KA100","name":"天満宮・嵯峨・愛宕道【道標】","address":"上京区馬喰町(北野天満宮内)","latitude":35.028389,"longitude":135.735528},{"id":"KA101","name":"頼山陽書斎山紫水明処【道標】","address":"上京区丸太町通河原町東入北側","latitude":35.017556,"longitude":135.770361},{"id":"KA102","name":"佐久間象山墓【道標】","address":"上京区今出川通御前南西角","latitude":35.028028,"longitude":135.735694},{"id":"KA103","name":"二条天皇陵・三条天皇陵・花山天皇陵参道【道標】","address":"上京区馬喰町(北野天満宮前)","latitude":35.028056,"longitude":135.735528},{"id":"KA104","name":"大極殿遺址道【道標】","address":"上京区千本通丸太町上る西側","latitude":35.019,"longitude":135.742278},{"id":"KA105-1","name":"是より洛中碑","address":"上京区室町通寺之内下る(室町小学校内)","latitude":35.033111,"longitude":135.757972},{"id":"KA105-2","name":"是より洛中碑","address":"上京区室町通寺之内下る(室町小学校内)","latitude":35.033111,"longitude":135.757972},{"id":"KA105-3","name":"是より洛中碑","address":"上京区室町通寺之内下る(室町小学校内)","latitude":35.033111,"longitude":135.757972},{"id":"KA105-4","name":"是より洛中碑","address":"上京区室町通寺之内下る(室町小学校内)","latitude":35.033111,"longitude":135.757972},{"id":"KA106","name":"是より洛中碑","address":"上京区堀川通上御霊上る東側(水火天満宮境内)","latitude":35.036194,"longitude":135.751861},{"id":"KA107-1","name":"是より洛中碑","address":"上京区御前通一条下る(仁和小学校内)","latitude":35.024611,"longitude":135.736361},{"id":"KA107-2","name":"是より洛中碑","address":"上京区御前通一条下る(仁和小学校内)","latitude":35.024611,"longitude":135.736361},{"id":"KA107-3","name":"是より洛中碑","address":"上京区御前通一条下る(仁和小学校内)","latitude":35.024806,"longitude":135.736306},{"id":"KA108","name":"近衛家旧邸跡","address":"上京区新町通今出川上る(同志社大学新町校舎内)","latitude":35.031056,"longitude":135.756083},{"id":"KA109","name":"中立小学校・中立幼稚園開校・閉校紀念碑","address":"上京区中立売通新町角(新町小学校内)","latitude":35.025139,"longitude":135.756361},{"id":"KA110","name":"諸侯屋敷・一条下り松遺跡","address":"上京区一条通堀川東入北側","latitude":35.026333,"longitude":135.752861},{"id":"KA111","name":"待賢門跡","address":"上京区猪熊通下立売下る西側","latitude":35.019444,"longitude":135.750417},{"id":"KA112","name":"祐井碑","address":"上京区京都御苑(中山家旧宅邸内)","latitude":35.027806,"longitude":135.764583},{"id":"KA113","name":"四海唱導之霊蹟","address":"上京区寺之内通小川東入北側(妙顕寺内)","latitude":35.034,"longitude":135.7545},{"id":"KA114","name":"旧京都市立二条高等女学校跡","address":"上京区主税町(二条中学校内)","latitude":35.015333,"longitude":135.745222},{"id":"KA115","name":"宴松原","address":"上京区七番町","latitude":35.021528,"longitude":135.740889},{"id":"KA116","name":"菩提所泉妙院【道標】","address":"上京区寺之内通小川東入北側(妙顕寺前)","latitude":35.033694,"longitude":135.7545},{"id":"KA117","name":"幸神社【道標】","address":"上京区寺町通今出川上る東側","latitude":35.030528,"longitude":135.767694},{"id":"KA118","name":"検非違使庁址","address":"上京区葭屋町通出水上る西側","latitude":35.021694,"longitude":135.751083},{"id":"KA119","name":"源義経奥州首途地","address":"上京区智恵光院通今出川上る西側(首途八幡宮内)","latitude":35.030361,"longitude":135.746778},{"id":"KA120","name":"不焼寺記","address":"上京区五辻通智恵光院西入(本隆寺内)","latitude":35.031611,"longitude":135.746472},{"id":"KA121","name":"千利休居士聚楽屋敷趾","address":"上京区葭屋町通一条上る(晴明神社内)","latitude":35.027667,"longitude":135.751278},{"id":"KA122","name":"貽範碑","address":"上京区京都御苑","latitude":35.019917,"longitude":135.761111},{"id":"KA123","name":"是より洛中碑","address":"上京区五辻通七本松西入(翔鸞小学校内)","latitude":35.031167,"longitude":135.738139},{"id":"KA124","name":"茶家山田宗■出生之寺","address":"上京区西洞院通上長者町上る西側(長徳寺前)","latitude":35.023944,"longitude":135.754972},{"id":"KA125","name":"平安宮一本御書所跡","address":"上京区下立売通智恵光院西入北側","latitude":35.020083,"longitude":135.746083},{"id":"KA126","name":"平安宮内裏綾綺殿跡","address":"上京区浄福寺通下立売上る東側","latitude":35.020583,"longitude":135.744861},{"id":"KA127","name":"平安宮内裏弘徽殿跡","address":"上京区土屋町通出水下る東入北側","latitude":35.020833,"longitude":135.744},{"id":"KA128","name":"赤穂義士四十六士遺髪塔跡","address":"上京区堀川通紫明下る西側","latitude":35.037667,"longitude":135.751528},{"id":"KA129","name":"空爆被災を記録する碑","address":"上京区下長者町通智恵光院北東角(辰巳児童公園内)","latitude":35.022722,"longitude":135.746778},{"id":"KA130","name":"藤原頼長墓副碑","address":"上京区相国寺門前町(相国寺総墓地内)","latitude":35.032917,"longitude":135.76075},{"id":"KA131","name":"御土居","address":"上京区寺町通広小路上る東側(廬山寺墓地内)","latitude":35.024389,"longitude":135.768806},{"id":"KA132","name":"蔵人町屋跡","address":"上京区下立売通浄福寺西入北側","latitude":35.020056,"longitude":135.743833},{"id":"KA133","name":"平安宮内裏承香殿跡","address":"上京区浄福寺通出水下る西入北側","latitude":35.020861,"longitude":135.744389},{"id":"KA134","name":"聚楽第南外濠跡","address":"上京区浄福寺通出水下る東入南側(松林寺前)","latitude":35.020889,"longitude":135.745917},{"id":"KA135","name":"平安宮内裏宜陽殿跡","address":"上京区浄福寺通下立売上る東側","latitude":35.020278,"longitude":135.744861},{"id":"KA136","name":"平安宮内裏昭陽舎跡","address":"上京区浄福寺通出水下る東入北側","latitude":35.020889,"longitude":135.745139},{"id":"KA137","name":"霊光殿菅公千年祭記念碑","address":"上京区新町通今出川下る西側(霊光殿天満宮内)","latitude":35.028194,"longitude":135.755722},{"id":"KA138","name":"和魂漢才碑","address":"上京区馬喰町(北野天満宮内)","latitude":35.031222,"longitude":135.735389},{"id":"KA139","name":"和魂漢才碑","address":"上京区馬喰町(北野天満宮内)","latitude":35.032,"longitude":135.734528},{"id":"KA140","name":"宋紫石竹画碑","address":"上京区馬喰町(北野天満宮内)","latitude":35.030778,"longitude":135.735278},{"id":"KA141","name":"平安宮大蔵省跡","address":"上京区中立売通裏門西入南側","latitude":35.024861,"longitude":135.745917},{"id":"KA142","name":"筆塚碑","address":"上京区馬喰町(北野天満宮内)","latitude":35.029639,"longitude":135.735194},{"id":"KA143","name":"桂昌院殿生家菩提寺","address":"上京区葭屋町通下立売上る西側(真敬寺前)","latitude":35.020333,"longitude":135.751167},{"id":"KA144","name":"小松帯刀寓居参考地・近衛家堀川邸跡他","address":"上京区一条通堀川東入南側","latitude":35.026194,"longitude":135.7525},{"id":"KA145","name":"禁門変長州藩殉難者墓所","address":"上京区相国寺門前町(相国寺総墓地前)","latitude":35.032972,"longitude":135.76075},{"id":"KA146","name":"西陣名技碑","address":"上京区馬喰町(北野天満宮北門前)","latitude":35.032167,"longitude":135.735194},{"id":"KA147","name":"松永君紀功碑","address":"上京区馬喰町(北野天満宮北門前)","latitude":35.032167,"longitude":135.735},{"id":"KA148","name":"艸冢銘","address":"上京区馬喰町(北野天満宮内)","latitude":35.031222,"longitude":135.735333},{"id":"KA149","name":"北野会碑","address":"上京区七本松通一条上る","latitude":35.026778,"longitude":135.736611},{"id":"KA150","name":"上杉景勝屋敷跡","address":"上京区黒門通一条上る","latitude":35.02675,"longitude":135.74975},{"id":"KA151","name":"直江兼続・上杉景勝屋敷跡","address":"上京区椹木町通葭屋町東入","latitude":35.018722,"longitude":135.751222},{"id":"KA152","name":"聚楽第址","address":"上京区中立売通大宮北西角","latitude":35.024944,"longitude":135.748944},{"id":"KA153","name":"新建石鳥居碑","address":"上京区七本松通一条上る","latitude":35.026778,"longitude":135.736833},{"id":"KA155","name":"十津川屋敷跡地","address":"上京区下切通新烏丸東入北側","latitude":35.018639,"longitude":135.768194},{"id":"KA156","name":"初代上京区役所跡","address":"上京区小川通中立売東南角","latitude":35.025,"longitude":135.754333},{"id":"KA157","name":"西陣大火犠牲者供養碑","address":"上京区五辻通千本西入南側(三會寺内)","latitude":35.030722,"longitude":135.741389},{"id":"KA158","name":"立入宗継旌忠碑","address":"上京区寺町通広小路上る(清浄華院内)","latitude":35.025389,"longitude":135.768139},{"id":"KA159","name":"石牛縁起碑","address":"上京区馬喰町(北野天満宮内)","latitude":35.031167,"longitude":135.735361},{"id":"KA160","name":"山名氏清碑","address":"上京区五辻通六軒町西入北側(大報恩寺内)","latitude":35.031472,"longitude":135.739667},{"id":"KA161","name":"菅原道真神製碑","address":"上京区馬喰町(北野天満宮内)","latitude":35.029222,"longitude":135.735139},{"id":"KA162","name":"豊臣秀勝邸跡伝承地","address":"上京区土屋町通出水上る東側","latitude":35.02175,"longitude":135.743972},{"id":"KA163","name":"昭和十年水害浸水被害記念碑","address":"上京区上立売通油小路西南角","latitude":35.031944,"longitude":135.753333},{"id":"KA164","name":"二条家邸跡","address":"上京区今出川通寺町西入二丁目北側(同志社女子大学東門前)","latitude":35.029222,"longitude":135.766139},{"id":"KA165","name":"三条実美頌徳碑","address":"上京区寺町通広小路上る西側(梨木神社内)","latitude":35.024028,"longitude":135.767333},{"id":"KA166","name":"慶光天皇廬山寺陵【道標】","address":"上京区寺町通広小路上る東側(廬山寺薬医門前)","latitude":35.024333,"longitude":135.767611},{"id":"KA167","name":"廬山寺陵参道【道標】","address":"上京区寺町通広小路上る東側(廬山寺内)","latitude":35.02425,"longitude":135.768111},{"id":"KA168","name":"中山愛親表彰碑","address":"上京区寺町通広小路上る東側(廬山寺墓地内)","latitude":35.024806,"longitude":135.768639},{"id":"KA169","name":"中山家遠祖墳表記碑","address":"上京区寺町通広小路上る東側(廬山寺墓地内)","latitude":35.024806,"longitude":135.768639},{"id":"KA170","name":"中山家遠祖夫人霊名碑","address":"上京区寺町通広小路上る東側(廬山寺墓地内)","latitude":35.024806,"longitude":135.768639},{"id":"KA171","name":"清三宝大荒神尊","address":"上京区荒神口通寺町東入南側(護浄院前)","latitude":35.021306,"longitude":135.768583},{"id":"KA172","name":"出世稲荷跡","address":"上京区千本通竹屋町下る東側","latitude":35.0155,"longitude":135.742667},{"id":"KI001","name":"牛若丸誕生井","address":"北区紫竹牛若町","latitude":35.048639,"longitude":135.743639},{"id":"KI002","name":"牛若丸胞衣塚","address":"北区紫竹牛若町","latitude":35.048722,"longitude":135.743694},{"id":"KI004","name":"応仁永正戦跡舟岡山","address":"北区紫野北舟岡町(船岡山公園内)","latitude":35.040194,"longitude":135.741722},{"id":"KI005","name":"平安遊禽綿子池旧跡","address":"北区大宮釈迦谷(尺八池南畔)","latitude":35.058,"longitude":135.733889},{"id":"KI006","name":"西園寺公邸址","address":"北区衣笠氷室町(西園寺記念館内)","latitude":35.038972,"longitude":135.727139},{"id":"KI008","name":"北野廃寺跡","address":"北区北野上白梅町","latitude":35.0275,"longitude":135.731694},{"id":"KI009","name":"源義経産湯井遺址","address":"北区紫竹牛若町","latitude":35.047583,"longitude":135.744972},{"id":"KI010","name":"長州人首塚碑","address":"北区鞍馬口通寺町東入北側(上善寺内)","latitude":35.037861,"longitude":135.763306},{"id":"KI011","name":"蓮月尼旧栖茶所","address":"北区西賀茂神光院町(神光院内)","latitude":35.059917,"longitude":135.743528},{"id":"KI012","name":"御土居","address":"北区鷹峯旧土居町","latitude":35.04575,"longitude":135.735972},{"id":"KI013","name":"皇后陛下御野立所","address":"北区大将軍坂田町(花園団地東北隅)","latitude":35.025972,"longitude":135.725},{"id":"KI014","name":"京都工芸繊維大学繊維学部発祥地","address":"北区大将軍坂田町(花園団地東北隅)","latitude":35.025944,"longitude":135.724944},{"id":"KI015","name":"御土居","address":"北区平野鳥居前町","latitude":35.033306,"longitude":135.734917},{"id":"KI016","name":"建勲神社本殿真御柱跡","address":"北区紫野北舟岡町(建勲神社内)","latitude":35.038083,"longitude":135.744556},{"id":"KI017","name":"岩倉具視公旧蹟","address":"北区西賀茂北今原町(霊源寺前)","latitude":35.065056,"longitude":135.73975},{"id":"KI018","name":"御土居","address":"北区紫竹上堀川町","latitude":35.055306,"longitude":135.751333},{"id":"KI019","name":"寸松庵・梅巌庵趾","address":"北区紫野大徳寺町(狐篷庵附近)","latitude":35.043472,"longitude":135.739333},{"id":"KI020","name":"大光院趾・瑞源院趾","address":"北区紫野大徳寺町(紫野高校附近)","latitude":35.043778,"longitude":135.741306},{"id":"KI021","name":"金龍院趾","address":"北区紫野大徳寺(紫野高校テニスコート南東角)","latitude":35.043556,"longitude":135.74225},{"id":"KI022","name":"御土居","address":"北区鷹峯旧土居町","latitude":35.049778,"longitude":135.735},{"id":"KI023","name":"出雲路鞍馬口","address":"北区出雲路立テ本町(出雲路橋東詰)","latitude":35.038278,"longitude":135.765444},{"id":"KI024","name":"平野・金閣寺【道標】","address":"北区北野上白梅町","latitude":35.02825,"longitude":135.732833},{"id":"KI025","name":"等持寺・竜安寺道【道標】","address":"北区平野鳥居前町","latitude":35.030194,"longitude":135.733},{"id":"KI026","name":"わら天神道【道標】","address":"北区衣笠高橋町","latitude":35.035722,"longitude":135.733639},{"id":"KI027","name":"今宮神社参拝道【道標】","address":"北区紫野南舟岡町","latitude":35.037306,"longitude":135.745028},{"id":"KI028","name":"花山天皇陵参道【道標】","address":"北区衣笠北高橋町","latitude":35.036083,"longitude":135.733667},{"id":"KI029","name":"金閣寺・嵐山道【道標】","address":"北区平野八丁柳町","latitude":35.031194,"longitude":135.7295},{"id":"KI030","name":"花山天皇陵参道【道標】","address":"北区平野宮本町","latitude":35.030222,"longitude":135.733},{"id":"KI031","name":"等持院・竜安寺・御室方面【道標】","address":"北区等持院東町","latitude":35.029167,"longitude":135.727694},{"id":"KI032","name":"足利家菩提所等持院【道標】","address":"北区等持院東町","latitude":35.029167,"longitude":135.727694},{"id":"KI033","name":"後朱雀天皇陵参道【道標】","address":"北区小松原北町","latitude":35.03,"longitude":135.727694},{"id":"KI035","name":"花山天皇陵・二条天皇陵参道【道標】","address":"北区北野東紅梅町","latitude":35.028278,"longitude":135.732889},{"id":"KI038","name":"雲ヶ畑の道標【道標】","address":"北区雲ヶ畑出谷町","latitude":35.124722,"longitude":135.714444},{"id":"KI040","name":"今宮・大徳寺・北野・金閣寺【道標】","address":"北区紫竹上竹殿町(三叉路)","latitude":35.053083,"longitude":135.747972},{"id":"KI041","name":"源頼光朝臣塚","address":"北区紫野十二坊町(上品蓮台寺内)","latitude":35.039222,"longitude":135.738583},{"id":"KI043","name":"岩倉・木野・鞍馬【道標】","address":"北区上賀茂深泥池町","latitude":35.057333,"longitude":135.766583},{"id":"KI044","name":"植物園北遺跡","address":"北区上賀茂松本町","latitude":35.052722,"longitude":135.766806},{"id":"KI045","name":"京都特産すぐき発祥地","address":"北区上賀茂土門町(穂根束児童公園内)","latitude":35.055444,"longitude":135.763222},{"id":"KI046","name":"地蔵尊岩倉道【道標】","address":"北区上賀茂狭間町","latitude":35.058639,"longitude":135.766389},{"id":"KI047","name":"地蔵尊京道【道標】","address":"北区上賀茂狭間町","latitude":35.058583,"longitude":135.766389},{"id":"KI048","name":"弘法大師道【道標】","address":"北区大宮中ノ社町","latitude":35.058306,"longitude":135.746861},{"id":"KI049","name":"氷室跡","address":"北区西賀茂氷室町","latitude":35.084972,"longitude":135.719972},{"id":"KI050","name":"船岡山","address":"北区紫野北舟岡町(建勲神社南参道)","latitude":35.038167,"longitude":135.744111},{"id":"KI051","name":"西賀茂弘法大師道【道標】","address":"北区紫野西泉堂町","latitude":35.04925,"longitude":135.741111},{"id":"KI052","name":"真珠庵・大仙院・芳春院【道標】","address":"北区紫野大徳寺町(大徳寺内)","latitude":35.043639,"longitude":135.745639},{"id":"KI053","name":"今宮参道【道標】","address":"北区紫野大徳寺町(大徳寺内)","latitude":35.043389,"longitude":135.744222},{"id":"KI054","name":"鷹峰光悦寺道【道標】","address":"北区衣笠馬場町","latitude":35.039389,"longitude":135.731917},{"id":"KI055","name":"三条天皇北山陵参道【道標】","address":"北区衣笠馬場町","latitude":35.039389,"longitude":135.731917},{"id":"KI056","name":"立命館大学理工学部発祥地","address":"北区等持院北町(立命館大学修学館前)","latitude":35.032389,"longitude":135.724694},{"id":"KI057","name":"新村出博士旧宅","address":"北区小山中溝町","latitude":35.038306,"longitude":135.757111},{"id":"KI058","name":"下賀茂社へ五町【道標】","address":"北区出雲路立テ本町(出雲路橋西詰)","latitude":35.038028,"longitude":135.765556},{"id":"KI059","name":"上賀茂へ八丁【道標】","address":"北区紫竹下竹殿町(久我神社前)","latitude":35.052083,"longitude":135.747667},{"id":"KI060","name":"御土居","address":"北区紫野西土居町","latitude":35.036278,"longitude":135.736194},{"id":"KI061","name":"御土居","address":"北区大宮土居町","latitude":35.051722,"longitude":135.740583},{"id":"KI062","name":"師範桜碑","address":"北区出雲路立テ本町(出雲路橋西詰)","latitude":35.038222,"longitude":135.765444},{"id":"KI063","name":"参議小野公塋域碑","address":"北区紫野西御所田町","latitude":35.039528,"longitude":135.751333},{"id":"KI064","name":"和香水銘","address":"北区杉坂道風町(道風神社内)","latitude":35.087333,"longitude":135.707194},{"id":"KI065","name":"夜泣塚地蔵尊【道標】","address":"北区小山南大野町","latitude":35.040417,"longitude":135.757278},{"id":"KI066","name":"御室嵯峨道【道標】","address":"北区衣笠天神森町(わら天神宮内)","latitude":35.03625,"longitude":135.731611},{"id":"KI067","name":"新織繻子碑","address":"北区紫野今宮町","latitude":35.045667,"longitude":135.743167},{"id":"KI068","name":"稲田玉鳳翁碑","address":"北区紫野今宮町(今宮神社内)","latitude":35.045667,"longitude":135.741722},{"id":"KI069","name":"鷹ヶ峰薬園跡","address":"北区鷹峰藤林町","latitude":35.047972,"longitude":135.736444},{"id":"KI070","name":"常盤井碑","address":"北区紫野下築山町","latitude":35.039417,"longitude":135.746667},{"id":"KI071","name":"本尊美君碑","address":"北区西賀茂鎮守菴町(西方寺内)","latitude":35.058861,"longitude":135.739972},{"id":"KI072","name":"蓮月尼碑","address":"北区西賀茂神光院町(神光院内)","latitude":35.059861,"longitude":135.743556},{"id":"KI073","name":"故蓮月尼紀念碑","address":"北区西賀茂鎮守菴町(西方寺内)","latitude":35.058917,"longitude":135.74},{"id":"KI074","name":"金閣寺道／愛宕道【道標】","address":"北区小山板倉町(今宮通新町東入北側)","latitude":35.046417,"longitude":135.755333},{"id":"KI075","name":"洛北中部五地区土地区画整理碑","address":"北区小山初音町(紫野柳児童公園内)","latitude":35.044583,"longitude":135.754056},{"id":"KI076","name":"池田新兵衛・舩越嘉右衛門表彰碑","address":"北区小山初音町(紫野柳児童公園内)","latitude":35.044611,"longitude":135.754111},{"id":"KI077","name":"本阿弥光悦翁屋敷跡","address":"北区鷹峯南鷹峯町","latitude":35.052694,"longitude":135.733167},{"id":"KI078","name":"本阿弥光悦翁旧蹟","address":"北区鷹峯光悦町(光悦寺前)","latitude":35.054111,"longitude":135.730278},{"id":"MI001","name":"硯の水","address":"南区吉祥院政所町(吉祥院天満宮内)","latitude":34.973528,"longitude":135.734472},{"id":"MI002","name":"綜芸種智院蹟","address":"南区西九条池ノ内町(西福寺前)","latitude":34.982972,"longitude":135.752417},{"id":"MI003","name":"西寺阯","address":"南区唐橋西寺町(西寺児童公園内)","latitude":34.980667,"longitude":135.73775},{"id":"MI004","name":"羅城門遺址","address":"南区唐橋羅城門町(花園児童公園内)","latitude":34.979278,"longitude":135.742583},{"id":"MI005","name":"北政所吉祥女住所蹟","address":"南区吉祥院政所町(吉祥院天満宮参道入口)","latitude":34.972667,"longitude":135.735417},{"id":"MI006","name":"円光大師法然上人光明橋趾","address":"南区東九条上御霊町(九品寺前)","latitude":34.980222,"longitude":135.7625},{"id":"MI007","name":"平安京東洞院大路東側溝跡","address":"南区東九条南山王町(京都市南図書館内)","latitude":34.981028,"longitude":135.76125},{"id":"MI008","name":"西寺大炊殿跡","address":"南区唐橋西寺町","latitude":34.981694,"longitude":135.737278},{"id":"MI009","name":"鑑井銘","address":"南区吉祥院政所町(吉祥院天満宮内)","latitude":34.973083,"longitude":135.735222},{"id":"MI010","name":"苅萓道心旧跡","address":"南区上鳥羽鍋ヶ淵町(誓祐寺前)","latitude":34.961472,"longitude":135.742111},{"id":"MI011","name":"菅公御誕生地","address":"南区吉祥院政所町(吉祥院天満宮内)","latitude":34.973222,"longitude":135.735083},{"id":"MI012","name":"菅原院南庭七男畠蹟","address":"南区吉祥院政所町(吉祥院天満宮内)","latitude":34.973111,"longitude":135.734639},{"id":"MI013","name":"柳谷観世音菩薩【道標】","address":"南区唐橋羅城門町(矢取地蔵前)","latitude":34.979139,"longitude":135.742556},{"id":"MI014","name":"吉祥院天満宮への道【道標】","address":"南区上鳥羽唐戸町","latitude":34.973444,"longitude":135.742389},{"id":"MI015","name":"愛宕道【道標】","address":"南区上鳥羽山ノ本町","latitude":34.964722,"longitude":135.739833},{"id":"MI016","name":"菅原清公卿御墳墓通路【道標】","address":"南区吉祥院稲葉町","latitude":34.968056,"longitude":135.7385},{"id":"MI017","name":"蔵王権現道【道標】","address":"南区久世上久世町(蔵王堂前)","latitude":34.966611,"longitude":135.714778},{"id":"MI018","name":"西寺旧跡","address":"南区唐橋平垣町(西寺前)","latitude":34.981917,"longitude":135.736083},{"id":"MI019","name":"西国街道【道標】","address":"南区久世川原町","latitude":34.963556,"longitude":135.720944},{"id":"MI020","name":"東寺へ十八丁【道標】","address":"南区吉祥院西浦町","latitude":34.973472,"longitude":135.729361},{"id":"MI021","name":"宇賀神社参道【道標】","address":"南区東九条中札辻町","latitude":34.976083,"longitude":135.761889},{"id":"MI022","name":"奥田穂碑","address":"南区吉祥院政所町(吉祥院天満宮内)","latitude":34.973,"longitude":135.73425},{"id":"MI023","name":"恋塚碑","address":"南区上鳥羽岩ノ本町(浄禅寺内)","latitude":34.958417,"longitude":135.743139},{"id":"MI024","name":"仏頂尊勝陀羅尼碑","address":"南区九条町(東寺内)","latitude":34.981333,"longitude":135.746694},{"id":"MI025","name":"教王護国寺境内","address":"南区九条町(東寺東門前)","latitude":34.981861,"longitude":135.748972},{"id":"MI026","name":"都城六勇士殉難記命碑","address":"南区唐橋井園町(狐塚墓地内)","latitude":34.983556,"longitude":135.739972},{"id":"MI027","name":"天神川改修碑","address":"南区吉祥院東浦町","latitude":34.970333,"longitude":135.738833},{"id":"MI028","name":"平重衡受戒地","address":"南区西九条池之内町","latitude":34.984139,"longitude":135.753556},{"id":"MI029","name":"上鳥羽村道路元標","address":"南区上鳥羽城ヶ前町(JA京都市・上鳥羽支店内)","latitude":34.963694,"longitude":135.742472},{"id":"NA001","name":"中沼了三先生講書所","address":"中京区烏丸通夷川下る東側","latitude":35.014806,"longitude":135.759778},{"id":"NA002","name":"梅田雲浜邸址","address":"中京区烏丸通御池上る東側","latitude":35.011389,"longitude":135.759611},{"id":"NA004","name":"東三条殿址","address":"中京区押小路通釜座西北角","latitude":35.012167,"longitude":135.75575},{"id":"NA005","name":"豊臣秀吉妙顕寺城跡","address":"中京区押小路通小川西入北側","latitude":35.012028,"longitude":135.753667},{"id":"NA006","name":"閑院内裏址","address":"中京区押小路通小川西北角","latitude":35.012194,"longitude":135.753972},{"id":"NA007","name":"東町奉行所跡","address":"中京区西ノ京職司町","latitude":35.012,"longitude":135.746944},{"id":"NA008","name":"大学寮址","address":"中京区西ノ京北聖町","latitude":35.012167,"longitude":135.745111},{"id":"NA009","name":"坂本龍馬寓居趾","address":"中京区河原町通三条下る一筋目東入北側","latitude":35.008444,"longitude":135.769889},{"id":"NA011","name":"坂本龍馬・中岡慎太郎遭難地","address":"中京区河原町通四条上る西側","latitude":35.005278,"longitude":135.769389},{"id":"NA012","name":"中岡慎太郎寓居地","address":"中京区河原町通四条上る東側","latitude":35.004639,"longitude":135.768694},{"id":"NA013","name":"明治天皇行幸所織工場阯","address":"中京区河原町通二条下る東側(日本銀行京都支店前)","latitude":35.012333,"longitude":135.768861},{"id":"NA014","name":"在原業平邸址","address":"中京区間之町通御池下る東側","latitude":35.010611,"longitude":135.761722},{"id":"NA015","name":"中山内府威蹟地","address":"中京区岩上通蛸薬師上る西側(中山神社前)","latitude":35.006722,"longitude":135.751056},{"id":"NA016","name":"木下順庵邸址","address":"中京区錦小路通烏丸西入南側","latitude":35.005,"longitude":135.758944},{"id":"NA017","name":"浅見絅斎邸址","address":"中京区錦小路通高倉西入南側","latitude":35.005,"longitude":135.762389},{"id":"NA018","name":"四条坊門小路跡","address":"中京区壬生馬場町(壬生坊城団地前)","latitude":35.006083,"longitude":135.745833},{"id":"NA019","name":"藤本鉄石寓居址","address":"中京区御幸町通三条上る東側","latitude":35.009139,"longitude":135.7665},{"id":"NA020","name":"明治天皇行幸所勧業場阯","address":"中京区御池通河原町東入(京都ホテルオークラ前)","latitude":35.011167,"longitude":135.769583},{"id":"NA021","name":"長州屋敷址","address":"中京区御池通河原町東入(京都ホテルオークラ前)","latitude":35.011278,"longitude":135.769611},{"id":"NA022","name":"足利尊氏邸・等持寺跡","address":"中京区御池通高倉上る東側(保事協会館前)","latitude":35.011556,"longitude":135.762389},{"id":"NA023","name":"弘文院址","address":"中京区御池通千本東入北側","latitude":35.010972,"longitude":135.744694},{"id":"NA024","name":"療病院址","address":"中京区御池通木屋町東入北側(御池大橋西詰)","latitude":35.011083,"longitude":135.771167},{"id":"NA025","name":"菁々塾跡","address":"中京区高倉通錦小路上る東側","latitude":35.005778,"longitude":135.762556},{"id":"NA027","name":"石田梅巌邸址","address":"中京区堺町通蛸薬師上る東側","latitude":35.006528,"longitude":135.763306},{"id":"NA028","name":"三条烏丸御所跡","address":"中京区三条通烏丸西入南側","latitude":35.008778,"longitude":135.758861},{"id":"NA029","name":"正五位長尾郁三郎武雄旧邸","address":"中京区三条通西洞院西入南側","latitude":35.008667,"longitude":135.754667},{"id":"NA030","name":"奨学院址","address":"中京区西ノ京南聖町","latitude":35.008778,"longitude":135.742861},{"id":"NA031","name":"西川耕蔵邸址","address":"中京区三条通富小路西入北側","latitude":35.008639,"longitude":135.764333},{"id":"NA032","name":"勧学院址","address":"中京区西ノ京勧学院町","latitude":35.008722,"longitude":135.744528},{"id":"NA033","name":"池田屋騒動址","address":"中京区三条通木屋町西入北側","latitude":35.009111,"longitude":135.769806},{"id":"NA034","name":"朱雀院跡","address":"中京区壬生花井町(日本写真印刷中央研究所内)","latitude":35.003667,"longitude":135.7395},{"id":"NA035","name":"三条東殿遺址","address":"中京区姉小路通烏丸東入南側","latitude":35.009,"longitude":135.759944},{"id":"NA036","name":"高松殿址","address":"中京区姉小路通釜座東入北側(高松神明社前)","latitude":35.009833,"longitude":135.756028},{"id":"NA037","name":"橘逸勢邸址","address":"中京区姉小路通東堀川東入上る東側","latitude":35.009722,"longitude":135.752611},{"id":"NA038","name":"横井小楠殉節地","address":"中京区寺町通丸太町下る東側","latitude":35.017028,"longitude":135.767167},{"id":"NA039","name":"間部詮勝寓居跡","address":"中京区寺町通二条下る東側","latitude":35.012417,"longitude":135.767194},{"id":"NA040","name":"藤原定家京極邸址","address":"中京区寺町通二条上る西側","latitude":35.013972,"longitude":135.767278},{"id":"NA041","name":"二条殿御池跡","address":"中京区室町通押小路下る東側","latitude":35.011611,"longitude":135.757917},{"id":"NA042","name":"望月玉泉居住地","address":"中京区室町通丸太町下る西側","latitude":35.017167,"longitude":135.757944},{"id":"NA043","name":"大黒庵武野紹鴎邸址","address":"中京区室町通四条上る東側","latitude":35.004361,"longitude":135.757694},{"id":"NA044","name":"新宮凉亭居住地","address":"中京区室町通竹屋町下る東側(路地奥)","latitude":35.015722,"longitude":135.758139},{"id":"NA045","name":"森寛斎宅蹟","address":"中京区室町通二条下る東側","latitude":35.012722,"longitude":135.774694},{"id":"NA046","name":"山脇東洋解剖碑所在墓地","address":"中京区新京極通三条下る東入(誓願寺墓地入口)","latitude":35.008028,"longitude":135.768333},{"id":"NA048","name":"肥前鹿島鍋島藩屋敷跡","address":"中京区新町通御池西南角","latitude":35.010694,"longitude":135.756389},{"id":"NA049","name":"二条城撮影所跡","address":"中京区西ノ京北聖町","latitude":35.012417,"longitude":135.745111},{"id":"NA050","name":"茶人珠光・織田信雄・加藤清正・紀州藩邸古蹟","address":"中京区西洞院通三条下る東側","latitude":35.007722,"longitude":135.755444},{"id":"NA051","name":"平安京大内裏朱雀門址","address":"中京区西ノ京小堀町","latitude":35.01375,"longitude":135.742528},{"id":"NA052","name":"西町奉行所跡","address":"中京区西ノ京北聖町(中京中学校前)","latitude":35.012528,"longitude":135.742611},{"id":"NA053","name":"南蛮寺跡","address":"中京区蛸薬師通室町西入北側","latitude":35.006056,"longitude":135.757444},{"id":"NA054","name":"本能寺址","address":"中京区蛸薬師通小川西南角","latitude":35.006111,"longitude":135.754389},{"id":"NA055","name":"冷然院跡","address":"中京区竹屋町通堀川西入(二条城北側)","latitude":35.015722,"longitude":135.751083},{"id":"NA056","name":"木戸孝允旧跡","address":"中京区土手町通竹屋町下る(石長本館松菊園前)","latitude":35.015139,"longitude":135.769583},{"id":"NA057","name":"日本最初盲唖院開学地","address":"中京区東洞院通押小路下る東側","latitude":35.011667,"longitude":135.760806},{"id":"NA058","name":"岸駒居住地","address":"中京区東洞院通丸太町下る東側","latitude":35.017139,"longitude":135.760833},{"id":"NA059","name":"呉春宅址","address":"中京区東洞院通錦小路上る西側","latitude":35.005611,"longitude":135.761278},{"id":"NA060","name":"高倉宮趾","address":"中京区東洞院通姉小路下る(こども相談センターパトナ前)","latitude":35.009667,"longitude":135.761056},{"id":"NA061","name":"明治天皇行幸所上京第二十九組小学校","address":"中京区東洞院通姉小路下る(こども相談センターパトナ前)","latitude":35.009667,"longitude":135.761056},{"id":"NA062","name":"吉益東洞宅蹟","address":"中京区東洞院通竹屋町下る東側(竹間公園内)","latitude":35.01575,"longitude":135.761056},{"id":"NA063","name":"並河天民講学所堀木舎阯","address":"中京区東堀川通丸太町上る東側","latitude":35.017694,"longitude":135.752},{"id":"NA064","name":"藤堂藩藩邸跡","address":"中京区東堀川通蛸薬師下る東側(堀川高校正門前)","latitude":35.005167,"longitude":135.752028},{"id":"NA065","name":"橋本左内寓居跡","address":"中京区東堀川通二条下る東側(京都国際ホテル跡)","latitude":35.013583,"longitude":135.752222},{"id":"NA066","name":"松永昌三講習堂址","address":"中京区東堀川通二条下る東側(ANAクラウンプラザホテル前)","latitude":35.012806,"longitude":135.752278},{"id":"NA067","name":"二条富小路内裏址","address":"中京区富小路通夷川下る西側(御所南小学校第二運動場前)","latitude":35.014556,"longitude":135.764917},{"id":"NA068","name":"大炊御門万里小路殿址","address":"中京区富小路通夷川上る西側","latitude":35.015194,"longitude":135.765056},{"id":"NA069","name":"手島堵庵五楽舎址","address":"中京区富小路通六角上る西側","latitude":35.007778,"longitude":135.764778},{"id":"NA070","name":"新選組遺蹟","address":"中京区壬生梛ノ宮町","latitude":35.002194,"longitude":135.744306},{"id":"NA071","name":"堀河天皇里内裏跡","address":"中京区堀川通二条下る東側(京都国際ホテル跡)","latitude":35.013389,"longitude":135.752194},{"id":"NA072","name":"二之船入跡","address":"中京区木屋町通御池上る西側","latitude":35.011306,"longitude":135.770333},{"id":"NA073","name":"水の堰止めの石","address":"中京区木屋町通御池下る西側","latitude":35.010361,"longitude":135.770389},{"id":"NA074","name":"佐久間象山寓居址","address":"中京区木屋町通御池下る東側","latitude":35.009972,"longitude":135.770417},{"id":"NA075","name":"加賀藩邸跡","address":"中京区木屋町通御池西南角","latitude":35.010694,"longitude":135.770556},{"id":"NA076","name":"彦根藩邸跡","address":"中京区木屋町通三条下る二筋目(山崎橋西詰)","latitude":35.007111,"longitude":135.770556},{"id":"NA077","name":"三之船入跡","address":"中京区木屋町通御池下る西側","latitude":35.010306,"longitude":135.770417},{"id":"NA078","name":"吉村寅太郎寓居址","address":"中京区木屋町通三条上る東側","latitude":35.009667,"longitude":135.770389},{"id":"NA079","name":"迷子しるべ石","address":"中京区新京極通三条下る(誓願寺前)","latitude":35.007361,"longitude":135.767528},{"id":"NA080","name":"平安宮朝堂院跡","address":"中京区丸太町通千本西入北側","latitude":35.018389,"longitude":135.742111},{"id":"NA081","name":"武市瑞山先生寓居跡","address":"中京区木屋町通三条上る東側","latitude":35.015722,"longitude":135.758139},{"id":"NA082","name":"本間精一郎遭難地","address":"中京区木屋町通四条上る東側","latitude":35.005722,"longitude":135.770333},{"id":"NA083","name":"土佐藩邸跡","address":"中京区木屋町通蛸薬師西南角","latitude":35.006333,"longitude":135.770444},{"id":"NA084","name":"大村益次郎卿遭難碑","address":"中京区木屋町通御池上る西側","latitude":35.01175,"longitude":135.770333},{"id":"NA085","name":"角倉氏邸址","address":"中京区木屋町通二条下る西側","latitude":35.012556,"longitude":135.770333},{"id":"NA086","name":"象山先生遭難碑","address":"中京区木屋町通御池上る西側","latitude":35.011722,"longitude":135.770389},{"id":"NA087","name":"兵部大輔大村益次郎公遺址","address":"中京区木屋町通二条下る東側","latitude":35.011861,"longitude":135.770389},{"id":"NA088","name":"桂小五郎・幾松寓居跡","address":"中京区木屋町通二条下る東側(旅館幾松前)","latitude":35.011694,"longitude":135.770417},{"id":"NA089","name":"見真大師遷化旧跡","address":"中京区柳馬場通御池上る東側(京都御池創生館前)","latitude":35.011667,"longitude":135.764},{"id":"NA090","name":"大老土井利勝屋敷跡","address":"中京区油小路通下る西側(京都堀川音楽高校内)","latitude":35.011667,"longitude":135.753306},{"id":"NA091","name":"福井藩邸址","address":"中京区油小路通二条下る西側(京都国際ホテル跡)","latitude":35.013083,"longitude":135.752083},{"id":"NA093","name":"徳川時代金座遺址","address":"中京区両替町通押小路下る東側","latitude":35.011972,"longitude":135.759389},{"id":"NA094","name":"二条殿址","address":"中京区両替町通御池上る東側","latitude":35.011472,"longitude":135.758722},{"id":"NA095","name":"徳川時代銀座遺址","address":"中京区両替町通御池上る東側","latitude":35.011389,"longitude":135.758583},{"id":"NA096","name":"日本近代医学発祥地","address":"中京区六角通神泉苑西入南側","latitude":35.007389,"longitude":135.770389},{"id":"NA097","name":"平野国臣外数十名終焉趾","address":"中京区六角通神泉苑西入南側","latitude":35.007389,"longitude":135.746639},{"id":"NA098","name":"山脇東洋観臓地","address":"中京区六角通神泉苑西入南側","latitude":35.007389,"longitude":135.746639},{"id":"NA099","name":"平安宮豊楽殿跡","address":"中京区聚楽廻西町","latitude":35.018083,"longitude":135.740056},{"id":"NA100","name":"竹内式部寓居址","address":"中京区麩屋町通丸太町西南角","latitude":35.017306,"longitude":135.765778},{"id":"NA101","name":"八文字屋自笑翁邸跡","address":"中京区麩屋町通六角下る西側","latitude":35.006861,"longitude":135.765583},{"id":"NA102","name":"木戸孝允旧跡","address":"中京区土手町通竹屋町下る(ホテルイシチョウ前)","latitude":35.015528,"longitude":135.770222},{"id":"NA103","name":"明治天皇行幸所木戸邸","address":"中京区土手町通竹屋町上る東入(京都市職員会館かもがわ前)","latitude":35.015472,"longitude":135.770306},{"id":"NA104","name":"隼神社旧蹟","address":"中京区壬生御所ノ内町","latitude":35.006,"longitude":135.744417},{"id":"NA105","name":"明治天皇行幸所木戸邸","address":"中京区土手町通竹屋町上る東入(木戸孝允旧邸内)","latitude":35.015528,"longitude":135.770694},{"id":"NA106","name":"島津製作所創業地","address":"中京区木屋町通二条下る西側(島津製作所創業記念資料館内)","latitude":35.012667,"longitude":135.770333},{"id":"NA107","name":"新選組屯所遺蹟","address":"中京区壬生梛ノ宮町","latitude":35.002194,"longitude":135.74425},{"id":"NA108","name":"一条革堂","address":"中京区寺町通竹屋町下る東側(行願寺前)","latitude":35.016139,"longitude":135.764861},{"id":"NA109","name":"日本最初小学校柳池校","address":"中京区柳馬場通御池上る東側(京都御池創生館前)","latitude":35.011083,"longitude":135.764056},{"id":"NA110","name":"京都市立商業実修学校跡","address":"中京区富小路通二条上る西側(御所南小学校第二運動場前)","latitude":35.014028,"longitude":135.764889},{"id":"NA111","name":"堀川御池橋跡","address":"中京区堀川通御池東北角","latitude":35.011333,"longitude":135.751861},{"id":"NA112","name":"旧二条離宮二条城","address":"中京区堀川通御池上る西側(二条城大手門前)","latitude":35.012694,"longitude":135.751222},{"id":"NA113","name":"富有小学校の碑","address":"中京区富小路通竹屋町下る西側","latitude":35.015611,"longitude":135.765},{"id":"NA114","name":"京都電信電話発祥の地","address":"中京区三条通東洞院北西角","latitude":35.008639,"longitude":135.760944},{"id":"NA115","name":"柳池幼稚園記念碑","address":"中京区柳馬場通御池上る東側(京都御池創生館前)","latitude":35.011167,"longitude":135.764056},{"id":"NA116","name":"堀川高校専修夜間部跡","address":"中京区柳馬場通御池上る東側(京都御池創生館前)","latitude":35.011167,"longitude":135.764056},{"id":"NA117","name":"神泉苑東端線","address":"中京区押小路通大宮交叉点北側","latitude":35.012111,"longitude":135.748778},{"id":"NA118","name":"柳の水","address":"中京区西洞院通三条下る東側","latitude":35.007917,"longitude":135.755222},{"id":"NA119","name":"平安京朱雀大路と朱雀門","address":"中京区西ノ京栂尾町(ＪＲ二条駅東口)","latitude":35.011028,"longitude":135.741944},{"id":"NA120","name":"一遍上人念仏賦算遺跡","address":"中京区新京極通四条上る西側","latitude":35.003639,"longitude":135.7675},{"id":"NA121","name":"竹間小学校・竹間幼稚園の碑","address":"中京区東洞院通竹屋町下る東側(竹間児童公園内)","latitude":35.015611,"longitude":135.760917},{"id":"NA122","name":"若狭小浜藩邸跡","address":"中京区西ノ京池ノ内町","latitude":35.010972,"longitude":135.746194},{"id":"NA123","name":"角倉了以別邸跡","address":"中京区木屋町通二条下る東側","latitude":35.012556,"longitude":135.7705},{"id":"NA124","name":"高瀬川一之船入","address":"中京区木屋町通二条下る西側","latitude":35.01225,"longitude":135.770389},{"id":"NA125","name":"薩摩屋敷址","address":"中京区東洞院通錦小路下る東側","latitude":35.004611,"longitude":135.761028},{"id":"NA126","name":"日彰校記念碑","address":"中京区高倉通六角下る西側(高倉小学校前)","latitude":35.006889,"longitude":135.762444},{"id":"NA127","name":"新長谷寺古跡","address":"中京区西ノ京中保町","latitude":35.020944,"longitude":135.73025},{"id":"NA128","name":"是より洛中碑","address":"中京区木屋町通二条下る西側(日本銀行京都支店内)","latitude":35.012278,"longitude":135.770083},{"id":"NA129","name":"佐久間象山・大村益次郎遭難碑北へ約一町【道標】","address":"中京区三条通木屋町北西角","latitude":35.008917,"longitude":135.770306},{"id":"NA130","name":"膳所・大津道【道標】","address":"中京区土手町通夷川北西角","latitude":35.015667,"longitude":135.769944},{"id":"NA131","name":"烏丸御池遺跡・平安京跡","address":"中京区烏丸通御池北東角","latitude":35.010917,"longitude":135.76},{"id":"NA132","name":"二条城二之丸庭園","address":"中京区二条城町(二条城二の丸庭園内)","latitude":35.01325,"longitude":135.749722},{"id":"NA133","name":"二条城二之丸庭園","address":"中京区二条城町(二条城二の丸庭園内)","latitude":35.013167,"longitude":135.7495},{"id":"NA134","name":"旧二条離宮二条城","address":"中京区二条城町(二条城東大手門西側)","latitude":35.012861,"longitude":135.750889},{"id":"NA135","name":"都太夫一中発祥地","address":"中京区御池通堺町東入北側(明福寺内)","latitude":35.011083,"longitude":135.763361},{"id":"NA136","name":"辨慶石","address":"中京区三条通麩屋町東入北側","latitude":35.008694,"longitude":135.765917},{"id":"NA137","name":"御土居","address":"中京区西ノ京原町(市五郎大明神内)","latitude":35.012139,"longitude":135.732806},{"id":"NA138","name":"壺井地蔵尊","address":"中京区西ノ京北壺井町","latitude":35.015917,"longitude":135.729944},{"id":"NA139","name":"壺井茶所","address":"中京区西ノ京北壺井町","latitude":35.015833,"longitude":135.728917},{"id":"NA140","name":"大和街道【道標】","address":"中京区壬生神明町","latitude":35.006694,"longitude":135.73825},{"id":"NA141","name":"尼ヶ池地蔵尊【道標】","address":"中京区壬生天池町","latitude":35.007306,"longitude":135.739361},{"id":"NA142","name":"御鎮座旧跡","address":"中京区木屋町通二条下る東側","latitude":35.012139,"longitude":135.770583},{"id":"NA143","name":"いけばな発祥の地","address":"中京区六角通烏丸東入(六角堂内)","latitude":35.007639,"longitude":135.760472},{"id":"NA144","name":"日扇聖人降誕之地","address":"中京区蛸薬師通室町西入南側(誕生寺前)","latitude":35.005361,"longitude":135.757472},{"id":"NA145","name":"長松清風大徳誕生地","address":"中京区蛸薬師通室町西入南側(誕生寺前)","latitude":35.005889,"longitude":135.757639},{"id":"NA146","name":"平安宮造酒司倉庫跡","address":"中京区丸太町通七本松西入北側(京都アスニー内)","latitude":35.019,"longitude":135.738167},{"id":"NA147","name":"平安宮造酒司倉庫跡","address":"中京区丸太町通七本松西入北側(京都アスニー内)","latitude":35.018972,"longitude":135.738167},{"id":"NA148","name":"施薬院協会跡","address":"中京区丸太町通七本松西入北側(京都アスニー内)","latitude":35.019028,"longitude":135.738167},{"id":"NA149","name":"本能寺跡","address":"中京区油小路通蛸薬師下る東側(本能特別養護老人ホーム前)","latitude":35.005944,"longitude":135.753667},{"id":"NA150","name":"本能校跡","address":"中京区油小路通蛸薬師下る東側(本能特別養護老人ホーム前)","latitude":35.005667,"longitude":135.753667},{"id":"NA151","name":"神泉苑西端線","address":"中京区押小路通美福東入北側","latitude":35.012278,"longitude":135.745972},{"id":"NA152","name":"京都市道路元標","address":"中京区三条通烏丸東南角","latitude":35.008583,"longitude":135.759722},{"id":"NA153","name":"島津製作所創業記念碑","address":"中京区木屋町通二条下る西側(島津製作所創業記念資料館内)","latitude":35.012667,"longitude":135.770222},{"id":"NA154","name":"平安宮西限藻壁門跡","address":"中京区西ノ京左馬町(朱雀第二小学校内)","latitude":35.0185,"longitude":135.736194},{"id":"NA155","name":"山崎闇斎祠堂碑","address":"中京区寺町通丸太町下る東側(下御霊神社内)","latitude":35.017056,"longitude":135.767333},{"id":"NA156","name":"坂本龍馬妻お龍実家楢崎家跡","address":"中京区柳馬場通三条下る東側","latitude":35.008167,"longitude":135.764028},{"id":"NA157","name":"尼ヶ池旧跡","address":"中京区壬生天池町(福田寺内)","latitude":35.007278,"longitude":135.740056},{"id":"NA158","name":"木戸孝允邸址","address":"中京区土手町通竹屋町上る東入(京都市職員会館かもがわ内)","latitude":35.015639,"longitude":135.770611},{"id":"NA159","name":"坂本龍馬妻お龍寓居跡","address":"中京区木屋町通六角下る東側(高瀬川山崎橋東詰下る)","latitude":35.007333,"longitude":135.77025},{"id":"NA160","name":"五之舟入址","address":"中京区木屋町通三条下る西側","latitude":35.008278,"longitude":135.770444},{"id":"NA161","name":"六之舟入址","address":"中京区木屋町通山崎橋下る西側","latitude":35.007389,"longitude":135.770528},{"id":"NA162","name":"七之舟入址","address":"中京区木屋町通蛸薬師橋下る西側","latitude":35.00625,"longitude":135.770333},{"id":"NA163","name":"八之舟入址","address":"中京区木屋町通紙屋橋上る西側","latitude":35.005444,"longitude":135.770306},{"id":"NA164","name":"九之舟入址","address":"中京区木屋町通四条上る西側","latitude":35.004472,"longitude":135.770417},{"id":"NA166","name":"京都市営交通事業記念碑","address":"中京区壬生坊城町(みぶ操車場前)","latitude":35.005944,"longitude":135.745833},{"id":"NA167","name":"前田又吉銅像記碑","address":"中京区押小路通河原町東入南側(京都ホテルオークラ通用口前)","latitude":35.012111,"longitude":135.769833},{"id":"NA168","name":"又吉泉記碑","address":"中京区押小路通河原町東入南側(京都ホテルオークラ通用口前)","latitude":35.012056,"longitude":135.769833},{"id":"NA169","name":"往来安全灯【道標】","address":"中京区麩屋町通六角東北角","latitude":35.007389,"longitude":135.765722},{"id":"NA170","name":"石田梅岩心学講舎跡","address":"中京区車屋町通御池上る東側","latitude":35.011611,"longitude":135.760278},{"id":"NI001","name":"勤王家殉難地","address":"西京区樫原宇治井町","latitude":34.974556,"longitude":135.693861},{"id":"NI002","name":"興産紀功碑","address":"西京区大原野上羽町(JA京都研修センター内)","latitude":34.946194,"longitude":135.693722},{"id":"NI003","name":"一ノ井堰碑","address":"西京区嵐山西一川町","latitude":35.011139,"longitude":135.678556},{"id":"NI004","name":"道昌大僧正遺業大堰","address":"西京区嵐山上河原町(京都府嵐山公園管理事務所隣接河畔)","latitude":35.011583,"longitude":135.679306},{"id":"NI005","name":"大倭国讃葛野聖地","address":"西京区嵐山虚空蔵山町(法輪寺内)","latitude":35.009889,"longitude":135.678},{"id":"NI006","name":"西行法師旧跡","address":"西京区嵐山山田町(西光院前)","latitude":35.007528,"longitude":135.680889},{"id":"NI007","name":"大悲閣道【道標】","address":"西京区嵐山元禄山町","latitude":35.016056,"longitude":135.666528},{"id":"NI008","name":"大悲閣道【道標】","address":"西京区嵐山元禄山町","latitude":35.011944,"longitude":135.675139},{"id":"NI009","name":"西行桜跡・松尾神社・西芳寺林泉道【道標】","address":"西京区嵐山中尾下町","latitude":35.010111,"longitude":135.678722},{"id":"NI010","name":"西芳寺南へ二十町【道標】","address":"西京区嵐山中尾下町","latitude":35.011389,"longitude":135.677222},{"id":"NI011","name":"西芳寺南へ五町【道標】","address":"西京区嵐山宮ノ前町","latitude":35.00025,"longitude":135.687444},{"id":"NI012","name":"西山御坊・善峯・大原野・岩蔵【道標】","address":"西京区川島北裏町","latitude":34.977778,"longitude":135.705917},{"id":"NI013","name":"西山久遠寺道【道標】","address":"西京区川島北裏町(西山幼稚園前)","latitude":34.977972,"longitude":135.704111},{"id":"NI014","name":"京都第五中学校記念碑","address":"西京区上桂森上町(桂中学校前)","latitude":34.988722,"longitude":135.694861},{"id":"NI015","name":"是より東　山城国【道標】","address":"西京区大枝沓掛町(首塚東側)","latitude":34.986778,"longitude":135.638889},{"id":"NI016","name":"桓武天皇御母御陵参道【道標】","address":"西京区大枝沓掛町","latitude":34.977833,"longitude":135.66},{"id":"NI017","name":"孝子儀兵衛翁旧趾","address":"西京区川島粟田町","latitude":34.976444,"longitude":135.699417},{"id":"NI018","name":"大原野神社鳥居跡","address":"西京区大原野南春日町","latitude":34.954944,"longitude":135.665861},{"id":"NI019","name":"樫原廃寺跡","address":"西京区樫原内垣外町","latitude":34.970583,"longitude":135.690917},{"id":"NI020","name":"仏頂国師旧跡【道標】","address":"西京区樫原内垣外町(洞雲禅寺前)","latitude":34.971306,"longitude":135.690139},{"id":"NI021","name":"維新勤王志士墓在此丘上【道標】","address":"西京区樫原秤谷町","latitude":34.972639,"longitude":135.685556},{"id":"NI022","name":"松尾嵐山道【道標】","address":"西京区樫原上ノ町(三ノ宮神社前)","latitude":34.974083,"longitude":135.688778},{"id":"NI023","name":"天皇の杜古墳","address":"西京区御陵塚ノ越町","latitude":34.977722,"longitude":135.688944},{"id":"NI024","name":"天皇ノ杜古墳","address":"西京区御陵塚ノ越町","latitude":34.977389,"longitude":135.689139},{"id":"NI025","name":"孝子儀兵衛翁之墓【道標】","address":"西京区川島北裏町","latitude":34.977861,"longitude":135.706417},{"id":"NI026","name":"孝子儀兵衛翁墓参道【道標】","address":"西京区川島玉頭町","latitude":34.976444,"longitude":135.686444},{"id":"NI027","name":"押見宿祢霊社遺跡碑","address":"西京区松室山添町(月読神社内)","latitude":34.99675,"longitude":135.686444},{"id":"NI028","name":"地蔵院【道標】","address":"西京区松室地家町","latitude":34.992083,"longitude":135.686028},{"id":"NI029","name":"西芳寺・桂・川岡方面【道標】","address":"西京区松尾井戸町","latitude":34.99325,"longitude":135.689917},{"id":"NI030","name":"西芳寺【道標】","address":"西京区松尾井戸町","latitude":34.993222,"longitude":135.689972},{"id":"NI031","name":"浄住寺【道標】","address":"西京区松尾上ノ山町","latitude":34.990444,"longitude":135.690028},{"id":"NI032","name":"向日町・光明寺・長岡道【道標】","address":"西京区大原野南春日町","latitude":34.957417,"longitude":135.660194},{"id":"NI033","name":"よし峯・岩くら【道標】","address":"西京区大原野南春日町","latitude":34.956556,"longitude":135.658639},{"id":"NI034","name":"参陵道【道標】","address":"西京区大原野南春日町","latitude":34.956556,"longitude":135.658639},{"id":"NI035","name":"淳和天皇御陵道【道標】","address":"西京区大原野南春日町","latitude":34.958444,"longitude":135.654639},{"id":"NI036","name":"淳和天皇御陵道【道標】","address":"西京区大原野灰方町","latitude":34.952583,"longitude":135.66775},{"id":"NI037","name":"善峯・岩倉道【道標】","address":"西京区大原野南春日町","latitude":34.955833,"longitude":135.657306},{"id":"NI038","name":"長峰・阪本・灰谷・善峰【道標】","address":"西京区大原野灰方町","latitude":34.952167,"longitude":135.657139},{"id":"NI039","name":"大原野寺【道標】","address":"西京区大原野灰方町 ","latitude":34.952167,"longitude":135.657139},{"id":"NI040","name":"業平卿旧跡墳墓地","address":"西京区大原野小塩町(十輪寺前)","latitude":34.944389,"longitude":135.657139},{"id":"NI041","name":"業平朝臣塩汲道古跡","address":"西京区大原野小塩町","latitude":34.944222,"longitude":135.6585},{"id":"NI042","name":"妙見道【道標】","address":"西京区大原野石作山地","latitude":34.945806,"longitude":135.663417},{"id":"NI043","name":"孝子儀兵衛碑","address":"西京区川島玉頭町(冷聲院内)","latitude":34.974167,"longitude":135.701722},{"id":"NI044","name":"中路亨表彰碑","address":"西京区桂御園(桂大橋西詰北側)","latitude":34.983333,"longitude":135.711694},{"id":"NI045","name":"義民市原清兵衛君碑","address":"西京区嵐山宮ノ前町","latitude":35.000278,"longitude":135.687417},{"id":"NI046","name":"洛西用水竣工記念碑","address":"西京区嵐山宮ノ前町","latitude":35.000222,"longitude":135.687389},{"id":"NI047","name":"松尾村道路元標","address":"西京区嵐山宮ノ前町","latitude":35.00025,"longitude":135.687444},{"id":"NI048","name":"大原野村道路元標","address":"西京区大原野灰方町","latitude":34.952583,"longitude":135.66775},{"id":"NI049","name":"善行碑","address":"西京区川島滑樋町(川岡小学校内)","latitude":34.976222,"longitude":135.703833},{"id":"SA001","name":"鬼一法眼古跡","address":"左京区鞍馬本町(鞍馬小学校横)","latitude":35.105667,"longitude":135.764222},{"id":"SA002","name":"宮本・吉岡決闘地","address":"左京区一乗寺花ノ木町","latitude":35.04375,"longitude":135.7935},{"id":"SA003","name":"大楠公戦陣蹟","address":"左京区一乗寺花ノ木町","latitude":35.043722,"longitude":135.793556},{"id":"SA004","name":"一乗寺趾","address":"左京区一乗寺灯篭本町(集会所内)","latitude":35.04475,"longitude":135.79425},{"id":"SA005","name":"宮内少輔城址","address":"左京区一乗寺堀ノ内町(民家前)","latitude":35.046028,"longitude":135.794528},{"id":"SA006","name":"忠成公隠棲地","address":"左京区一乗寺堀ノ内町","latitude":35.047,"longitude":135.795056},{"id":"SA007","name":"梅田雲浜先生旧蹟","address":"左京区一乗寺葉山町(葉山観音内)","latitude":35.046194,"longitude":135.797806},{"id":"SA008","name":"全国水平社創立の地","address":"左京区岡崎最勝寺町(ロームシアター京都内)","latitude":35.014333,"longitude":135.781167},{"id":"SA009","name":"楠部弥弌作陶地","address":"左京区岡崎円勝寺町","latitude":35.011333,"longitude":135.782306},{"id":"SA010","name":"会津藩殉難者墓地","address":"左京区黒谷町(金戒光明寺前)","latitude":35.018083,"longitude":135.785861},{"id":"SA010-10","name":"会津墓地参道【道標】","address":"左京区黒谷町(金戒光明寺墓地内)","latitude":35.019778,"longitude":135.789278},{"id":"SA010-11","name":"会津墓地参道【道標】","address":"左京区黒谷町(金戒光明寺墓地内)","latitude":35.019722,"longitude":135.789444},{"id":"SA010-12","name":"会津墓地参道【道標】","address":"左京区黒谷町(金戒光明寺墓地内)","latitude":35.019806,"longitude":135.789444},{"id":"SA010-13","name":"会津墓地参道【道標】","address":"左京区黒谷町(金戒光明寺墓地内)","latitude":35.019778,"longitude":135.789694},{"id":"SA010-2","name":"会津墓地参道【道標】","address":"左京区黒谷町(金戒光明寺内)","latitude":35.018056,"longitude":135.786611},{"id":"SA010-3","name":"会津墓地参道【道標】","address":"左京区黒谷町(金戒光明寺内)","latitude":35.018,"longitude":135.787194},{"id":"SA010-4","name":"会津墓地参道【道標】","address":"左京区黒谷町(金戒光明寺内)","latitude":35.018556,"longitude":135.787556},{"id":"SA010-5","name":"会津墓地参道【道標】","address":"左京区黒谷町(金戒光明寺蓮池極楽橋前)","latitude":35.018556,"longitude":135.788083},{"id":"SA010-6","name":"会津墓地参道【道標】","address":"左京区黒谷町(金戒光明寺墓地入口)","latitude":35.018694,"longitude":135.788528},{"id":"SA010-7","name":"会津墓地参道【道標】","address":"左京区黒谷町(金戒光明寺墓地入口)","latitude":35.018694,"longitude":135.788528},{"id":"SA010-8","name":"会津墓地参道【道標】","address":"左京区黒谷町(金戒光明寺墓地内)","latitude":35.018806,"longitude":135.789028},{"id":"SA010-9","name":"会津墓地参道【道標】","address":"左京区黒谷町(金戒光明寺墓地内)","latitude":35.018806,"longitude":135.789028},{"id":"SA011","name":"香川景樹宅址","address":"左京区岡崎東福ノ川町","latitude":35.019139,"longitude":135.7845},{"id":"SA012","name":"法勝寺九重塔址","address":"左京区岡崎法勝寺町(京都市動物園内)","latitude":35.012778,"longitude":135.786056},{"id":"SA013","name":"白河院跡","address":"左京区岡崎法勝寺町","latitude":35.01325,"longitude":135.787833},{"id":"SA014","name":"明治天皇御駐輩所寒天製造場阯","address":"左京区下鴨宮河町","latitude":35.017833,"longitude":135.772361},{"id":"SA015","name":"小沢蘆庵宅址","address":"左京区岡崎入江町","latitude":35.017194,"longitude":135.784528},{"id":"SA016","name":"蒲生君平先生仮寓御趾","address":"左京区岡崎入江町","latitude":35.017194,"longitude":135.784528},{"id":"SA017","name":"白河北殿址","address":"左京区丸太町通東大路西入南側(京都大学熊野寮内)","latitude":35.017389,"longitude":135.775639},{"id":"SA018","name":"岩倉具視幽棲旧宅","address":"左京区岩倉上蔵町","latitude":35.078222,"longitude":135.78275},{"id":"SA019","name":"解脱寺閼伽井碑","address":"左京区岩倉長谷町","latitude":35.081528,"longitude":135.793639},{"id":"SA020","name":"朗詠谷","address":"左京区岩倉長谷町朗詠谷","latitude":35.084917,"longitude":135.794611},{"id":"SA021","name":"京都名水中川の井","address":"左京区岩倉幡枝町(妙満寺内)","latitude":35.06775,"longitude":135.774833},{"id":"SA022","name":"八ツ橋発祥地","address":"左京区聖護院山王町(熊野神社内)","latitude":35.017611,"longitude":135.778167},{"id":"SA023","name":"後花園天皇御遺蹟地","address":"左京区若王子町(熊野若王子神社前)","latitude":35.015417,"longitude":135.796139},{"id":"SA024","name":"此奥俊寛山荘地","address":"左京区鹿ヶ谷桜谷町(霊鑑寺南)","latitude":35.020278,"longitude":135.795528},{"id":"SA025","name":"親鸞聖人御旧跡きらら坂","address":"左京区修学院音羽谷","latitude":35.051583,"longitude":135.804278},{"id":"SA026","name":"千種忠顕卿戦死の地","address":"左京区修学院音羽谷","latitude":35.063833,"longitude":135.819361},{"id":"SA027","name":"水飲対陣跡","address":"左京区修学院音羽谷","latitude":35.055417,"longitude":135.813194},{"id":"SA028","name":"雲母寺跡","address":"左京区修学院音羽谷","latitude":35.052056,"longitude":135.8045},{"id":"SA029","name":"小野毛人朝臣墓","address":"左京区上高野西明寺山","latitude":35.066028,"longitude":135.801444},{"id":"SA030","name":"第一世本因坊算砂旧跡","address":"左京区仁王門通東大路西入南側(寂光寺前)","latitude":35.011944,"longitude":135.777417},{"id":"SA031","name":"剣聖内藤高治先生顕彰碑","address":"左京区聖護院円頓美町(旧武徳殿内)","latitude":35.016472,"longitude":135.780472},{"id":"SA032","name":"藤原惺窩市原山荘跡","address":"左京区静市市原(北市原第二児童公園内)","latitude":35.088278,"longitude":135.755972},{"id":"SA033","name":"梁川星巌邸址","address":"左京区川端通丸太町上る東側","latitude":35.018583,"longitude":135.772444},{"id":"SA034","name":"熊谷直実腰掛石・鉈捨藪","address":"左京区大原勝林院町(朱明橋畔)","latitude":35.120222,"longitude":135.834},{"id":"SA035","name":"御庵室遺蹟","address":"左京区大原草生町(寂光院内)","latitude":35.124222,"longitude":135.821306},{"id":"SA036","name":"吉田泉殿跡","address":"左京区吉田泉殿町","latitude":35.028472,"longitude":135.779028},{"id":"SA038","name":"延勝寺跡","address":"左京区岡崎成勝寺町(疏水畔)","latitude":35.012528,"longitude":135.779833},{"id":"SA039","name":"延勝寺跡","address":"左京区岡崎成勝寺町(京都市勧業館内)","latitude":35.013389,"longitude":135.780361},{"id":"SA040","name":"成勝寺跡","address":"左京区岡崎成勝寺町(京都市勧業館内)","latitude":35.013444,"longitude":135.781639},{"id":"SA041","name":"尊勝寺跡","address":"左京区岡崎最勝寺町(ロームシアター京都前)","latitude":35.013778,"longitude":135.781667},{"id":"SA042","name":"円勝寺跡","address":"左京区岡崎成勝寺町","latitude":35.013417,"longitude":135.783833},{"id":"SA043","name":"白幽子巌居蹟","address":"左京区北白川清沢口町(瓜生山中)","latitude":35.038333,"longitude":135.800167},{"id":"SA044","name":"照高院宮址","address":"左京区北白川山ノ元町","latitude":35.033944,"longitude":135.795639},{"id":"SA045","name":"滅苦寺跡","address":"左京区一乗寺樋ノ口町","latitude":35.036806,"longitude":135.791778},{"id":"SA046","name":"白河南殿跡","address":"左京区聖護院蓮華蔵町","latitude":35.015444,"longitude":135.777194},{"id":"SA047","name":"得長寿院跡","address":"左京区岡崎徳成町","latitude":35.015389,"longitude":135.778667},{"id":"SA048","name":"御所谷碑","address":"左京区八瀬秋元町(八瀬天満宮裏)","latitude":35.082639,"longitude":135.820528},{"id":"SA049","name":"寛平法皇御旧跡法皇寺","address":"左京区南禅寺福地町(牧護庵境内)","latitude":35.011694,"longitude":135.791667},{"id":"SA050","name":"おぼろの清水","address":"左京区大原草生町","latitude":35.122083,"longitude":135.824944},{"id":"SA051","name":"明治天皇行幸所牧畜場阯","address":"左京区吉田下阿達町(京都大学稲盛財団記念館内)","latitude":35.021667,"longitude":135.772417},{"id":"SA052","name":"第三高等学校基督教青年会館跡","address":"左京区吉田河原町","latitude":35.022528,"longitude":135.77275},{"id":"SA053","name":"親鸞上人御草庵御旧跡","address":"左京区岡崎天王町(岡崎別院内)","latitude":35.01675,"longitude":135.788333},{"id":"SA054","name":"岡崎神社御旅所跡","address":"左京区岡崎北御所町","latitude":35.016778,"longitude":135.785778},{"id":"SA055","name":"俊寛僧都故居碑","address":"左京区岡崎法勝寺町(満願寺内)","latitude":35.014722,"longitude":135.786528},{"id":"SA056","name":"大日本武徳会武道専門学校碑","address":"左京区岡崎円頓美町(京都市武道センター内)","latitude":35.016861,"longitude":135.780917},{"id":"SA057","name":"広池千九郎先生仮寓趾","address":"左京区仁王門通川端東入(頂妙寺内)","latitude":35.011889,"longitude":135.773667},{"id":"SA058","name":"聖護院旧仮皇居","address":"左京区聖護院中町(聖護院前)","latitude":35.018528,"longitude":135.780194},{"id":"SA059","name":"我邦尚歯会発祥地","address":"左京区修学院開根坊町(赤山禅院前)","latitude":35.055583,"longitude":135.800333},{"id":"SA060","name":"親鸞聖人御旧跡","address":"左京区一乗寺薬師堂町(本願寺北山別院前)","latitude":35.042528,"longitude":135.794889},{"id":"SA061","name":"諸九尼湖白庵・幻阿蝶夢五升庵址","address":"左京区岡崎法勝寺町(白河院前)","latitude":35.013472,"longitude":135.787806},{"id":"SA062","name":"石川丈山先生旧蹟【道標】","address":"左京区修学院仏者町","latitude":35.053167,"longitude":135.796694},{"id":"SA063","name":"石川丈山翁旧跡","address":"左京区一乗寺門口町(詩仙堂前)","latitude":35.044611,"longitude":135.796194},{"id":"SA064","name":"岩倉具視公旧蹟九兵衛宅址","address":"左京区岩倉花園町","latitude":35.073472,"longitude":135.793722},{"id":"SA065","name":"細井桜発祥地","address":"左京区岩倉幡枝町(専修寺内)","latitude":35.065139,"longitude":135.773028},{"id":"SA066","name":"真盛上人御旧跡","address":"左京区八瀬秋元町(黒谷青竜寺前)","latitude":35.083,"longitude":135.834306},{"id":"SA067","name":"円光大師旧跡","address":"左京区八瀬秋元町(黒谷青竜寺前)","latitude":35.083,"longitude":135.834306},{"id":"SA068","name":"後醍醐天皇御旧跡","address":"左京区八瀬秋元町(八瀬八幡宮内)","latitude":35.083583,"longitude":135.820222},{"id":"SA069","name":"大原小学校創立跡","address":"左京区大原大長瀬町(左京消防署大原出張所前)","latitude":35.116583,"longitude":135.8285},{"id":"SA070","name":"芹生神旧跡","address":"左京区大原勝林院町(芹生神前)","latitude":35.126972,"longitude":135.832111},{"id":"SA071","name":"権中納言敦忠・鷲尾家山荘跡","address":"左京区一乗寺谷田町","latitude":35.045361,"longitude":135.794},{"id":"SA072","name":"第一蹴の地","address":"左京区下鴨泉川町(賀茂御祖神社内)","latitude":35.03575,"longitude":135.772167},{"id":"SA073","name":"水力発電事業発祥地","address":"左京区粟田口鳥居町(関西電力蹴上発電所内)","latitude":35.010583,"longitude":135.78825},{"id":"SA074","name":"牧畜場記念碑","address":"左京区吉田下阿達町(京都大学稲盛財団記念館内)","latitude":35.021667,"longitude":135.772417},{"id":"SA075","name":"坂本・唐崎・白川道【道標】","address":"左京区吉田本町","latitude":35.025417,"longitude":135.778583},{"id":"SA076","name":"三条大橋二十五町・祇園・清水【道標】","address":"左京区北白川西町","latitude":35.028611,"longitude":135.785722},{"id":"SA077","name":"雲母道【道標】","address":"左京区一乗寺谷田町(民家内)","latitude":35.045361,"longitude":135.794028},{"id":"SA078","name":"浄土寺吉田方面【道標】","address":"左京区銀閣寺町","latitude":35.027139,"longitude":135.79725},{"id":"SA079","name":"親鸞聖人御旧跡是より東一町【道標】","address":"左京区一乗寺花ノ木町","latitude":35.042667,"longitude":135.79375},{"id":"SA080","name":"芭蕉菴・金福寺【道標】","address":"左京区一乗寺花ノ木町","latitude":35.042667,"longitude":135.79375},{"id":"SA081","name":"詩仙堂・円光寺道【道標】","address":"左京区一乗寺釈迦堂町","latitude":35.044194,"longitude":135.793861},{"id":"SA082","name":"狸谷不動明王道六町【道標】","address":"左京区一乗寺釈迦堂町","latitude":35.044194,"longitude":135.793861},{"id":"SA083","name":"比叡山【道標】","address":"左京区一乗寺釈迦堂町","latitude":35.044194,"longitude":135.793861},{"id":"SA084","name":"葉山馬頭観音・比叡山無動寺道【道標】","address":"左京区一乗寺東浦町","latitude":35.047028,"longitude":135.794806},{"id":"SA085","name":"雲母坂千種忠顕卿遺跡是より三十町【道標】","address":"左京区山端壱町田町","latitude":35.050694,"longitude":135.792139},{"id":"SA086","name":"林丘寺道【道標】","address":"左京区修学院中新開","latitude":35.053056,"longitude":135.799278},{"id":"SA087","name":"赤山道【道標】","address":"左京区修学院室町","latitude":35.053861,"longitude":135.798222},{"id":"SA088","name":"赤山禅院内の道標【道標】","address":"左京区修学院開根坊町","latitude":35.0555,"longitude":135.800194},{"id":"SA089","name":"大黒天・稲荷社【道標】","address":"左京区松ヶ崎東山(白雲稲荷神社前)","latitude":35.053222,"longitude":135.786528},{"id":"SA090","name":"横川道【道標】","address":"左京区八瀬秋元町(黒谷青竜寺前)","latitude":35.082972,"longitude":135.834167},{"id":"SA091","name":"黒谷へ十二町【道標】","address":"左京区八瀬秋元町(黒谷青竜寺から八瀬方面へ下りる山中)","latitude":35.08725,"longitude":135.823694},{"id":"SA092","name":"元三大師道【道標】","address":"左京区八瀬秋元町","latitude":35.087778,"longitude":135.821389},{"id":"SA093","name":"円光大師旧跡黒谷青龍寺是より十五町【道標】","address":"左京区八瀬秋元町","latitude":35.087778,"longitude":135.821444},{"id":"SA095","name":"寂光院十八町【道標】","address":"左京区大原戸寺町","latitude":35.102667,"longitude":135.824222},{"id":"SA096","name":"寂光院道【道標】","address":"左京区大原井手町(宮川橋南詰)","latitude":35.108833,"longitude":135.820917},{"id":"SA097","name":"寂光院・鞍馬道【道標】","address":"左京区大原井手町(宮川橋南詰)","latitude":35.108833,"longitude":135.823694},{"id":"SA098","name":"横川元三大師道【道標】","address":"左京区大原上野町","latitude":35.114833,"longitude":135.827806},{"id":"SA099","name":"第二十一番札所勝林院【道標】","address":"左京区大原大長瀬町","latitude":35.116778,"longitude":135.828639},{"id":"SA100","name":"魚山是より六町【道標】","address":"左京区大原大長瀬町","latitude":35.116778,"longitude":135.828611},{"id":"SA101","name":"大原里の道【道標】","address":"左京区大原来迎院町","latitude":35.120194,"longitude":135.830056},{"id":"SA102","name":"証拠の阿弥陀・若狭・古知谷道【道標】","address":"左京区大原勝林院町","latitude":35.119694,"longitude":135.829528},{"id":"SA103","name":"寂光院【道標】","address":"左京区大原来迎院町","latitude":35.121528,"longitude":135.829194},{"id":"SA104","name":"寂光院【道標】","address":"左京区大原草生町","latitude":35.120083,"longitude":135.827},{"id":"SA105","name":"寂光院【道標】","address":"左京区大原草生町","latitude":35.123139,"longitude":135.822722},{"id":"SA106","name":"寂光院【道標】","address":"左京区大原草生町","latitude":35.119167,"longitude":135.825583},{"id":"SA107","name":"寂光院【道標】","address":"左京区大原草生町","latitude":35.1185,"longitude":135.825861},{"id":"SA109","name":"金毘羅山の町石・一町【道標】","address":"左京区静市静原町(江文峠入口)","latitude":35.112667,"longitude":135.808028},{"id":"SA110","name":"金毘羅山の町石・二町【道標】","address":"左京区静市静原町(江文峠山中)","latitude":35.113972,"longitude":135.808417},{"id":"SA111","name":"後鳥羽天皇・順徳天皇御陵参道【道標】","address":"左京区大原勝林院町","latitude":35.119111,"longitude":135.833778},{"id":"SA112","name":"三千院道【道標】","address":"左京区大原上野町","latitude":35.112917,"longitude":135.827889},{"id":"SA113","name":"惟喬親王御墓参道【道標】","address":"左京区大原上野町","latitude":35.111083,"longitude":135.827444},{"id":"SA114","name":"惟喬親王御墓参道【道標】","address":"左京区大原上野町","latitude":35.111139,"longitude":135.825417},{"id":"SA115","name":"古知谷阿弥陀寺本堂六町【道標】","address":"左京区大原古知平町","latitude":35.137806,"longitude":135.834889},{"id":"SA117","name":"松ヶ崎・山端方面【道標】","address":"左京区松ヶ崎西町","latitude":35.052444,"longitude":135.777694},{"id":"SA118","name":"松ヶ崎・下鴨方面【道標】","address":"左京区松ヶ崎東池ノ内町(末刀岩上神社前)","latitude":35.053806,"longitude":135.777194},{"id":"SA119","name":"岩倉観音【道標】","address":"左京区岩倉上蔵町","latitude":35.076444,"longitude":135.78425},{"id":"SA120","name":"観音道【道標】","address":"左京区岩倉木野町(叡山電鉄木野駅前)","latitude":35.070972,"longitude":135.775083},{"id":"SA121","name":"愛宕社【道標】","address":"左京区岩倉木野町(叡山電鉄木野駅前)","latitude":35.070972,"longitude":135.775083},{"id":"SA122","name":"鎮宅妙見道是より三町【道標】","address":"左京区岩倉花園町","latitude":35.071889,"longitude":135.792611},{"id":"SA123","name":"岩倉公幽栖地【道標】","address":"左京区岩倉上蔵町(実相院前)","latitude":35.078833,"longitude":135.782583},{"id":"SA124","name":"観音道【道標】","address":"左京区岩倉中町","latitude":35.077306,"longitude":135.789167},{"id":"SA125","name":"鞍馬道【道標】","address":"左京区岩倉中在地町","latitude":35.078778,"longitude":135.785417},{"id":"SA126","name":"惺窩先生幽栖址是より西二町【道標】","address":"左京区静市市原町","latitude":35.087194,"longitude":135.7615},{"id":"SA127","name":"観音道是より三町【道標】","address":"左京区静市市原町","latitude":35.087278,"longitude":135.761528},{"id":"SA128","name":"帰雲院／永観堂・銀閣寺【道標】","address":"左京区南禅寺福地町(南禅寺内)","latitude":35.011611,"longitude":135.79275},{"id":"SA129","name":"金地院東照宮・蹴上大津行電車近道【道標】","address":"左京区南禅寺福地町(金地院前)","latitude":35.009861,"longitude":135.791028},{"id":"SA130","name":"黒谷／知恩院【道標】","address":"左京区岡崎入江町","latitude":35.018389,"longitude":135.784833},{"id":"SA131","name":"真如堂・白川【道標】","address":"左京区岡崎東福ノ川町(公安院内)","latitude":35.020806,"longitude":135.786167},{"id":"SA132","name":"安楽寺・法然院・銀閣寺道【道標】","address":"左京区鹿ヶ谷上宮ノ前町","latitude":35.020278,"longitude":135.793861},{"id":"SA133","name":"石川丈山先生旧蹟詩仙堂北十二町【道標】","address":"左京区北白川東久保田町","latitude":35.020278,"longitude":135.791306},{"id":"SA134","name":"御所・両本願寺／下り松【道標】","address":"左京区一乗寺花ノ木町","latitude":35.043861,"longitude":135.793778},{"id":"SA135","name":"蕪村翁再興芭蕉庵・金福寺【道標】","address":"左京区一乗寺門口町","latitude":35.044,"longitude":135.793778},{"id":"SA136","name":"円光寺【道標】","address":"左京区一乗寺小谷町","latitude":35.044111,"longitude":135.79575},{"id":"SA137","name":"岩倉陵・実相院宮墓参道【道標】","address":"左京区岩倉上蔵町","latitude":35.079306,"longitude":135.781972},{"id":"SA140","name":"俊寛僧都鹿谷山荘跡碑","address":"左京区鹿ヶ谷大黒谷町","latitude":35.018833,"longitude":135.8055},{"id":"SA141","name":"北白川小学校開校地の跡","address":"左京区北白川仕伏町(乗願院前)","latitude":35.031833,"longitude":135.79675},{"id":"SA142","name":"平安京造営瓦窯址","address":"左京区上高野小野町","latitude":35.064139,"longitude":135.794361},{"id":"SA143","name":"皇都鎮護埋経地","address":"左京区岩倉上蔵町","latitude":35.081389,"longitude":135.779083},{"id":"SA144","name":"女三宮御茶屋旧蹟地","address":"左京区岩倉上蔵町","latitude":35.08025,"longitude":135.782444},{"id":"SA145","name":"奉先堂碑","address":"左京区鞍馬二ノ瀬町","latitude":35.098806,"longitude":135.761861},{"id":"SA146","name":"八大天王社宮跡","address":"左京区一乗寺松原町","latitude":35.04175,"longitude":135.795944},{"id":"SA147","name":"岩倉具視公避匿所","address":"左京区岩倉上蔵町","latitude":35.078,"longitude":135.776056},{"id":"SA148","name":"東松ヶ崎の生活用水井戸跡","address":"左京区松ヶ崎東町","latitude":35.053472,"longitude":135.784611},{"id":"SA149","name":"三宅八幡宮・岩倉観世音【道標】","address":"左京区静市市原町(頼光橋西詰)","latitude":35.072028,"longitude":135.768194},{"id":"SA150","name":"金毘羅山の町石・四町【道標】","address":"左京区静市静原町(江文峠山中)","latitude":35.116389,"longitude":135.80825},{"id":"SA151","name":"江文寺の趾","address":"左京区静市静原町(江文峠山中)","latitude":35.115583,"longitude":135.808583},{"id":"SA153","name":"孝明天皇御衣更処茶屋跡","address":"左京区下鴨松原町","latitude":35.037611,"longitude":135.770667},{"id":"SA154","name":"糺の森","address":"左京区下鴨泉川町","latitude":35.034167,"longitude":135.771083},{"id":"SA155","name":"吉田松陰拝闕詩碑","address":"左京区岡崎成勝寺町(京都府立図書館内)","latitude":35.012639,"longitude":135.78225},{"id":"SA156","name":"唱導師日像聖人巡錫地","address":"左京区下鴨松ノ木町","latitude":35.039528,"longitude":135.770556},{"id":"SA158","name":"徳富蘇峰先生勉学処","address":"左京区田中西樋ノ口町(田中神社内)","latitude":35.034972,"longitude":135.782},{"id":"SA159","name":"北白川宮元精米所御殿車","address":"左京区北白川琵琶町","latitude":35.031806,"longitude":135.800667},{"id":"SA164","name":"真如堂【道標】","address":"左京区浄土寺石橋町","latitude":35.02725,"longitude":135.794194},{"id":"SA166","name":"粟田山陵・亀山天皇分骨所【道標】","address":"左京区南禅寺福地町","latitude":35.011194,"longitude":135.788389},{"id":"SA167","name":"粟田山陵・亀山天皇分骨所【道標】","address":"左京区南禅寺福地町(南禅寺内)","latitude":35.011056,"longitude":135.791722},{"id":"SA168","name":"駒ヶ瀧最勝院是ヨリ一丁【道標】","address":"左京区南禅寺福地町","latitude":35.010833,"longitude":135.793917},{"id":"SA169","name":"最勝院【道標】","address":"左京区南禅寺風呂山町(南禅寺南禅院前)","latitude":35.010444,"longitude":135.794222},{"id":"SA170","name":"駒ヶ瀧最勝院【道標】","address":"左京区南禅寺福地町(南禅寺最勝院前)","latitude":35.010639,"longitude":135.794889},{"id":"SA176","name":"勝軍地蔵尊【道標】","address":"左京区北白川別当町","latitude":35.029667,"longitude":135.79175},{"id":"SA177","name":"別所・京道【道標】","address":"左京区花脊別所町","latitude":35.165278,"longitude":135.780528},{"id":"SA178","name":"銀閣寺道【道標】","address":"左京区下鴨北園町","latitude":35.047389,"longitude":135.7715},{"id":"SA179","name":"二本松【道標】","address":"左京区下鴨貴船町","latitude":35.043306,"longitude":135.767611},{"id":"SA180","name":"見真大師聖蹟法泉寺","address":"左京区下鴨松ノ木町(法泉寺前)","latitude":35.041556,"longitude":135.771},{"id":"SA181","name":"新島襄先生墓地登り口【道標】","address":"左京区若王子町","latitude":35.0155,"longitude":135.793611},{"id":"SA182","name":"粟田山陵・冷泉天皇陵【道標】","address":"左京区若王子町","latitude":35.015556,"longitude":135.793611},{"id":"SA183","name":"光雲寺【道標】","address":"左京区南禅寺北ノ坊町","latitude":35.017139,"longitude":135.795972},{"id":"SA184","name":"安楽寺・法然院・銀閣寺道【道標】","address":"左京区鹿ヶ谷寺ノ前町","latitude":35.020222,"longitude":135.793861},{"id":"SA185","name":"光雲寺【道標】","address":"左京区鹿ヶ谷下宮ノ前町","latitude":35.016833,"longitude":135.7935},{"id":"SA186","name":"後一条天皇陵・陽成天皇陵参道【道標】","address":"左京区浄土寺西田町","latitude":35.027972,"longitude":135.790194},{"id":"SA187","name":"行者の森・大文字山参道【道標】","address":"左京区銀閣寺町","latitude":35.027861,"longitude":135.798194},{"id":"SA188","name":"銀閣寺・北白川方面【道標】","address":"左京区浄土寺大山町","latitude":35.023417,"longitude":135.804472},{"id":"SA190","name":"黒谷・真如堂【道標】","address":"左京区岡崎東天王町(岡崎神社内)","latitude":35.017167,"longitude":135.789083},{"id":"SA191","name":"永観堂道【道標】","address":"左京区岡崎東天王町(岡崎神社内)","latitude":35.017167,"longitude":135.789083},{"id":"SA192","name":"後一条天皇陵・陽成天皇陵参道【道標】","address":"左京区黒谷町","latitude":35.018306,"longitude":135.785806},{"id":"SA193","name":"平安神宮是ヨリ東北へ三丁【道標】","address":"左京区聖護院蓮華蔵町","latitude":35.01425,"longitude":135.777056},{"id":"SA194","name":"皇太子慶頼王墓・中宮安子火葬塚参道【道標】","address":"左京区吉田牛ノ宮町","latitude":35.025194,"longitude":135.777139},{"id":"SA195","name":"後二条天皇陵・後一条天皇陵・冷泉天皇陵参道【道標】","address":"左京区吉田神楽岡町","latitude":35.02875,"longitude":135.786194},{"id":"SA197","name":"比叡山無動寺大弁財天道【道標】","address":"左京区高野玉岡町","latitude":35.044111,"longitude":135.783083},{"id":"SA198","name":"くろたに道【道標】","address":"左京区浄土寺真如町(真正極楽寺内)","latitude":35.020139,"longitude":135.789806},{"id":"SA199","name":"法然上人旧跡しうん石【道標】","address":"左京区黒谷町(金戒光明寺墓地入口)","latitude":35.018694,"longitude":135.788528},{"id":"SA200","name":"藤村庸軒翁墓【道標】","address":"左京区黒谷町(金戒光明寺墓地入口)","latitude":35.018694,"longitude":135.788528},{"id":"SA201","name":"山崎闇斎先生墳墓【道標】","address":"左京区黒谷町(金戒光明寺墓地入口)","latitude":35.018694,"longitude":135.788528},{"id":"SA202","name":"竹内栖鳳先生墓【道標】","address":"左京区黒谷町(金戒光明寺墓地入口)","latitude":35.018694,"longitude":135.788528},{"id":"SA204","name":"楠木正成塚","address":"左京区修学院室町","latitude":35.054194,"longitude":135.798556},{"id":"SA206","name":"松ヶ崎大黒天道【道標】","address":"左京区山端壱町田町","latitude":35.050833,"longitude":135.790528},{"id":"SA207","name":"新島襄先生墓所参道【道標】","address":"左京区若王子町","latitude":35.015361,"longitude":135.795972},{"id":"SA208","name":"坂本道【道標】","address":"左京区北白川山ノ元町","latitude":35.031806,"longitude":135.7965},{"id":"SA211","name":"三条通【道標】","address":"左京区南禅寺草川町","latitude":35.010778,"longitude":135.784806},{"id":"SA212","name":"摩利支天堂道【道標】","address":"左京区南禅寺草川町","latitude":35.011806,"longitude":135.79175},{"id":"SA213","name":"帰雲院【道標】","address":"左京区永観堂町(正的院前)","latitude":35.012556,"longitude":135.793639},{"id":"SA214","name":"正的院墓参道【道標】","address":"左京区南禅寺草川町(正的院前)","latitude":35.012556,"longitude":135.793639},{"id":"SA215","name":"粟田山陵・亀山天皇分骨所参道【道標】","address":"左京区南禅寺風呂山町(南禅院西側)","latitude":35.010417,"longitude":135.793389},{"id":"SA216","name":"円光大師旧跡しうん石【道標】","address":"左京区黒谷町(金戒光明寺墓地内)","latitude":35.018806,"longitude":135.789028},{"id":"SA217","name":"赤松小三郎先生墓所【道標】","address":"左京区黒谷町(金戒光明寺墓地内)","latitude":35.018806,"longitude":135.789028},{"id":"SA218","name":"旧錦林第二小学校跡","address":"左京区吉田近衛町(近衛中学校前)","latitude":35.021806,"longitude":135.779361},{"id":"SA219","name":"京都博覧会碑","address":"左京区岡崎成勝寺町(京都市勧業館内)","latitude":35.012972,"longitude":135.781611},{"id":"SA220","name":"重修白幽子墓","address":"左京区浄土寺下馬場町(吉田神葬墓地内)","latitude":35.023583,"longitude":135.789111},{"id":"SA221","name":"崇道神社碑","address":"左京区上高野西明寺山(崇道神社内)","latitude":35.06525,"longitude":135.800472},{"id":"SA222","name":"阿弥陀経石碑","address":"左京区田中門前町(知恩寺内)","latitude":35.029361,"longitude":135.780722},{"id":"SA223","name":"大典記念植物園設立記念碑","address":"左京区下鴨半木町(京都府立植物園内)","latitude":35.047222,"longitude":135.761444},{"id":"SA224","name":"高野河原開墾来歴碑","address":"左京区高野上竹屋町(加茂波爾神社内)","latitude":35.043083,"longitude":135.782306},{"id":"SA225","name":"幡枝切通碑","address":"左京区岩倉幡枝町(圓通寺前)","latitude":35.064167,"longitude":135.7675},{"id":"SA226","name":"大正大礼記念碑","address":"左京区岡崎西天王町(平安神宮内)","latitude":35.015278,"longitude":135.781806},{"id":"SA227","name":"右三条／左大原【道標】","address":"左京区高野東開町(高野第三住宅内)","latitude":35.039667,"longitude":135.779639},{"id":"SA228","name":"琵琶湖疏水工事殉難者碑","address":"左京区粟田口山下町","latitude":35.007333,"longitude":135.790889},{"id":"SA229","name":"田辺朔郎紀功碑","address":"左京区粟田口山下町","latitude":35.008167,"longitude":135.791},{"id":"SA230","name":"平安遷都紀念塔","address":"左京区上高野東山","latitude":35.065694,"longitude":135.809444},{"id":"SA231","name":"ワグネル碑","address":"左京区岡崎成勝寺町","latitude":35.013333,"longitude":135.781861},{"id":"SA232","name":"レオン・ジュリー碑","address":"左京区吉田泉殿町(関西日仏学館内)","latitude":35.026,"longitude":135.778139},{"id":"SA233","name":"韓国合併奉告祭碑","address":"左京区上高野三宅町(三宅八幡神社内)","latitude":35.068028,"longitude":135.79425},{"id":"SA235","name":"今井庄治郎君碑","address":"左京区黒谷町(金戒光明寺墓地内)","latitude":35.01975,"longitude":135.7895},{"id":"SA236","name":"白川女碑","address":"左京区北白川下池田町(北白川天神宮内)","latitude":35.029583,"longitude":135.795528},{"id":"SA237","name":"小野蘭山顕頌碑","address":"左京区下鴨半木町(京都府立植物園内)","latitude":35.048556,"longitude":135.764083},{"id":"SA238","name":"今尾景年画龍碑","address":"左京区南禅寺福地町(南禅寺内)","latitude":35.011639,"longitude":135.79275},{"id":"SA239","name":"洛北地区土地区画整理竣工記念碑","address":"左京区下鴨萩ヶ垣内町(萩児童公園内)","latitude":35.049222,"longitude":135.769361},{"id":"SA240","name":"小林君碑","address":"左京区浄土寺真如町(真正極楽寺内)","latitude":35.020833,"longitude":135.789722},{"id":"SA241","name":"復租紀恩碑","address":"左京区八瀬秋元町(八瀬天満宮内)","latitude":35.08375,"longitude":135.818333},{"id":"SA242","name":"五味藤九郎碑","address":"左京区上高野西明寺山(崇道神社内)","latitude":35.064556,"longitude":135.800528},{"id":"SA243","name":"林又一郎顕彰碑","address":"左京区黒谷町(金戒光明寺内)","latitude":35.018917,"longitude":135.78825},{"id":"SA244","name":"是より西南山城国・是より東北近江国【道標】","address":"左京区北白川重石町","latitude":35.040556,"longitude":135.816306},{"id":"SA245","name":"後一条天皇陵・陽成天皇陵・冷泉天皇陵参道【道標】","address":"左京区浄土寺真如町","latitude":35.022389,"longitude":135.788389},{"id":"SA246","name":"粟田陶隠木米記念碑","address":"左京区粟田口三条坊町(青蓮院内)","latitude":35.008028,"longitude":135.783111},{"id":"SA247","name":"売茶翁没後二百五十年記念碑","address":"左京区下鴨半木町(北大路橋東詰)","latitude":35.0445,"longitude":135.762833},{"id":"SA248","name":"東方斎荒尾先生碑","address":"左京区若王子町","latitude":35.015444,"longitude":135.795972},{"id":"SA249","name":"東方斎居址","address":"左京区若王子町","latitude":35.015417,"longitude":135.796556},{"id":"SA250","name":"征清殉難九烈士表紹碑","address":"左京区若王子町","latitude":35.015361,"longitude":135.795972},{"id":"SA251","name":"修学院村道路元標","address":"左京区山端川原町","latitude":35.051,"longitude":135.790222},{"id":"SA252","name":"二宮尊徳像","address":"左京区岡崎成勝寺町(京都府立図書館前)","latitude":35.013222,"longitude":135.782361},{"id":"SA253","name":"静市野村道路元標","address":"左京区静市野中町(専称寺前)","latitude":35.090778,"longitude":135.764194},{"id":"SA254","name":"芭蕉翁碑銘","address":"左京区一乗寺才形町(金福寺内)","latitude":35.042083,"longitude":135.7955},{"id":"SA255","name":"金福寺","address":"左京区一乗寺才形町(金福寺前)","latitude":35.042222,"longitude":135.794972},{"id":"SA256","name":"尊攘堂","address":"左京区吉田本町(京都大学内)","latitude":35.026833,"longitude":135.779194},{"id":"SA257","name":"蓼倉川水路開鑿碑","address":"左京区下鴨宮崎町(下鴨小学校内)","latitude":35.036806,"longitude":135.768278},{"id":"SA258","name":"加茂之荘地区土地区画整理竣功記念碑","address":"左京区下鴨北茶ノ木町(茶ノ木原児童公園内)","latitude":35.054833,"longitude":135.771778},{"id":"SA259","name":"葵公園碑","address":"左京区下鴨宮河町(鴨川公園内)","latitude":35.031667,"longitude":135.771361},{"id":"SA260","name":"松賀茂地区土地区画整理竣功記念碑","address":"左京区松ヶ崎芝本町(松賀茂児童公園内)","latitude":35.050111,"longitude":135.773778},{"id":"SA261","name":"下鴨地区土地区画整理竣工記念碑","address":"左京区下鴨東梅ノ木町(あおい児童公園内)","latitude":35.045333,"longitude":135.773861},{"id":"SA262","name":"冷泉天皇陵参道【道標】","address":"左京区銀閣寺前町(銀閣寺橋西詰)","latitude":35.02725,"longitude":135.794972},{"id":"SA263","name":"伏見淀鳥羽戦死者道しるべ","address":"左京区黒谷町(金戒光明寺会津墓地内)","latitude":35.020111,"longitude":135.789833},{"id":"SA264","name":"岩倉陵・実相院宮墓参道六丁【道標】","address":"左京区岩倉中町(旧左京区役所岩倉出張所内)","latitude":35.075333,"longitude":135.788472},{"id":"SI001","name":"本居宣長先生修学地","address":"下京区綾小路室町西入南側","latitude":35.002528,"longitude":135.757167},{"id":"SI002","name":"鈴屋大人寓講学旧地","address":"下京区烏丸通四条下る東側","latitude":35.003278,"longitude":135.759833},{"id":"SI003","name":"電気鉄道事業発祥地","address":"下京区塩小路通東洞院南西角","latitude":34.987139,"longitude":135.761028},{"id":"SI004","name":"桜田儀兵衛氏碑","address":"下京区下之町(京都市崇仁隣保館前)","latitude":34.986278,"longitude":135.764472},{"id":"SI005","name":"古高俊太郎邸址","address":"下京区河原町通四条上る一筋目東入南側","latitude":35.003944,"longitude":135.769806},{"id":"SI006","name":"松永貞徳花咲亭址","address":"下京区間之町通松原上る西側(花咲大明神前)","latitude":34.999417,"longitude":135.761806},{"id":"SI007","name":"妙満寺跡・二十六聖人発祥地","address":"下京区岩上通綾小路東北角","latitude":35.002528,"longitude":135.751222},{"id":"SI009","name":"道元禅師遺蹟地","address":"下京区高辻通西洞院西入北側","latitude":35.000167,"longitude":135.754667},{"id":"SI010","name":"源語伝説五条辺夕顔墳","address":"下京区堺町通松原上る西側","latitude":34.999611,"longitude":135.763222},{"id":"SI011","name":"鉄輪跡","address":"下京区堺町通万寿寺上る西側","latitude":34.998139,"longitude":135.763306},{"id":"SI012","name":"円山応挙宅址","address":"下京区四条通堺町東入南側","latitude":35.003917,"longitude":135.763333},{"id":"SI013","name":"成徳尋常小学校跡","address":"下京区室町通綾小路下る東側","latitude":35.001944,"longitude":135.757944},{"id":"SI014","name":"松本宗悟邸址","address":"下京区室町通仏光寺上る東側","latitude":35.001861,"longitude":135.75775},{"id":"SI015","name":"北村季吟先生遺蹟","address":"下京区松原通烏丸西入南側(新玉津嶋神社前)","latitude":34.998889,"longitude":135.759056},{"id":"SI016","name":"丹波国亀山藩京屋敷跡","address":"下京区松原通室町西入北側(花月明神前)","latitude":34.998889,"longitude":135.757389},{"id":"SI017","name":"幸野楳嶺生誕地","address":"下京区新町通四条下る西側","latitude":35.003056,"longitude":135.756694},{"id":"SI018","name":"明治天皇行幸地","address":"下京区新町通万寿寺上る東側(修徳特別養護老人ホーム内)","latitude":34.997639,"longitude":135.756639},{"id":"SI019","name":"東鴻臚館址","address":"下京区西新屋敷揚屋町(角屋前)","latitude":34.992556,"longitude":135.743},{"id":"SI020","name":"長州藩士久坂玄瑞の密議の角屋","address":"下京区西新屋敷揚屋町(角屋前)","latitude":34.992472,"longitude":135.743306},{"id":"SI021","name":"化粧水","address":"下京区西洞院通四条東南角","latitude":35.003583,"longitude":135.755167},{"id":"SI022","name":"菅家邸址","address":"下京区仏光寺通西洞院東入南側","latitude":35.00125,"longitude":135.755806},{"id":"SI023","name":"三善清行邸跡","address":"下京区醒ヶ井通松原下る東側(醒泉小学校内)","latitude":34.99825,"longitude":135.752639},{"id":"SI024","name":"贈従五位赤松小三郎先生記念","address":"下京区東洞院通鍵屋町下る西側","latitude":34.994694,"longitude":135.760972},{"id":"SI025","name":"与謝蕪村宅跡","address":"下京区仏光寺通烏丸西入南側","latitude":35.001306,"longitude":135.758944},{"id":"SI026","name":"肥後藩屋敷跡","address":"下京区仏光寺通壬生川西南角","latitude":35.00125,"longitude":135.745778},{"id":"SI027","name":"八幡太郎義家誕生地","address":"下京区若宮通六条下る東側(若宮八幡宮前)","latitude":34.993472,"longitude":135.755917},{"id":"SI028","name":"菅家邸址","address":"下京区仏光寺通西洞院東入北側","latitude":35.001306,"longitude":135.755889},{"id":"SI029","name":"当道職屋敷址","address":"下京区仏光寺通東洞院東入北側(洛央小学校前)","latitude":35.001333,"longitude":135.761694},{"id":"SI030","name":"左女牛井跡","address":"下京区堀川通五条下る西側","latitude":34.994389,"longitude":135.752194},{"id":"SI031","name":"源融河原院址","address":"下京区木屋町通五条下る東側","latitude":34.995139,"longitude":135.767167},{"id":"SI032","name":"芹根水","address":"下京区木津屋橋通堀川西入下る東側","latitude":34.987278,"longitude":135.752139},{"id":"SI033","name":"中井正五郎殉難地","address":"下京区油小路通旧花屋町下る西側","latitude":34.992028,"longitude":135.753778},{"id":"SI034","name":"山本亡羊読書室旧蹟","address":"下京区油小路通五条上る西側","latitude":34.996639,"longitude":135.75375},{"id":"SI035","name":"伊東甲子太郎外数名殉難跡","address":"下京区油小路通木津屋橋上る東側(本光寺前)","latitude":34.987917,"longitude":135.753722},{"id":"SI036","name":"平清盛公西八条殿跡","address":"下京区七条御所ノ内本町(若一神社内)","latitude":34.984389,"longitude":135.732806},{"id":"SI037","name":"島原西門碑","address":"下京区西新屋敷下之町(島原住吉稲荷神社前)","latitude":34.993167,"longitude":135.74275},{"id":"SI038","name":"新開道路碑","address":"下京区花屋町通堀川西南角","latitude":34.992889,"longitude":135.752667},{"id":"SI039","name":"長曽我部盛親公埋首地","address":"下京区富小路通五条下る(蓮光寺前)","latitude":34.994444,"longitude":135.763833},{"id":"SI040","name":"石門心学脩正舎","address":"下京区麩屋町通五条上る東側","latitude":34.996389,"longitude":135.765528},{"id":"SI041","name":"明治天皇行幸所下京第二十四組小学校","address":"下京区鍵屋町通室町西入北側(下京中学校前)","latitude":34.995,"longitude":135.757472},{"id":"SI042","name":"八橋検校道場跡","address":"下京区室町通綾小路上る西側","latitude":35.002694,"longitude":135.757917},{"id":"SI043","name":"亀山藩邸鎮守社白滝・花月大明神碑","address":"下京区松原通室町西入(白滝・花月大明神内)","latitude":34.999139,"longitude":135.757361},{"id":"SI044","name":"大雲院跡","address":"下京区寺町通四条下る西側","latitude":35.003111,"longitude":135.766889},{"id":"SI045","name":"鎮西聖光上人遺蹤","address":"下京区寺町通仏光寺上る東側(聖光寺前)","latitude":35.001889,"longitude":135.766861},{"id":"SI046","name":"豊園小学校の碑","address":"下京区仏光寺通東洞院東入北側(洛央小学校前)","latitude":35.001306,"longitude":135.762},{"id":"SI047","name":"豊園幼稚園記念碑","address":"下京区仏光寺通東洞院東入北側(洛央小学校前)","latitude":35.001333,"longitude":135.761583},{"id":"SI048","name":"道元禅師示寂聖地","address":"下京区高辻通西洞院西入北側","latitude":35.000194,"longitude":135.754611},{"id":"SI049","name":"天満宮降誕地","address":"下京区高辻通西洞院東入北側","latitude":35.000333,"longitude":135.755806},{"id":"SI050","name":"天満宮降誕地","address":"下京区西洞院通高辻上る東側","latitude":35.000389,"longitude":135.755083},{"id":"SI051","name":"天満宮降誕地","address":"下京区仏光寺通西洞院東入南側","latitude":35.00125,"longitude":135.755778},{"id":"SI052","name":"元六条御所長講堂","address":"下京区富小路通六条上る東側(長講堂前)","latitude":34.994111,"longitude":135.76375},{"id":"SI053","name":"是より洛中碑","address":"下京区大宮通塩小路下る(梅逕中学校内)","latitude":34.986444,"longitude":135.749722},{"id":"SI054","name":"悪王子社趾","address":"下京区東洞院通四条下る西側","latitude":35.003417,"longitude":135.761167},{"id":"SI055","name":"道了大薩■【道標】","address":"下京区西七条北西野町","latitude":34.989361,"longitude":135.733611},{"id":"SI056","name":"明治天皇御小休所枳殻邸","address":"下京区下珠数屋町通間之町東入(渉成園内)","latitude":34.990861,"longitude":135.762889},{"id":"SI057","name":"平安京朱雀大路跡","address":"下京区中堂寺坊城町","latitude":34.995194,"longitude":135.743083},{"id":"SI059","name":"佐賀鍋島藩屋敷跡","address":"下京区四条通堺町通南東角","latitude":35.003611,"longitude":135.764028},{"id":"SI060","name":"銭座場跡","address":"下京区下之町(柳原銀行記念資料館前)","latitude":34.986194,"longitude":135.7645},{"id":"SI061","name":"尚徳中学校の碑","address":"下京区鍵屋町通室町西入北側(下京中学校前)","latitude":34.995,"longitude":135.757472},{"id":"SI062","name":"医祖神碣","address":"下京区西洞院通松原下る西側(五条天神社内)","latitude":34.9985,"longitude":135.754806},{"id":"SI063","name":"是より洛中碑","address":"下京区朱雀堂ノ口町(京都市中央卸売市場第一市場内)","latitude":34.98925,"longitude":135.742306},{"id":"SI064","name":"文房四神碑","address":"下京区木津屋橋通堀川西入下る東側","latitude":34.987278,"longitude":135.752139},{"id":"SI065","name":"是より南　六条御境内【道標】","address":"下京区堀川通五条下る西側","latitude":34.994083,"longitude":135.752194},{"id":"SI066","name":"明治天皇御小休所本願寺旧大教校","address":"下京区大工町(龍谷大学正門前)","latitude":34.989833,"longitude":135.750639},{"id":"SI067","name":"新選組洛中最後の屋敷跡","address":"下京区西洞院通塩小路下る西側","latitude":34.986944,"longitude":135.755139},{"id":"SI068","name":"道路開鑿紀念碑","address":"下京区下之町(崇仁コミュニティセンター内)","latitude":34.986222,"longitude":135.764556},{"id":"SI069","name":"源為義塚移建碑","address":"下京区朱雀裏畑町(権現寺前)","latitude":34.988778,"longitude":135.739778},{"id":"SI070","name":"六条判官源為義公塚","address":"下京区朱雀裏畑町(権現寺前)","latitude":34.988778,"longitude":135.739778},{"id":"SI071","name":"小野寺十内妻丹女墓","address":"下京区岩上通五条上る東側","latitude":34.997528,"longitude":135.751472},{"id":"UK001","name":"陶工仁清窯址","address":"右京区御室竪町","latitude":35.025722,"longitude":135.715639},{"id":"UK002-1","name":"千代の古道","address":"右京区嵯峨釣殿町(児神社内)","latitude":35.025861,"longitude":135.6875},{"id":"UK002-2","name":"千代の古道","address":"右京区山越中町(山越交叉点南西角)","latitude":35.026944,"longitude":135.695306},{"id":"UK002-3","name":"千代の古道","address":"右京区嵯峨大沢落久保町","latitude":35.027389,"longitude":135.685556},{"id":"UK002-4","name":"千代の古道","address":"右京区太秦御領田町","latitude":35.0245,"longitude":135.697444},{"id":"UK002-5","name":"千代の古道","address":"右京区山越東町","latitude":35.023361,"longitude":135.69825},{"id":"UK002-6","name":"千代の古道","address":"右京区太秦開日町","latitude":35.021194,"longitude":135.698083},{"id":"UK003","name":"源融公栖霞観地","address":"右京区嵯峨釈迦堂藤ノ木町(清凉寺前)","latitude":35.022556,"longitude":135.674611},{"id":"UK004","name":"祇王祇女仏刀自旧跡","address":"右京区嵯峨鳥居本小坂(祇王寺境内)","latitude":35.003583,"longitude":135.666861},{"id":"UK005","name":"桓武天皇勅営角倉址・了以翁邸址・平安初期鋳銭司旧址","address":"右京区嵯峨天龍寺角倉町(公立学校共済組合嵐山保養所花のいえ前)","latitude":35.013861,"longitude":135.681278},{"id":"UK006","name":"西行法師庵の跡","address":"右京区嵯峨二尊院門前長神町(二尊院境内)","latitude":35.021861,"longitude":135.669361},{"id":"UK007","name":"小倉山荘旧址厭離庵","address":"右京区嵯峨二尊院門前北中院町","latitude":35.022222,"longitude":135.671028},{"id":"UK009","name":"平塚瓢斎先生宅趾","address":"右京区西院坤町","latitude":35.003583,"longitude":135.726917},{"id":"UK010","name":"淳和院跡","address":"右京区西院高山寺町(高山寺前)","latitude":35.003639,"longitude":135.732333},{"id":"UK011","name":"大映京都撮影所跡地","address":"右京区太秦多藪町","latitude":35.012972,"longitude":135.703139},{"id":"UK012","name":"日本最古の茶園","address":"右京区梅ヶ畑栂尾町(高山寺内)","latitude":35.06075,"longitude":135.678278},{"id":"UK013","name":"名古曽滝址","address":"右京区北嵯峨名古曽町","latitude":35.030167,"longitude":135.680722},{"id":"UK015","name":"尾形乾山宅跡","address":"右京区鳴滝泉谷町(法蔵寺前)","latitude":35.032028,"longitude":135.705528},{"id":"UK016","name":"琴きき橋跡","address":"右京区嵯峨天龍寺造路町(渡月橋北詰)","latitude":35.013639,"longitude":135.678139},{"id":"UK018","name":"清水山古墳跡","address":"右京区太秦松本町","latitude":35.008528,"longitude":135.712333},{"id":"UK019","name":"小倉百人一首編纂の地","address":"右京区嵯峨小倉山町(常寂光寺境内)","latitude":35.02,"longitude":135.668972},{"id":"UK020","name":"壇林寺旧跡・前中書王遺跡","address":"右京区嵯峨天龍寺茫ノ馬場町","latitude":35.017667,"longitude":135.674417},{"id":"UK021","name":"太郎坊の井戸","address":"右京区太秦宮ノ前町","latitude":35.019639,"longitude":135.699972},{"id":"UK022","name":"牛若丸首途の井","address":"右京区花園艮北町","latitude":35.021111,"longitude":135.723944},{"id":"UK023","name":"法眼宅間勝賀終焉地","address":"右京区鳴滝宅間町(周山街道三宝寺橋南詰)","latitude":35.032306,"longitude":135.703056},{"id":"UK024","name":"法輪寺道昌遺業大堰阯","address":"右京区嵯峨天龍寺芒ノ馬場町","latitude":35.013306,"longitude":135.674806},{"id":"UK025","name":"兼好法師旧跡","address":"右京区御室岡ノ裾町(長泉寺門前)","latitude":35.023722,"longitude":135.715722},{"id":"UK026","name":"生の六道　小野篁公遺跡","address":"右京区嵯峨釈迦堂藤ノ木町(薬師寺内)","latitude":35.02325,"longitude":135.673694},{"id":"UK027","name":"夕霧大夫遺跡","address":"右京区嵯峨二尊院門前北中院町","latitude":35.023056,"longitude":135.673167},{"id":"UK028","name":"天龍寺塔中招慶院旧址","address":"右京区嵯峨釈迦堂大門町(右京区役所嵯峨出張所前)","latitude":35.020722,"longitude":135.675694},{"id":"UK029","name":"小督局墳","address":"右京区嵯峨天龍寺芒ノ馬場町","latitude":35.013528,"longitude":135.676389},{"id":"UK030","name":"旧御室御所茶所","address":"右京区山越西町(印空寺前)","latitude":35.026611,"longitude":135.694722},{"id":"UK031","name":"了海上人遺跡","address":"右京区山越西町(印空寺前)","latitude":35.026611,"longitude":135.694694},{"id":"UK032","name":"中御所阯","address":"右京区北嵯峨名古曽町","latitude":35.030194,"longitude":135.680556},{"id":"UK033","name":"若宮社旧蹟","address":"右京区山ノ内瀬戸畑町","latitude":35.005694,"longitude":135.722694},{"id":"UK034","name":"東衣手町遺跡","address":"右京区西京極東衣手町(三宮社衣手神社前)","latitude":34.997694,"longitude":135.710639},{"id":"UK035","name":"尾形乾山陶窯跡地","address":"右京区鳴滝泉谷町(法蔵寺前)","latitude":35.032028,"longitude":135.705528},{"id":"UK036","name":"大沢池附名古曽滝趾","address":"右京区嵯峨大沢町","latitude":35.027556,"longitude":135.679083},{"id":"UK037","name":"御室・高雄【道標】","address":"右京区花園寺ノ内町(ＪＲ花園駅前)","latitude":35.019139,"longitude":135.718083},{"id":"UK038","name":"栂尾・槙尾・丹波道【道標】","address":"右京区梅ヶ畑檜社町(清滝大権現前)","latitude":35.053972,"longitude":135.676306},{"id":"UK039","name":"愛宕道【道標】","address":"右京区竜安寺衣笠下町","latitude":35.031611,"longitude":135.719389},{"id":"UK040","name":"愛宕道【道標】","address":"右京区嵯峨大覚寺門前六道町","latitude":35.023306,"longitude":135.677722},{"id":"UK041","name":"野々宮【道標】","address":"右京区嵯峨釈迦堂門前南中院町","latitude":35.022222,"longitude":135.67125},{"id":"UK042","name":"愛宕道【道標】","address":"右京区嵯峨二尊院門前長神町","latitude":35.022194,"longitude":135.6695},{"id":"UK043","name":"愛宕道／祇王寺【道標】","address":"右京区嵯峨二尊院門前往生院町","latitude":35.023139,"longitude":135.668694},{"id":"UK044","name":"愛宕山道／念仏寺【道標】","address":"右京区嵯峨鳥居本化野町","latitude":35.026222,"longitude":135.666806},{"id":"UK045","name":"愛宕道／化野念仏寺【道標】","address":"右京区嵯峨鳥居本化野町(化野念仏寺前)","latitude":35.026833,"longitude":135.665639},{"id":"UK046","name":"三条通・六条・伏見【道標】","address":"右京区嵯峨野嵯峨ノ段町(甲塚橋東詰)","latitude":35.019889,"longitude":135.691556},{"id":"UK047","name":"高雄・田尻・丹波・山【道標】","address":"右京区愛宕山上","latitude":35.071639,"longitude":135.64275},{"id":"UK048","name":"丹波・桂渡し・善峯道【道標】","address":"右京区西院春日町(西院小学校内)","latitude":35.005528,"longitude":135.73},{"id":"UK049","name":"祇王寺【道標】","address":"右京区嵯峨鳥居本小坂町(祇王寺内)","latitude":35.023306,"longitude":135.667278},{"id":"UK050","name":"祇王寺・久保田米僊・金子静枝墓【道標】","address":"右京区嵯峨二尊院門前往生院町","latitude":35.023222,"longitude":135.6685},{"id":"UK051","name":"大覚寺近道【道標】","address":"右京区嵯峨鳥居本六反町","latitude":35.025806,"longitude":135.667917},{"id":"UK052","name":"大覚寺北十町【道標】","address":"右京区嵯峨天竜寺造路町","latitude":35.013639,"longitude":135.678111},{"id":"UK053","name":"大覚寺北八町【道標】","address":"右京区嵯峨天竜寺車道町","latitude":35.016389,"longitude":135.680111},{"id":"UK054","name":"天龍寺・嵐山【道標】","address":"右京区嵯峨天竜寺立石町","latitude":35.017639,"longitude":135.676333},{"id":"UK055","name":"大覚寺・大沢池・広沢池【道標】","address":"右京区嵯峨観空寺明水町","latitude":35.027139,"longitude":135.677306},{"id":"UK056","name":"化野・一の鳥居・愛宕道【道標】","address":"右京区嵯峨釈迦堂藤ノ木町","latitude":35.025417,"longitude":135.675944},{"id":"UK057","name":"大覚寺東三町【道標】","address":"右京区嵯峨釈迦堂藤ノ木町(清凉寺前)","latitude":35.022667,"longitude":135.674917},{"id":"UK058","name":"釈迦堂前街道【道標】","address":"右京区嵯峨小倉山緋明神町","latitude":35.020611,"longitude":135.671528},{"id":"UK059","name":"小倉山・常寂光寺・歌仙祠【道標】","address":"右京区嵯峨小倉山小倉町","latitude":35.01975,"longitude":135.670472},{"id":"UK060","name":"大覚寺西五丁／広沢の池【道標】","address":"右京区嵯峨広沢町","latitude":35.025278,"longitude":135.689528},{"id":"UK061","name":"大覚寺・大沢池・名古曽滝址道【道標】","address":"右京区嵯峨大覚寺門前六道町","latitude":35.023944,"longitude":135.67875},{"id":"UK062","name":"遍照寺山【道標】","address":"右京区北嵯峨赤阪町","latitude":35.030583,"longitude":135.682833},{"id":"UK063","name":"広沢池・御室街道【道標】","address":"右京区北嵯峨赤阪町","latitude":35.030583,"longitude":135.682833},{"id":"UK064","name":"高雄道・長刀坂・後宇多帝陵【道標】","address":"右京区北嵯峨名古曽町","latitude":35.029972,"longitude":135.678472},{"id":"UK065","name":"直指庵【道標】","address":"右京区北嵯峨北ノ段町","latitude":35.030028,"longitude":135.678472},{"id":"UK066","name":"春日潜庵先生墓【道標】","address":"右京区鳴滝泉谷町(法蔵寺前)","latitude":35.032,"longitude":135.705528},{"id":"UK067","name":"三条・二条・下立売・太秦広隆寺門前【道標】","address":"右京区太秦森ヶ東町(木島神社前)","latitude":35.013861,"longitude":135.713583},{"id":"UK068","name":"蚕神社【道標】","address":"右京区太秦森ヶ東町(木島神社前)","latitude":35.013861,"longitude":135.7135},{"id":"UK072","name":"篠山藩周山代官所・北桑田郡役所・京都府京北事務所跡","address":"右京区京北周山町上代","latitude":35.156361,"longitude":135.630944},{"id":"UK073","name":"小楠公御首塚の寺【道標】","address":"右京区嵯峨釈迦堂藤ノ木町(清凉寺前)","latitude":35.022556,"longitude":135.674611},{"id":"UK074","name":"小倉山・二尊院西二町【道標】","address":"右京区嵯峨釈迦堂藤ノ木町(清凉寺前)","latitude":35.022556,"longitude":135.674611},{"id":"UK075","name":"嵯峨帝陵東北十六町【道標】","address":"右京区嵯峨釈迦堂藤ノ木町(清凉寺前)","latitude":35.022556,"longitude":135.674611},{"id":"UK076","name":"御室・北野方面【道標】","address":"右京区嵯峨釈迦堂藤ノ木町(清凉寺前)","latitude":35.022556,"longitude":135.674611},{"id":"UK077","name":"嵐山【道標】","address":"右京区嵯峨天龍寺芒ノ馬場町","latitude":35.014667,"longitude":135.674583},{"id":"UK078","name":"花園村道路元標","address":"右京区花園寺ノ前町(妙心寺勅使門前)","latitude":35.020944,"longitude":135.719917},{"id":"UK079","name":"新田公首塚碑道【道標】","address":"右京区嵯峨二尊院門前往生院町","latitude":35.023222,"longitude":135.668528},{"id":"UK080","name":"檀林寺門跡【道標】","address":"右京区嵯峨二尊院門前往生院町","latitude":35.023139,"longitude":135.668667},{"id":"UK081","name":"梅宮参詣道【道標】","address":"右京区嵯峨野宮ノ元町","latitude":35.014167,"longitude":135.693694},{"id":"UK082","name":"福王子神社祭神班子皇后北一町【道標】","address":"右京区宇多野福王子町(福王子神社内)","latitude":35.028944,"longitude":135.708861},{"id":"UK083","name":"松尾・梅宮道【道標】","address":"右京区梅津中村町(梅津小学校内)","latitude":35.001222,"longitude":135.700972},{"id":"UK084","name":"松尾神社・嵐山道【道標】","address":"右京区梅津前田町","latitude":35.0035,"longitude":135.696083},{"id":"UK085","name":"七保天満宮旧蹟","address":"右京区花園艮北町(成願寺内)","latitude":35.021111,"longitude":135.725222},{"id":"UK086","name":"西院村道路元標","address":"右京区西院春日町(西院春日神社内)","latitude":35.004722,"longitude":135.729333},{"id":"UK087","name":"釈迦堂・清瀧方面【道標】","address":"右京区嵯峨天龍寺立石町","latitude":35.017583,"longitude":135.676417},{"id":"UK088","name":"文徳帝陵東南二十五町【道標】","address":"右京区北嵯峨赤阪町","latitude":35.030611,"longitude":135.682806},{"id":"UK089","name":"今林陵参拝道【道標】","address":"右京区嵯峨大覚寺門前六道町","latitude":35.023667,"longitude":135.676333},{"id":"UK090","name":"愛宕道【道標】","address":"右京区西院巽町","latitude":35.003889,"longitude":135.730056},{"id":"UK091","name":"日本最古の洋紙製紙場跡","address":"右京区梅津大縄場町","latitude":34.999667,"longitude":135.69575},{"id":"UK092","name":"神護寺・和気公墓方面【道標】","address":"右京区梅ヶ畑高雄町","latitude":35.054944,"longitude":135.673028},{"id":"UK093","name":"高雄神護寺道【道標】","address":"右京区梅ヶ畑高雄町","latitude":35.054944,"longitude":135.673},{"id":"UK094","name":"和気清麿公墓参道【道標】","address":"右京区梅ヶ畑高雄町","latitude":35.055194,"longitude":135.669667},{"id":"UK095","name":"地蔵院へ近道【道標】","address":"右京区梅ヶ畑高雄町","latitude":35.054806,"longitude":135.669389},{"id":"UK096","name":"和気公墓道【道標】","address":"右京区梅ヶ畑高雄町","latitude":35.054694,"longitude":135.670278},{"id":"UK097","name":"仏足石参詣道【道標】","address":"右京区梅ヶ畑栂尾町(高山寺内)","latitude":35.061417,"longitude":135.678139},{"id":"UK098","name":"仏足石参道【道標】","address":"右京区梅ヶ畑栂尾町(高山寺内)","latitude":35.060556,"longitude":135.678278},{"id":"UK099","name":"仏足石参道【道標】","address":"右京区梅ヶ畑栂尾町(高山寺前)","latitude":35.059222,"longitude":135.677917},{"id":"UK100","name":"宅間勝賀塚碑","address":"右京区鳴滝宅間町(周山街道三宝寺橋南詰)","latitude":35.032278,"longitude":135.703056},{"id":"UK105","name":"清和天皇水尾山陵【道標】","address":"右京区嵯峨鳥居本深谷町","latitude":35.028611,"longitude":135.662639},{"id":"UK106","name":"嵐山指定【道標】","address":"右京区嵯峨鳥居本深谷町","latitude":35.028611,"longitude":135.662639},{"id":"UK107","name":"愛宕・伏見【道標】","address":"右京区山ノ内荒木町(猿田彦神社内)","latitude":35.008444,"longitude":135.717333},{"id":"UK108","name":"子安地蔵【道標】","address":"右京区太秦安井奥畑町","latitude":35.014861,"longitude":135.718722},{"id":"UK109","name":"親鸞聖人御往生旧地【道標】","address":"右京区山ノ内北ノ口町","latitude":35.008417,"longitude":135.721056},{"id":"UK110","name":"三条道【道標】","address":"右京区嵯峨野嵯峨ノ段町(甲塚橋東詰)","latitude":35.019917,"longitude":135.691583},{"id":"UK111","name":"長栄丸移据の由来","address":"右京区太秦野元町(千石荘公園内)","latitude":35.008417,"longitude":135.712694},{"id":"UK112","name":"斎宮旧趾","address":"右京区嵯峨野々宮町(野宮神社内)","latitude":35.017833,"longitude":135.674111},{"id":"UK114","name":"龍安寺御陵道【道標】","address":"右京区谷口園町","latitude":35.025889,"longitude":135.720306},{"id":"UK115","name":"一条天皇陵・後朱雀天皇陵・後冷泉天皇陵他参道【道標】","address":"右京区龍安寺池ノ下町","latitude":35.030833,"longitude":135.719444},{"id":"UK116","name":"龍安寺駅・妙心寺方面【道標】","address":"右京区龍安寺衣笠下町","latitude":35.030472,"longitude":135.720361},{"id":"UK117","name":"龍安寺御陵道【道標】","address":"右京区龍安寺衣笠下町","latitude":35.030472,"longitude":135.720361},{"id":"UK118","name":"二条天皇陵・一条天皇陵・光孝天皇陵参道【道標】","address":"右京区龍安寺衣笠下町","latitude":35.030472,"longitude":135.720361},{"id":"UK122","name":"明治天皇行在所山中邸阯","address":"右京区嵯峨天龍寺芒ノ馬場町(京都年金基金センターらんざん内)","latitude":35.014167,"longitude":135.674333},{"id":"UK123","name":"橋本経亮邸址","address":"右京区梅津前田町(鳥居脇)","latitude":35.002806,"longitude":135.694778},{"id":"UK124","name":"千代の古道","address":"右京区嵯峨野高田町","latitude":35.008639,"longitude":135.693306},{"id":"UK125","name":"千代の古道","address":"右京区嵯峨野内田町","latitude":35.010083,"longitude":135.693139},{"id":"UK126","name":"千代の古道","address":"右京区嵯峨野千代の道町(嵯峨野保育園前)","latitude":35.012472,"longitude":135.693722},{"id":"UK127","name":"千代の古道","address":"右京区嵯峨野宮ノ元町","latitude":35.014333,"longitude":135.69375},{"id":"UK128","name":"千代の古道","address":"右京区嵯峨野神ノ本町","latitude":35.014222,"longitude":135.694694},{"id":"UK129","name":"車折神社碑","address":"右京区嵯峨朝日町(車折神社内)","latitude":35.015472,"longitude":135.688861},{"id":"UK130","name":"広沢池碑","address":"右京区嵯峨釣殿町(児神社内)","latitude":35.025806,"longitude":135.688},{"id":"UK131","name":"角倉了以像副碑","address":"右京区嵯峨亀ノ尾町(亀山公園内)","latitude":35.014306,"longitude":135.672306},{"id":"UK132","name":"源融碑","address":"右京区嵯峨釈迦堂藤ノ木町(清凉寺内)","latitude":35.022833,"longitude":135.674194},{"id":"UK133","name":"菖蒲谷池碑","address":"右京区北嵯峨北ノ段町(北嵯峨会議所内)","latitude":35.030889,"longitude":135.678278},{"id":"UK134","name":"小倉餡発祥地","address":"右京区嵯峨二尊院門前長神町(二尊院内)","latitude":35.021639,"longitude":135.668},{"id":"UK135","name":"御室川治水碑","address":"右京区西京極西川町","latitude":34.988639,"longitude":135.718667},{"id":"UK136","name":"明治天皇歌碑","address":"右京区太秦野元町(千石荘公園内)","latitude":35.008417,"longitude":135.712667},{"id":"UK137","name":"瑞典皇太子同妃殿下御台覧記念碑","address":"右京区太秦野元町(千石荘公園内)","latitude":35.008389,"longitude":135.712694},{"id":"UK138","name":"瑞典皇太子・暹羅王族天塚古墳御台覧記念碑","address":"右京区太秦松本町(白清稲荷大明神内)","latitude":35.007278,"longitude":135.711861},{"id":"UK139","name":"一条天皇・堀河天皇陵道【道標】","address":"右京区龍安寺朱山","latitude":35.035333,"longitude":135.719444},{"id":"UK140","name":"宇多源氏始祖追遠碑","address":"右京区御室住吉山町","latitude":35.032528,"longitude":135.716306},{"id":"UK141","name":"後嵯峨天皇陵・亀山天皇陵【道標】","address":"右京右京区嵯峨天龍寺芒ノ馬場町(天龍寺前)","latitude":35.015889,"longitude":135.677028},{"id":"UK142","name":"宇多天皇陵・光孝天皇陵参道【道標】","address":"右京区御室大内(仁和寺西門前)","latitude":35.030806,"longitude":135.712667},{"id":"UK143","name":"光孝天皇陵【道標】","address":"右京区宇多野御池町(光孝天皇陵入口)","latitude":35.027306,"longitude":135.711306},{"id":"UK144","name":"光孝天皇陵【道標】","address":"右京区宇多野御池町(光孝天皇陵入口)","latitude":35.027722,"longitude":135.710944},{"id":"UK145","name":"仁孝天皇皇子常寂光院御墓【道標】","address":"右京区宇多野鳴滝松本町","latitude":35.033028,"longitude":135.702333},{"id":"UK146","name":"文徳帝御陵道【道標】","address":"右京区太秦三尾町","latitude":35.023389,"longitude":135.7025},{"id":"UK147","name":"光孝天皇陵・後宇多天皇陵参道【道標】","address":"右京区太秦三尾町","latitude":35.023417,"longitude":135.702611},{"id":"UK148","name":"仲野親王墓参拝道【道標】","address":"右京区太秦箕山町","latitude":35.015333,"longitude":135.701528},{"id":"UK149","name":"(花園陵カ)【道標】","address":"右京区花園扇野町","latitude":35.020278,"longitude":135.717167},{"id":"UK150","name":"嵯峨帝陵・後宇多帝陵・今林陵【道標】","address":"右京区嵯峨釈迦堂藤ノ木町","latitude":35.023083,"longitude":135.67625},{"id":"UK151","name":"後亀山天皇嵯峨小倉陵参拝道【道標】","address":"右京区嵯峨鳥居本小坂町","latitude":35.02475,"longitude":135.667889},{"id":"UK152","name":"一条天皇外五陵・花園陵【道標】","address":"右京区谷口園町","latitude":35.027833,"longitude":135.720722},{"id":"UK153","name":"右真言宗広沢派根元遍照寺【道標】","address":"右京区嵯峨広沢西裏町(遍照寺内)","latitude":35.023639,"longitude":135.689306},{"id":"UK154","name":"文徳帝御陵・鳴瀧停留場近道【道標】","address":"右京区嵯峨広沢池下町","latitude":35.025222,"longitude":135.691944},{"id":"UK155","name":"千代の古道【道標】","address":"右京区太秦堀池町","latitude":35.023667,"longitude":135.697556},{"id":"UK156","name":"千代の古道","address":"右京区梅津前田町","latitude":35.0035,"longitude":135.696083},{"id":"UK157","name":"後嵯峨天皇・亀山天皇・後伏見天皇火葬塚【道標】","address":"右京区嵯峨亀ノ尾町","latitude":35.013389,"longitude":135.672472},{"id":"UK158","name":"円融天皇陵・文徳天皇陵参道【道標】","address":"右京区鳴滝桐ヶ淵町","latitude":35.026722,"longitude":135.707},{"id":"UK159","name":"文徳天皇陵・暲子内親王墓参道【道標】","address":"右京区鳴滝嵯峨園町","latitude":35.024194,"longitude":135.706167},{"id":"UK160","name":"嵯峨天皇嵯峨山上陵参拝道【道標】","address":"右京区北嵯峨朝原山町","latitude":35.031306,"longitude":135.676111},{"id":"UK161","name":"広沢池中島由来碑","address":"右京区嵯峨広沢町","latitude":35.026861,"longitude":135.688444},{"id":"YA001","name":"蓮如上人御往生地","address":"山科区西野広見町(西宗寺前)","latitude":34.983639,"longitude":135.807861},{"id":"YA002","name":"旧東海道","address":"山科区安朱桟敷町(ホテルブライトンシティ山科南側)","latitude":34.991278,"longitude":135.807861},{"id":"YA003","name":"明治天皇御遺跡","address":"山科区安朱桟敷町(ホテルブライトンシティ山科南側)","latitude":34.991278,"longitude":135.817056},{"id":"YA004","name":"山科本願寺南殿跡","address":"山科区音羽伊勢宿町(光照寺内)","latitude":34.9845,"longitude":135.822222},{"id":"YA005","name":"宮道朝臣列子墓","address":"山科区勧修寺西栗栖野町","latitude":34.970417,"longitude":135.805417},{"id":"YA006","name":"中臣遺跡","address":"山科区勧修寺東栗栖野町(勧修小学校内)","latitude":34.969861,"longitude":135.807722},{"id":"YA007","name":"大日寺跡","address":"山科区勧修寺北大日","latitude":34.960639,"longitude":135.792861},{"id":"YA008","name":"たたら遺跡","address":"山科区御陵大岩(本圀寺東側)","latitude":34.999306,"longitude":135.807889},{"id":"YA009","name":"安祥寺上寺跡","address":"山科区御陵沢ノ川町","latitude":35.004583,"longitude":135.811778},{"id":"YA010","name":"後山階陵遺跡","address":"山科区御陵沢ノ川町","latitude":35.002917,"longitude":135.81625},{"id":"YA011","name":"人康親王山荘跡","address":"山科区四ノ宮柳山町(諸羽神社参道)","latitude":34.993583,"longitude":135.820944},{"id":"YA012","name":"旧東海道線山科駅跡","address":"山科区小野蚊ヶ瀬町(名神高速道路南側盛土内)","latitude":34.964306,"longitude":135.812278},{"id":"YA013","name":"小野小町化粧井戸","address":"山科区小野御霊町(随心院内)","latitude":34.958861,"longitude":135.815028},{"id":"YA014","name":"山科本願寺跡","address":"山科区西野山階町","latitude":34.981528,"longitude":135.808917},{"id":"YA015","name":"中臣群集墳跡","address":"山科区西野山中臣町(折上神社境内)","latitude":34.972278,"longitude":135.803056},{"id":"YA016","name":"山科本願寺土塁跡","address":"山科区西野阿芸沢町(山科中央公園内)","latitude":34.9845,"longitude":135.812167},{"id":"YA017","name":"西野山古墓","address":"山科区西野山岩ヶ谷町(滑石越畔)","latitude":34.978417,"longitude":135.790611},{"id":"YA018","name":"大宅一里塚跡","address":"山科区大宅甲ノ辻町","latitude":34.968556,"longitude":135.820333},{"id":"YA019","name":"大宅廃寺跡","address":"山科区大宅奥山田(大宅中学校内)","latitude":34.967333,"longitude":135.822028},{"id":"YA020","name":"仏光寺旧址","address":"山科区東野百拍子町","latitude":34.977806,"longitude":135.814556},{"id":"YA021","name":"日本最初の鉄筋コンクリ－ト橋","address":"山科区日ノ岡堤谷町(疏水墜道前)","latitude":35.000083,"longitude":135.798611},{"id":"YA022","name":"旭山古墳群","address":"山科区北花山旭山町(京都市中央斎場前)","latitude":34.986694,"longitude":135.788806},{"id":"YA023","name":"大石良雄君隠棲旧址","address":"山科区西野山桜ノ馬場町(岩屋寺内)","latitude":34.969306,"longitude":135.796444},{"id":"YA024","name":"山科本願寺土塁跡南西角","address":"山科区西野左義長町","latitude":34.979861,"longitude":135.807694},{"id":"YA025","name":"志賀直哉旧居跡","address":"山科区竹鼻立原町","latitude":34.988583,"longitude":135.818944},{"id":"YA026","name":"蓮如上人南殿御旧地是より二町【道標】","address":"山科区竹鼻四丁野町(山科青年の家前)","latitude":34.985583,"longitude":135.815111},{"id":"YA027","name":"熊谷蓮心表徳碑","address":"山科区東野八反畑町(西雲寺内)","latitude":34.977806,"longitude":135.813778},{"id":"YA028","name":"旧東海道","address":"山科区北花山山田町","latitude":34.998389,"longitude":135.794667},{"id":"YA029","name":"本邦最初鉄筋混凝土橋","address":"山科区日ノ岡堤谷町(疏水墜道前)","latitude":35.000222,"longitude":135.798472},{"id":"YA030","name":"蓮如上人御往生地","address":"山科区西野広見町(西宗寺前)","latitude":34.983806,"longitude":135.807833},{"id":"YA031","name":"花山稲荷道【道標】","address":"山科区北花山山田町","latitude":34.995056,"longitude":135.798306},{"id":"YA032","name":"妙見道【道標】","address":"山科区北花山山田町","latitude":34.995056,"longitude":135.798306},{"id":"YA033","name":"三条通／五条橋【道標】","address":"山科区御陵中内町","latitude":34.991278,"longitude":135.811278},{"id":"YA034","name":"本願寺山科両別院是より左六町【道標】","address":"山科区安朱中小路町","latitude":34.992,"longitude":135.817444},{"id":"YA035","name":"東海道【道標】","address":"山科区安朱北屋敷町","latitude":34.991306,"longitude":135.818},{"id":"YA036","name":"毘沙門尊天是より北へ八町【道標】","address":"山科区安朱南屋敷町","latitude":34.991333,"longitude":135.819528},{"id":"YA037","name":"伏見・六地蔵【道標】","address":"山科区四ノ宮泉水町","latitude":34.991028,"longitude":135.82075},{"id":"YA038","name":"今熊野道【道標】","address":"山科区御陵三蔵町","latitude":34.98925,"longitude":135.811278},{"id":"YA039","name":"毘沙門堂是より北三町【道標】","address":"山科区安朱馬場ノ西町(安朱橋北詰)","latitude":34.996972,"longitude":135.819222},{"id":"YA040","name":"後山階陵・輪王寺宮御墓参道【道標】","address":"山科区安朱稲荷山町","latitude":35.00025,"longitude":135.819167},{"id":"YA042","name":"今熊野観音道【道標】","address":"山科区北花山中道町(現在地：大阪府枚方市北中振三丁目)","latitude":34.79725,"longitude":135.628167},{"id":"YA043","name":"上醍醐・福応寺【道標】","address":"山科区上花山講田町(福応寺内)","latitude":34.984944,"longitude":135.798333},{"id":"YA045","name":"蓮如上人御往生旧地西宗寺道【道標】","address":"山科区西野今屋敷町","latitude":34.987,"longitude":135.807556},{"id":"YA046","name":"蓮如上人御塚道【道標】","address":"山科区西野大手先町","latitude":34.984083,"longitude":135.814194},{"id":"YA047","name":"蓮如上人南殿御旧地・両御坊道【道標】","address":"山科区音羽中芝町","latitude":34.985,"longitude":135.82375},{"id":"YA048","name":"清水寺奥之院牛尾山道【道標】","address":"山科区音羽稲芝町","latitude":34.984278,"longitude":135.826194},{"id":"YA049","name":"大石良雄旧跡【道標】","address":"山科区西野山中鳥井町","latitude":34.971361,"longitude":135.798361},{"id":"YA050","name":"大石蔵之助旧跡【道標】","address":"山科区勧修寺仁王堂町(勧修寺前)","latitude":34.96125,"longitude":135.808889},{"id":"YA051","name":"京道・滑石越・大仏道【道標】","address":"山科区勧修寺仁王堂町(勧修寺前)","latitude":34.96125,"longitude":135.808861},{"id":"YA053","name":"今熊野観音道【道標】","address":"山科区川田土仏","latitude":34.979694,"longitude":135.796944},{"id":"YA054","name":"今熊野観音道十八町【道標】","address":"山科区川田西浦町","latitude":34.979944,"longitude":135.800333},{"id":"YA056","name":"赤穂義士旧跡","address":"山科区安朱堂ノ後町(瑞光院前)","latitude":34.999111,"longitude":135.819417},{"id":"YA057","name":"佐治城碑","address":"山科区勧修寺仁王堂町","latitude":34.961972,"longitude":135.808778},{"id":"YA058","name":"天智天皇山科陵【道標】","address":"山科区御陵下御廟野町","latitude":34.994778,"longitude":135.804139},{"id":"YA059","name":"醍醐大津方面【道標】","address":"山科区勧修寺仁王堂町(勧修寺前)","latitude":34.96125,"longitude":135.808861},{"id":"YA060","name":"人康親王墓【道標】","address":"山科区四ノ宮泉水町","latitude":34.991306,"longitude":135.821583},{"id":"YA062","name":"琵琶湖疏水煉瓦工場跡","address":"山科区御陵原西町(地下鉄京阪御陵駅入口)","latitude":34.995806,"longitude":135.802472},{"id":"YA063","name":"明智光秀胴塚","address":"山科区勧修寺御所内町","latitude":34.956111,"longitude":135.810056},{"id":"YA064","name":"愚堂国師入定地","address":"山科区北花山河原町(華山寺前)","latitude":34.989111,"longitude":135.801472},{"id":"YA065","name":"皇塚","address":"山科区大塚西浦町","latitude":34.979722,"longitude":135.82375},{"id":"YA066","name":"いなり山【道標】","address":"山科区北花山大林町","latitude":34.984444,"longitude":135.799028},{"id":"YA067","name":"牛尾山道【道標】","address":"山科区音羽珍事町","latitude":34.986833,"longitude":135.832222},{"id":"YA068","name":"追分京津国道【道標】","address":"山科区小山松原畑町(京の田舎民具資料館横)","latitude":34.984889,"longitude":135.835806},{"id":"YA069","name":"追分京津国道【道標】","address":"山科区小山御坊ノ内町","latitude":34.981833,"longitude":135.838389},{"id":"YA070","name":"宇治道【道標】","address":"山科区大塚森町","latitude":34.9805,"longitude":135.824139},{"id":"YA071","name":"大石旧跡岩屋寺【道標】","address":"山科区西野山桜ノ馬場町","latitude":34.974111,"longitude":135.79075},{"id":"YA072","name":"大石神社【道標】","address":"山科区西野山桜ノ馬場町","latitude":34.974111,"longitude":135.79075},{"id":"YA073","name":"折上神社参詣道【道標】","address":"山科区西野山桜ノ馬場町","latitude":34.974111,"longitude":135.79075},{"id":"YA074","name":"山科の棲家岩屋寺【道標】","address":"山科区西野山桜ノ馬場町","latitude":34.9695,"longitude":135.797167},{"id":"YA075","name":"岩屋寺【道標】","address":"山科区西野山桜ノ馬場町","latitude":34.969861,"longitude":135.797194},{"id":"YA076","name":"大石大夫閑居址【道標】","address":"山科区西野山桜ノ馬場町","latitude":34.9695,"longitude":135.797444},{"id":"YA077","name":"妙見道【道標】","address":"山科区大塚南溝町","latitude":34.977778,"longitude":135.823722},{"id":"YA078","name":"三条大橋・旧渋谷道【道標】","address":"山科区竹鼻西ノ口町","latitude":34.989667,"longitude":135.818694},{"id":"YA079","name":"花山道路碑","address":"山科区厨子奥花鳥町(東山ドライブウエイ北側)","latitude":35.000528,"longitude":135.791556},{"id":"YA080","name":"元慶寺【道標】","address":"山科区北花山河原町(元慶寺内)","latitude":34.988472,"longitude":135.801028},{"id":"YA081","name":"遍照僧正墓【道標】","address":"山科区北花山河原町(元慶寺内)","latitude":34.988333,"longitude":135.801028},{"id":"YA082","name":"牛尾山法厳寺参詣道【道標】","address":"山科区小山鎮守町","latitude":34.986889,"longitude":135.832278},{"id":"YA083","name":"粟田口名号碑","address":"山科区日ノ岡朝田町","latitude":34.998,"longitude":135.79775},{"id":"YA084","name":"大石良雄遺髪塚碑","address":"山科区西野山桜ノ馬場町(岩屋寺内)","latitude":34.969444,"longitude":135.79625},{"id":"YA085","name":"日時計碑","address":"山科区御陵上御廟野町","latitude":34.993472,"longitude":135.805972},{"id":"YA086","name":"坂上田村麻呂碑","address":"山科区勧修寺東栗栖野町","latitude":34.970667,"longitude":135.808},{"id":"YA087","name":"坂上田村麻呂墓【道標】","address":"山科区勧修寺東栗栖野町","latitude":34.970306,"longitude":135.807389},{"id":"YA088","name":"坂上田村麻呂墓【道標】","address":"山科区勧修寺東栗栖野町","latitude":34.9705,"longitude":135.808194},{"id":"YA089","name":"日岡峠修路碑","address":"山科区厨子奥花鳥町","latitude":35.001667,"longitude":135.7925},{"id":"YA090","name":"御日山神宮碑","address":"山科区日ノ岡一切経谷(日向大神宮内)","latitude":35.006278,"longitude":135.795056},{"id":"YA091","name":"北花山水路紀念碑","address":"山科区北花山寺内町","latitude":34.987722,"longitude":135.7985},{"id":"YA092","name":"元慶寺再興碑","address":"山科区北花山河原町(元慶寺内)","latitude":34.988306,"longitude":135.800944},{"id":"YA093","name":"山階寺跡","address":"山科区御陵大津畑町","latitude":34.989917,"longitude":135.811389},{"id":"YA094","name":"名神高速道路起工地","address":"山科区小野蚊ヶ瀬町(名神高速道路南側盛土内)","latitude":34.964139,"longitude":135.812417},{"id":"YA095","name":"大石神社創立記念碑","address":"山科区西野山桜ノ馬場町(大石神社内)","latitude":34.969972,"longitude":135.79575},{"id":"YA096","name":"京津国道改良工事竣工紀念碑","address":"山科区日ノ岡朝田町","latitude":34.998139,"longitude":135.796444},{"id":"YA097","name":"瑞光院遺躅碑","address":"山科区安朱堂ノ後町(瑞光院内)","latitude":34.999222,"longitude":135.818917},{"id":"YA098","name":"小野寺十内室丹子招魂碑","address":"山科区安朱堂ノ後町(瑞光院内)","latitude":34.99925,"longitude":135.818917},{"id":"YA099","name":"義士遺髪復旧碑","address":"山科区安朱堂ノ後町(瑞光院内)","latitude":34.999167,"longitude":135.818944},{"id":"YA100","name":"大石遺愛梅","address":"山科区安朱堂ノ後町(瑞光院内)","latitude":34.999167,"longitude":135.818972},{"id":"YA101","name":"将軍塚大日堂由来碑","address":"山科区厨子奥花鳥町(将軍塚大日堂内)","latitude":35.001694,"longitude":135.787694},{"id":"YA102","name":"後山階陵参道【道標】","address":"山科区御陵沢ノ川町","latitude":35.003028,"longitude":135.815417},{"id":"YA103","name":"後山階陵・輪王寺宮御墓【道標】","address":"山科区安朱稲荷山町","latitude":35.001778,"longitude":135.817222}]}
