{"police_box":[{"名称":"京都府警察本部／運転免許試験場 複数掲載あり","住所":"〒612-8486　京都府京都市伏見区羽束師古川町６４７ ","TEL":null,"URL":null,"latitude":"34.923678","longitude":"135.7235599"},{"名称":"下鴨警察署","住所":"〒606-8206　京都府京都市左京区田中馬場町６ ","TEL":"TEL (代) 075-703-0110","URL":"URL http:\/\/www.pref.jp\/fukei","latitude":"35.0332295","longitude":"135.7746483"},{"名称":"伏見警察署","住所":"〒612-8384　京都府京都市伏見区下鳥羽浄春ヶ前１０１","TEL":"TEL (代) 075-602-0110","URL":"URL http:\/\/www.pref.kyoto.jp\/fukei","latitude":"34.9354359","longitude":"135.7497664"},{"名称":"山科警察署","住所":"〒607-8185　京都府京都市山科区大宅神納町１６７ ","TEL":"TEL (代) 075-575-0110","URL":null,"latitude":"34.9653563","longitude":"135.8178603"},{"名称":"右京警察署","住所":"〒616-8162　京都府京都市右京区太秦蜂岡町３１ ","TEL":"TEL (代) 075-865-0110","URL":"URL http:\/\/www.pref.kyoto.jp\/fukei","latitude":"35.0142129","longitude":"135.7062486"},{"名称":"上京警察署","住所":"〒602-8386　京都府京都市上京区御前通今小路下る馬喰町６９２－１ ","TEL":"TEL (代) 075-465-0110","URL":null,"latitude":"35.027609","longitude":"135.736187"},{"名称":"川端警察署","住所":"〒606-8351　京都府京都市左京区岡崎徳成町１ ","TEL":"TEL (代) 075-771-0110","URL":null,"latitude":"35.0147444","longitude":"135.7776397"},{"名称":"下京警察署","住所":"〒600-8413　京都府京都市下京区烏丸通高辻上る大政所町６８２ ","TEL":"TEL (代) 075-352-0110","URL":null,"latitude":"35.000557","longitude":"135.759425"},{"名称":"西京警察署","住所":"〒615-8236　京都府京都市西京区山田大吉見町７ ","TEL":"TEL (代) 075-391-0110","URL":"URL http:\/\/www.pref.kyoto.jp\/fukei","latitude":"34.9811945","longitude":"135.6928682"},{"名称":"南警察署","住所":"〒601-8444　京都府京都市南区西九条森本町３９－２ ","TEL":"TEL (代) 075-682-0110","URL":null,"latitude":"34.9729996","longitude":"135.7502476"},{"名称":"北警察署","住所":"〒603-8202　京都府京都市北区紫竹東桃ノ本町２５ ","TEL":"TEL (代) 075-493-0110","URL":null,"latitude":"35.0483367","longitude":"135.7518394"},{"名称":"東山警察署","住所":"〒605-0862　京都府京都市東山区清水４丁目１８５－６ ","TEL":"TEL (代) 075-525-0110","URL":null,"latitude":"34.9960944","longitude":"135.7773521"},{"名称":"下鴨警察署／高野交番","住所":"〒606-8104　京都府京都市左京区高野竹屋町１－２ ","TEL":"TEL 075-711-3593","URL":null,"latitude":"35.0418248","longitude":"135.7810097"},{"名称":"川端警察署／南禅寺交番","住所":"〒606-8437　京都府京都市左京区南禅寺草川町３７ ","TEL":"TEL 075-771-0033","URL":null,"latitude":"35.0112836","longitude":"135.7879444"},{"名称":"下鴨警察署／花脊駐在所","住所":"〒601-1104　京都府京都市左京区花脊大布施町１８３－５ ","TEL":"TEL 075-746-0203","URL":null,"latitude":"35.2086071","longitude":"135.7757102"},{"名称":"下鴨警察署／修学院交番","住所":"〒606-8007　京都府京都市左京区山端壱町田町８－４ ","TEL":"TEL 075-721-1109","URL":null,"latitude":"35.0496909","longitude":"135.7917131"},{"名称":"伏見警察署／下板橋交番","住所":"〒612-8065　京都府京都市伏見区御駕籠町９７－２ ","TEL":"TEL 075-602-2866","URL":null,"latitude":"34.9376607","longitude":"135.7601601"},{"名称":"伏見警察署／大手筋交番","住所":"〒612-8039　京都府京都市伏見区御香宮門前町１７３ ","TEL":"TEL 075-601-0622","URL":null,"latitude":"34.9331584","longitude":"135.7678526"},{"名称":"山科警察署／醍醐交番","住所":"〒601-1326　京都府京都市伏見区醍醐新町裏町２４－３ ","TEL":"TEL 075-571-0132","URL":null,"latitude":"34.9546328","longitude":"135.8171757"},{"名称":"山科警察署／御陵交番","住所":"〒607-8417　京都府京都市山科区御陵別所町１２－２ ","TEL":"TEL 075-581-1717","URL":null,"latitude":"34.9931555","longitude":"135.806445"},{"名称":"右京警察署／西京極交番","住所":"〒615-0854　京都府京都市右京区西京極堤外町１４－１１ ","TEL":"TEL 075-313-0111","URL":null,"latitude":"34.9871792","longitude":"135.7177924"},{"名称":"右京警察署／常磐野交番","住所":"〒616-8226　京都府京都市右京区常盤段ノ上町１２－８ ","TEL":"TEL 075-861-0422","URL":null,"latitude":"35.0208678","longitude":"135.7035931"},{"名称":"右京警察署／西大路四条交番","住所":"〒615-0012　京都府京都市右京区西院高山寺町１８ ","TEL":"TEL 075-311-2509","URL":null,"latitude":"35.0037641","longitude":"135.7321688"},{"名称":"西京警察署／大枝交番","住所":"〒610-1101　京都府京都市西京区大枝北沓掛町６丁目１５－１ ","TEL":"TEL 075-331-2896","URL":null,"latitude":"34.9779176","longitude":"135.6663385"},{"名称":"右京警察署／春日交番","住所":"〒615-0033　京都府京都市右京区西院寿町３１ ","TEL":"TEL 075-312-5454","URL":null,"latitude":"34.9980285","longitude":"135.7301385"},{"名称":"京都府警察本部鉄道警察隊","住所":"〒600-8214　京都府京都市下京区東塩小路高倉町３－１１ ","TEL":"TEL 075-682-0913","URL":null,"latitude":"34.9851166","longitude":"135.7622884"},{"名称":"南警察署／東寺前交番","住所":"〒601-8473　京都府京都市南区大宮九条３９９ ","TEL":"TEL 075-691-0453","URL":null,"latitude":"34.9835795","longitude":"135.7486837"},{"名称":"北警察署／鷹ヶ峯交番","住所":"〒603-8464　京都府京都市北区鷹峯黒門町３３－７ ","TEL":"TEL 075-493-2408","URL":null,"latitude":"35.0514236","longitude":"135.7341344"},{"名称":"北警察署／十二坊交番","住所":"〒603-8303　京都府京都市北区紫野十二坊町３３－４ ","TEL":"TEL 075-461-5620","URL":null,"latitude":"35.0377512","longitude":"135.7394305"},{"名称":"上京警察署／下立売交番","住所":"〒602-8175　京都府京都市上京区下立売智恵光院角中村５３１ ","TEL":"TEL 075-841-6610","URL":null,"latitude":"35.0199668","longitude":"135.7469179"},{"名称":"北警察署／小野郷駐在所","住所":"〒601-0132　京都府京都市北区小野中ノ町８８－１ ","TEL":"TEL 075-406-2040","URL":null,"latitude":"35.113113","longitude":"135.6735661"},{"名称":"北警察署／小松原交番","住所":"〒603-8342　京都府京都市北区小松原南町１－１ ","TEL":"TEL 075-462-0153","URL":null,"latitude":"35.02998940000001","longitude":"135.7278657"},{"名称":"上京警察署／千本中立売交番","住所":"〒602-8284　京都府京都市上京区中立売通千本西入亀屋町６９３－３ ","TEL":"TEL 075-462-0155","URL":null,"latitude":"35.02512919999999","longitude":"135.7418284"},{"名称":"右京警察署／嵯峨嵐山交番","住所":"〒616-8385　京都府京都市右京区嵯峨天龍寺芒ノ馬場町３－４０ ","TEL":"TEL 075-861-0204","URL":null,"latitude":"35.0145778","longitude":"135.6773515"},{"名称":"右京警察署／山ノ内交番","住所":"〒615-0065　京都府京都市右京区西院日照町２ ","TEL":"TEL 075-311-2797","URL":null,"latitude":"35.0032362","longitude":"135.7253861"},{"名称":"東山警察署／大仏前交番","住所":"〒605-0931　京都府京都市東山区正面本町東入茶屋５２７－２ ","TEL":"TEL 075-561-2544","URL":null,"latitude":"34.9893885","longitude":"135.7714181"},{"名称":"東山警察署／祇園交番","住所":"〒605-0074　京都府京都市東山区祇園町南側５５１ ","TEL":"TEL 075-561-3255","URL":null,"latitude":"35.0031704","longitude":"135.7764538"},{"名称":"東山警察署／三条大橋東交番","住所":"〒605-0004　京都府京都市東山区若松町４１２－３ ","TEL":"TEL 075-771-2300","URL":null,"latitude":"35.0080642","longitude":"135.7735095"},{"名称":"東山警察署／大和大路交番","住所":"〒605-0073　京都府京都市東山区祇園北側２３９","TEL":"TEL 075-561-0153","URL":null,"latitude":"35.0039528","longitude":"135.7731762"},{"名称":"右京警察署／黒田駐在所","住所":"〒601-0406　京都府京都市右京区京北宮町宮野９１ ","TEL":"TEL 075-856-0051","URL":null,"latitude":"35.2037705","longitude":"135.7198225"},{"名称":"下鴨警察署／大原駐在所","住所":"〒601-1247　京都府京都市左京区大原野村町１３９－３ ","TEL":"TEL 075-744-2002","URL":null,"latitude":"35.1140452","longitude":"135.8222032"},{"名称":"下鴨警察署／静市野駐在所","住所":"〒601-1123　京都府京都市左京区静市市原町２２５－２ ","TEL":"TEL 075-741-2981","URL":null,"latitude":"35.0867952","longitude":"135.7612986"},{"名称":"下鴨警察署／北山交番","住所":"〒606-0913　京都府京都市左京区松ケ崎芝本町１２－４ ","TEL":"TEL 075-781-2350","URL":null,"latitude":"35.05211","longitude":"135.7735617"},{"名称":"下鴨警察署／叡山口駐在所","住所":"〒601-1254　京都府京都市左京区八瀬野瀬町１１３ ","TEL":"TEL 075-701-5352","URL":null,"latitude":"35.0653001","longitude":"135.8083111"},{"名称":"下京警察署／西八条交番","住所":"〒600-8864　京都府京都市下京区七条御所ノ内南町９１ ","TEL":"TEL 075-313-8301","URL":null,"latitude":"34.9839714","longitude":"135.7329081"},{"名称":"下京警察署／仏光寺交番","住所":"〒600-8084　京都府京都市下京区仏光寺高倉西入新開３９７ ","TEL":"TEL 075-351-2150","URL":null,"latitude":"35.0009123","longitude":"135.7625828"},{"名称":"下京警察署／七条新千本交番","住所":"〒600-8843　京都府京都市下京区朱雀内畑町 ","TEL":"TEL 075-313-0179","URL":null,"latitude":"34.98909080000001","longitude":"135.7425124"},{"名称":"下京警察署／花屋町交番","住所":"〒600-8896　京都府京都市下京区西七条西石ケ坪町４５ ","TEL":"TEL 075-313-0090","URL":null,"latitude":"34.9917625","longitude":"135.7333632"},{"名称":"下京警察署／七条堀川交番","住所":"〒600-8262　京都府京都市下京区七条通堀川西入八百屋町１７９ ","TEL":"TEL 075-371-3320","URL":null,"latitude":"34.9893605","longitude":"135.7527059"},{"名称":"山科警察署／小栗栖交番","住所":"〒601-1456　京都府京都市伏見区小栗栖南後藤町３ ","TEL":"TEL 075-572-0400","URL":null,"latitude":"34.9470492","longitude":"135.8041143"},{"名称":"向日町警察署／久我交番","住所":"〒612-8495　京都府京都市伏見区久我森の宮町１－８ ","TEL":"TEL 075-933-0266","URL":null,"latitude":"34.9391804","longitude":"135.732094"},{"名称":"伏見警察署／下鳥羽交番","住所":"〒612-8386　京都府京都市伏見区下鳥羽澱女町１１６ ","TEL":"TEL 075-611-4465","URL":null,"latitude":"34.9341212","longitude":"135.7451306"},{"名称":"京都府警察本部／警察学校","住所":"〒612-0021　京都府京都市伏見区深草塚本町 ","TEL":"TEL 075-641-8255","URL":null,"latitude":"34.9661186","longitude":"135.7666518"},{"名称":"伏見警察署／中書島交番","住所":"〒612-8226　京都府京都市伏見区桃山町金井戸島 ","TEL":"TEL 075-601-2322","URL":null,"latitude":"34.9255333","longitude":"135.7571906"},{"名称":"山科警察署／椥辻交番","住所":"〒607-8194　京都府京都市山科区大宅桟敷５ ","TEL":"TEL 075-592-6166","URL":null,"latitude":"34.9709335","longitude":"135.816191"},{"名称":"自動車安全運転センター京都府事務所","住所":"〒612-8486　京都府京都市伏見区羽束師古川町６４７ ","TEL":"TEL 075-631-7600","URL":null,"latitude":"34.923678","longitude":"135.7235599"},{"名称":"下鴨警察署／久多駐在所","住所":"〒520-0462　京都府京都市左京区久多下の町２０４ ","TEL":"TEL 075-748-2110","URL":null,"latitude":"35.2640532","longitude":"135.8231077"},{"名称":"右京警察署／高雄駐在所","住所":"〒616-8283　京都府京都市右京区梅ケ畑奥殿町５１ ","TEL":"TEL 075-882-2933","URL":null,"latitude":"35.0467345","longitude":"135.6820054"},{"名称":"右京警察署／福王子交番","住所":"〒616-8208　京都府京都市右京区宇多野福王子町５９ ","TEL":"TEL 075-461-2431","URL":null,"latitude":"35.02907820000001","longitude":"135.708673"},{"名称":"右京警察署／梅津交番","住所":"〒615-0906　京都府京都市右京区梅津高畝町３１ ","TEL":"TEL 075-861-0812","URL":null,"latitude":"35.0030846","longitude":"135.7061526"},{"名称":"南警察署／祥豊交番","住所":"〒601-8302　京都府京都市南区吉祥院西ノ庄淵ノ西町４２ ","TEL":"TEL 075-314-5912","URL":null,"latitude":"34.9824659","longitude":"135.7285664"},{"名称":"南警察署／陶化交番","住所":"〒601-8023　京都府京都市南区東九条南松ノ木町１－２ ","TEL":"TEL 075-672-0670","URL":null,"latitude":"34.9755565","longitude":"135.7643604"},{"名称":"南警察署／唐橋交番","住所":"〒601-8451　京都府京都市南区唐橋川久保町３６ ","TEL":"TEL 075-691-0675","URL":null,"latitude":"34.9780166","longitude":"135.7364935"},{"名称":"南警察署／上鳥羽交番","住所":"〒601-8137　京都府京都市南区上鳥羽城ケ前町３０ ","TEL":"TEL 075-691-3512","URL":null,"latitude":"34.9635904","longitude":"135.74254"},{"名称":"南警察署／久世交番","住所":"〒601-8206　京都府京都市南区久世大薮町８２ ","TEL":"TEL 075-921-0434","URL":null,"latitude":"34.9596746","longitude":"135.7194499"},{"名称":"南警察署／下殿田交番","住所":"〒601-8047　京都府京都市南区東九条下殿田町４１ ","TEL":"TEL 075-691-0049","URL":null,"latitude":"34.9792865","longitude":"135.7570388"},{"名称":"北警察署／紫竹交番","住所":"〒603-8425　京都府京都市北区紫竹下緑町６７－１ ","TEL":"TEL 075-492-8330","URL":null,"latitude":"35.0505629","longitude":"135.7485914"},{"名称":"中京警察署／千本丸太町交番","住所":"〒604-8404　京都府京都市中京区丸太町千本西入聚楽廻東２－５ ","TEL":"TEL 075-841-4800","URL":null,"latitude":"35.0181104","longitude":"135.7420925"},{"名称":"中京警察署／二条殿交番","住所":"〒604-0845　京都府京都市中京区烏丸通御池上る二条殿町５５２ ","TEL":"TEL 075-221-3760","URL":null,"latitude":"35.011144","longitude":"135.759187"},{"名称":"北警察署／北大路交番","住所":"〒603-8142　京都府京都市北区小山北上総町５０－１ ","TEL":"TEL 075-491-8383","URL":null,"latitude":"35.0440082","longitude":"135.7579517"},{"名称":"右京警察署／太秦交番","住所":"〒616-8104　京都府京都市右京区太秦下刑部町１７１ ","TEL":"TEL 075-861-4110","URL":null,"latitude":"35.0110076","longitude":"135.714573"},{"名称":"南警察署／祥栄交番","住所":"〒601-8361　京都府京都市南区吉祥院石原東之口２ ","TEL":"TEL 075-671-7272","URL":null,"latitude":"34.9643095","longitude":"135.7323409"},{"名称":"右京警察署／嵯峨野交番","住所":"〒616-8314　京都府京都市右京区嵯峨野秋街道町１－１ ","TEL":"TEL 075-861-0756","URL":null,"latitude":"35.0135463","longitude":"135.6973328"},{"名称":"東山警察署／泉涌寺交番","住所":"〒605-0973　京都府京都市東山区泉涌寺門前町２２－５ ","TEL":"TEL 075-561-0963","URL":null,"latitude":"34.9824154","longitude":"135.7741946"},{"名称":"東山警察署／東福寺交番","住所":"〒605-0981　京都府京都市東山区本町１５丁目７８１ ","TEL":"TEL 075-561-0408","URL":null,"latitude":"34.9798176","longitude":"135.7706023"},{"名称":"東山警察署／渋谷交番","住所":"〒605-0927　京都府京都市東山区渋谷通東大路東入３丁目上馬町５３６－４３ ","TEL":"TEL 075-561-0890","URL":null,"latitude":"34.990541","longitude":"135.780803"},{"名称":"中京警察署／四条交番","住所":"〒604-8014　京都府京都市中京区四条先斗町柏屋 ","TEL":"TEL 075-221-0637","URL":null,"latitude":"35.0040701","longitude":"135.7711609"},{"名称":"山科警察署／百々交番","住所":"〒607-8301　京都府京都市山科区西野山百々町２６５ ","TEL":"TEL 075-594-0110","URL":null,"latitude":"34.9764132","longitude":"135.796866"},{"名称":"右京警察署／山国駐在所","住所":"〒601-0316　京都府京都市右京区京北比賀江町院谷２２－１ ","TEL":"TEL 075-853-0034","URL":null,"latitude":"35.1817551","longitude":"135.6626675"},{"名称":"右京警察署／弓削駐在所","住所":"〒601-0533　京都府京都市右京区京北下中町勝山田８－１０ ","TEL":"TEL 075-854-0034","URL":null,"latitude":"35.19807249999999","longitude":"135.6391529"},{"名称":"中京警察署／御前松原交番","住所":"〒604-8845　京都府京都市中京区壬生東高田町１－２ ","TEL":"TEL 075-316-0110","URL":null,"latitude":"34.9978981","longitude":"135.7349131"},{"名称":"伏見警察署／横大路交番","住所":"〒612-8295　京都府京都市伏見区横大路鍬ノ本１－６ ","TEL":"TEL 075-621-0110","URL":null,"latitude":"34.9274136","longitude":"135.7385701"},{"名称":"向日町警察署／羽束師交番","住所":"〒612-8485　京都府京都市伏見区羽束師志水町２１９－１ ","TEL":"TEL 075-922-0110","URL":null,"latitude":"34.9296884","longitude":"135.7228796"},{"名称":"西京警察署／桂西口交番","住所":"〒615-8191　京都府京都市西京区川島有栖川町１ ","TEL":"TEL 075-381-0110","URL":null,"latitude":"34.9792435","longitude":"135.7022787"}]}