{"rentalshop":[{"name":"京都サイクリングツアープロジェクト","postcode":"600-8235","address":"京都市下京区油小路塩小路通下ル東油小路町552-13","tel":"075-354-3636","setsumei":"9:00～19:00","holiday":"無休","website":"http://www.kctp.net/","latitude":34.9863,"longitude":135.754178},{"name":"京の楽チャリ　東山三条店","postcode":"606-8346","address":"京都市左京区南門前町538-3　ABCビル1F","tel":"075-761-5828","setsumei":"9:00～18:00","holiday":"不定休","website":"http://rentacycle.jp/","latitude":35.010073,"longitude":135.778395},{"name":"京の楽チャリ　京都駅七条店","postcode":"600-8141","address":"京都区下京区新日吉町124-3-2　ルーム大森1F ","tel":"080-7975-1319","setsumei":"9:00～18:00","holiday":"不定休","website":"http://rentacycle.jp/","latitude":34.990002,"longitude":135.765376},{"name":"京都ちりんちりん　本部","postcode":"602-8258","address":"京都市上京区和水町439-19","tel":"075-414-0210","setsumei":"8:30～20:00","holiday":"不定休","website":"http://chirin2.com/","latitude":35.024209,"longitude":135.748716},{"name":"京都ちりんちりん 二条城デリバリーセンター","postcode":"604-0042","address":"京都市中京区押西洞院町624 ベラジオ二条城前1階","tel":"075-414-0210","setsumei":"8:30～20:00","holiday":"不定休","website":"http://chirin2.com/","latitude":35.0120252,"longitude":135.754936},{"name":"京都レンタルサイクル","postcode":"604-8212","address":"京都市中京区六角町352","tel":"075-746-2727","setsumei":"9:00～19:00","holiday":"無休","website":"http://kyoto-rental-cycle.com/","latitude":35.007198,"longitude":135.756769},{"name":"B.B.HOUSE マルニ","postcode":"606-8413","address":"京都市左京区浄土寺下馬場町100","tel":"075-771-6644","setsumei":"9:00～19:00","holiday":"日曜日","website":"―","latitude":35.0230048,"longitude":135.7920995},{"name":"Bike Laboratory","postcode":"603-8132","address":"北区小山下内河原町48-23","tel":"075-203-1382","setsumei":"10:00～19:00","holiday":"水曜日","website":"http://bike-laboratory.on.omisenomikata.jp/","latitude":35.0439423,"longitude":135.7605825},{"name":"レンタサイクル　京都みやび屋","postcode":"600-8150","address":"京都市下京区上珠数屋町323","tel":"075-354-7060","setsumei":" 8:30～19:00","holiday":"無し（年中無休）","website":"http://k-miyabiya.jp","latitude":34.9925,"longitude":135.7602778},{"name":"レンタサイクル　京都みやび屋IF","postcode":"600-8149","address":"京都市下京区粉川町226","tel":"075-354-7060","setsumei":" 8:30～19:00","holiday":"無し（不定休）","website":"http://k-miyabiya.jp","latitude":34.9897222,"longitude":135.76},{"name":"レンタサイクル　古都めぐり","postcode":"600-8207","address":"京都市下京区上之町18-13","tel":"080-2461-510","setsumei":"貸出受付時間9：00～13：30 利用は22：00まで","holiday":"無し（不定休）","website":"https://koto-meguri.on.omisenomikata.jp/","latitude":34.9871188,"longitude":135.7634459},{"name":"レンタサイクルイン京都　京都駅南店","postcode":"601-8003","address":"京都市南区東九条西山王町1-4","tel":"080-4238-2299","setsumei":"9:00～18:30","holiday":"無し（不定休）","website":"http://www.kyoto-rent-a-bike.jp/","latitude":34.9819848,"longitude":135.760757},{"name":"タケウチ商会","postcode":"602-0856","address":"京都市上京区河原町荒神口角荒神町116","tel":"075-221-3443","setsumei":"9:30～18:30","holiday":"日曜日・祝日","website":"―","latitude":35.0213271,"longitude":135.7695124},{"name":"サイクルステージ マルヤス","postcode":"604-8414","address":"京都市中京区西ノ京小倉町4","tel":"075-841-4291","setsumei":"9:00～19:00","holiday":"不定休","website":"http://www.maruyasu.club/","latitude":35.008547,"longitude":135.739792},{"name":"京都 eco トリップ","postcode":"601-8001","address":"京都市南区東九条室町58番地","tel":"075-691-0794","setsumei":"6:30～22:00","holiday":"無休","website":"https://www.kyoto-option.com/ ","latitude":34.9831337,"longitude":135.7571465},{"name":"イーサイクル京都","postcode":"600-8212","address":"京都市下京区塩小路町522番地 ","tel":"075-354-5468","setsumei":"8:30～18:00","holiday":"無休","website":"https://e-cycle.kyoto/","latitude":34.988406,"longitude":135.761287},{"name":"ハッピーサイクル京都","postcode":"604-8222","address":"京都市中京区観音堂町466番地 ","tel":"075-746-7942","setsumei":"8:30～18:00","holiday":"無休","website":"https://happy-cycle.kyoto/","latitude":35.0044921,"longitude":135.7574851},{"name":"～京のレンタサイクルるぽるぽ～京都市鴨東駐車場","postcode":"605-0076","address":"京都市東山区川端四条上る川端町181番地","tel":"075-551-2034","setsumei":"9:00～17:00（返却は20:00まで）","holiday":"無休","website":"http://www.kyotopublic.or.jp/rentacycle/","latitude":35.004122,"longitude":135.772488},{"name":"～京のレンタサイクルるぽるぽ～京都駅八条口駐車場","postcode":"601-8003","address":"京都市南区東九条西山王町31番地 アバンティB2F","tel":"075-671-8947","setsumei":"9:00～17:00（返却は20:00まで）","holiday":"無休","website":"http://www.kyotopublic.or.jp/rentacycle/","latitude":34.983254,"longitude":135.760221},{"name":"～京のレンタサイクルるぽるぽ～岡崎公園駐車場","postcode":"606-8342","address":"京都市左京区岡崎最勝寺町63番地","tel":"075-761-9617","setsumei":"9:00～17:00（返却は20:00まで）","holiday":"無休","website":"http://www.kyotopublic.or.jp/rentacycle/","latitude":35.013755,"longitude":135.783167},{"name":"～京のレンタサイクルるぽるぽ～北山駅自転車駐車場","postcode":"606-0823","address":"京都市左京区下鴨半木町1番地の23","tel":"075-711-9690","setsumei":"9:00～17:00（返却は20:00まで）","holiday":"無休","website":"http://www.kyotopublic.or.jp/rentacycle/","latitude":35.051075,"longitude":135.765053},{"name":"清水自転車 常盤店","postcode":"616-8224","address":"右京区常盤窪町15-20","tel":"075-872-8646","setsumei":"10:00～20:00","holiday":"不定休","website":"http://www.shimizu-bc.info/","latitude":35.0204818,"longitude":135.7063012},{"name":"清水自転車 花園店","postcode":"616-8067","address":"右京区太秦安井小山町16","tel":"075-464-6661","setsumei":"10:00～20:00","holiday":"不定休","website":"http://www.shimizu-bc.info/","latitude":35.0196482,"longitude":135.719917},{"name":"京都レンタサイクル ろうじ屋","postcode":"604-8375","address":"京都市中京区西ノ京池ノ内町22-58","tel":"075-432-8494","setsumei":"8:00～11:00，16:00～21:00","holiday":"なし","website":"http://bike.kyotobase.com/","latitude":35.009227,"longitude":135.745286},{"name":"京都岡崎 蔦屋書店","postcode":"606-8342","address":"京都市左京区岡崎最勝寺町13 ロームシアター京都 パークプラザ1F","tel":"075-754-0008","setsumei":"8:00～22:00（レンタサイクルは20:00まで）","holiday":"なし","website":"http://real.tsite.jp/kyoto-okazaki/","latitude":35.013957,"longitude":135.78053},{"name":"阪急西院駐輪センター","postcode":"615-0012","address":"京都市右京区西院高山寺町16-1","tel":"075-315-3088","setsumei":"6:30～23:30","holiday":"12月31日，1月1日，2日，3日","website":"http://www.hankyu.co.jp/","latitude":35.0032641,"longitude":135.7310134},{"name":"阪急桂駐輪センター","postcode":"615-8073","address":"京都市西京区桂野里町17番地","tel":"075-381-3335","setsumei":"6:30～23:30","holiday":"12月31日，1月1日，2日，3日","website":"http://www.hankyu.co.jp/","latitude":34.9803187,"longitude":135.7036631},{"name":"阪急洛西口駐輪センター","postcode":"615-8103","address":"京都市西京区川島六ノ坪町59-2","tel":"075-391-6681","setsumei":"6:30～23:30","holiday":"12月31日，1月1日，2日，3日","website":"http://www.hankyu.co.jp/","latitude":34.963948,"longitude":135.7034435},{"name":"阪急レンタサイクル嵐山","postcode":"616-0003","address":"京都市西京区嵐山西一川町","tel":"075-882-1112","setsumei":"11月～4月：9:00～17:00，5月～10月：9:00～18:00","holiday":"なし","website":"http://www.hankyu.co.jp/","latitude":35.0106622,"longitude":135.6809748},{"name":"トロッコおじさんのレンタサイクル トロッコ嵯峨駅店","postcode":"616-8373","address":"京都市右京区嵯峨天竜寺車道町","tel":"075-881-4898","setsumei":"9:00～17:00","holiday":"年末年始，社内行事日","website":"https://www.sagano-kanko.co.jp/","latitude":35.018573,"longitude":135.679662},{"name":"山田モーター商会","postcode":"604-8412","address":"京都市中京区西ノ京南聖町１","tel":"075-841-3113","setsumei":"9:00～19:00","holiday":"日曜日","website":"https://blogs.yahoo.co.jp/yamadamotor/","latitude":35.0086327,"longitude":135.7443067},{"name":"サクラ 京都三条店","postcode":"604-8375","address":"京都市中京区西ノ京池ノ内町8-1","tel":"075-812-6300","setsumei":"10:00～20:00（冬季営業は10:00～19:00）","holiday":"第2木曜日","website":"http://www.bc-sakula.com","latitude":35.0086363,"longitude":135.7447953},{"name":"Fillet","postcode":"604-8166","address":"京都市中京区三条通烏丸西入御倉町64 KBアネックス1F","tel":"075-255-7077","setsumei":"10:00～20:00（冬季営業は10:00～19:00）","holiday":"第2，第4木曜日","website":"http://www.bc-sakula.com","latitude":35.008473,"longitude":135.758191},{"name":"サクラ 北山店","postcode":"603-8115","address":"京都市北区紫竹下本町47-7","tel":"075-491-2345","setsumei":"10:00～20:00（冬季営業は10:00～19:00）","holiday":"第2木曜日","website":"http://www.bc-sakula.com","latitude":35.0497574,"longitude":135.7517828},{"name":"サクラ 百万遍店","postcode":"606-8203","address":"京都市左京区田中関田町2-7 鴨東ロイヤルハイツ1F","tel":"075-751-1566","setsumei":"10:00～20:00（冬季営業は10:00～19:00）","holiday":"第2木曜日","website":"http://www.bc-sakula.com","latitude":35.0285572,"longitude":135.7771419},{"name":"サクラ 山科店","postcode":"607-8076","address":"京都市山科区音羽役出町1-26","tel":"075-581-3210","setsumei":"10:00～20:00（冬季営業は10:00～19:00）","holiday":"第2木曜日","website":"http://www.bc-sakula.com","latitude":34.9851207,"longitude":135.8173048},{"name":"サクラ 西京極店","postcode":"615-0801","address":"京都市右京区西京極豆田町6","tel":"075-321-7774","setsumei":"10:00～20:00（冬季営業は10:00～19:00）","holiday":"第2木曜日","website":"http://www.bc-sakula.com","latitude":34.9928843,"longitude":135.7229641}]}